time,m_filename_hash,m_mission_hash,m_present_time,m_speed,m_pitch,m_roll,m_heading,m_fin,m_depth,m_depth_rate,m_water_depth,m_pressure,m_altitude,m_battery,m_vacuum,m_ballast_pumped,m_de_oil_vol,m_battpos,m_thruster_power,m_thruster_current,c_pitch,c_roll,c_heading,c_fin,m_gps_x_lmc,m_gps_y_lmc,m_gps_fix_x_lmc,m_gps_fix_y_lmc,m_gps_status,m_gps_full_status,m_x_lmc,m_y_lmc,m_dr_time,m_dr_surf_x_lmc,m_dr_surf_y_lmc,m_ext_x_lmc,m_ext_y_lmc,m_ext_z_lmc,x_lmc_xy_source,c_wpt_x_lmc,c_wpt_y_lmc,m_lat,m_lon,m_gps_lat,m_gps_lon,c_wpt_lat,c_wpt_lon,m_water_vx,m_water_vy,m_vx_lmc,m_vy_lmc,m_coulomb_amphr,m_thruster_watthr,m_appear_to_be_at_surface,m_science_clothesline_lag,sci_m_present_time,x_software_ver
1618087931.81808,-5.708825815216027e+18,7.682450258631732e+18,1618069931.81808,0.0,-0.113446,-0.0366519,3.70359,-0.452683,12.3884,0.0,,1.23884,,,,,27.6212,-0.320573,,,0.209,,1.45003,-0.45,,,,,,,-114.611,-65.632,,,,,,,1.0,,,4133.17411725539,-7040.83183530002,,,,,,,0.0,0.0,0.926254,,0.0,3.59024,1618069930.89554,
1618087936.10962,-5.708825815216027e+18,7.682450258631732e+18,1618069936.10962,0.0,-0.0855211,-0.0401426,3.70708,-0.452683,12.0861,-0.0713285,,1.20861,,,,,53.0959,-0.320573,,,0.209,,1.45003,-0.45,,,,,,,-114.611,-65.632,,,,,,,1.0,,,4133.17411725539,-7040.83183530002,,,,,,,0.0,0.0,0.92875,,0.0,3.90585,1618069934.89304,
1618087940.26852,-5.708825815216027e+18,7.682450258631732e+18,1618069940.26852,0.0,-0.0139626,-0.0366519,3.70359,-0.452683,11.8388,-0.0588737,,1.18388,,,,,76.8053,-0.320573,,,0.209,,1.45003,-0.45,,,,,,,-114.611,-65.632,,,,,,,1.0,,,4133.17411725539,-7040.83183530002,,,,,,,0.0,0.0,0.932494,,0.0,4.02841,1618069938.90726,
1618087944.60873,-5.708825815216027e+18,7.682450258631732e+18,1618069944.60873,0.0,0.0418879,-0.0314159,3.69486,-0.452683,11.7563,-0.0190179,,1.17563,,,,,102.579,-0.320573,,,0.209,,1.45003,-0.45,,,,,,,-114.611,-65.632,,,,,,,1.0,,,4133.17411725539,-7040.83183530002,,,,,,,0.0,0.0,0.935006,,0.0,4.39157,1618069942.88458,
1618087948.74603,-5.708825815216027e+18,7.682450258631732e+18,1618069948.74603,0.0,0.0767945,-0.0349066,3.68614,-0.452683,11.3166,-0.106181,,1.13166,,,,,127.076,-0.320573,,,0.209,,1.45003,-0.45,,,,,,,-114.611,-65.632,,,,,,,1.0,,,4133.17411725539,-7040.83183530002,,,,,,,0.0,0.0,0.937502,,0.0,4.51828,1618069946.89606,
1618087953.0332,-5.708825815216027e+18,7.682450258631732e+18,1618069953.0332,0.0,0.0942478,-0.0418879,3.66694,-0.452683,11.2067,-0.0256412,,1.12067,,,,,151.953,-0.320573,,,0.209,,1.45003,-0.45,,,,,,,-114.611,-65.632,,,,,,,1.0,,,4133.17411725539,-7040.83183530002,,,,,,,0.0,0.0,0.93875,,0.0,4.81433,1618069950.89279,
1618087957.32516,-5.708825815216027e+18,7.682450258631732e+18,1618069957.32516,0.0,0.122173,-0.0383972,3.64774,-0.45385,10.767,-0.102684,,1.0767,,,,,176.558,-0.320573,,,0.209,,1.45003,-0.45,,,,,,,-114.611,-65.632,,,,,,,1.0,,,4133.17411725539,-7040.83183530002,,,,,,,0.0,0.0,0.941262,,0.0,1.11676,1618069958.88022,
1618087961.61703,-5.708825815216027e+18,7.682450258631732e+18,1618069961.61703,0.0,0.137881,-0.0453786,3.61981,-0.452683,10.4922,-0.0641328,,1.04922,,,,,201.979,-0.320573,,,0.209,,1.45003,-0.45,,,,,,,-114.611,-65.632,,,,,,,1.0,,,4133.17411725539,-7040.83183530002,,,,,,,0.0,0.0,0.946238,,0.0,1.39551,1618069962.89249,
1618087965.75626,-5.708825815216027e+18,7.682450258631732e+18,1618069965.75626,0.0,0.120428,-0.0471239,3.58142,-0.452683,10.1624,-0.079867,,1.01624,,,,,225.254,-0.320573,,,0.209,,1.45003,-0.45,,,,,,,-114.611,-65.632,,,,,,,1.0,,,4133.17411725539,-7040.83183530002,,,,,,,0.0,0.0,0.947502,,0.0,1.53461,1618069966.88953,
1618087970.03922,-5.708825815216027e+18,7.682450258631732e+18,1618069970.03922,0.0,0.125664,-0.0383972,3.57792,-0.452683,9.64031,-0.121146,,0.964031,,16.0349,,,249.696,-0.320573,,,0.209,,1.45003,-0.45,,,,,,,-114.611,-65.632,,,,,,,1.0,,,4133.17411725539,-7040.83183530002,,,,,,,0.0,0.0,0.949998,,0.0,1.8179,1618069970.8895,
1618087974.11655,-5.708825815216027e+18,7.682450258631732e+18,1618069974.11655,0.0,0.1309,-0.0366519,3.59712,-0.45385,9.5029,-0.0342826,,0.95029,,,,,,-0.320573,,,0.209,,1.45003,-0.45,,,,,,,-114.611,-65.632,,,,,,,1.0,,,4133.17411725539,-7040.83183530002,,,,,,,0.0,0.0,0.952494,,0.0,1.9024,1618069974.88449,
1618087978.32608,-5.708825815216027e+18,7.682450258631732e+18,1618069978.32608,0.0,0.141372,-0.0471239,3.63203,-0.45385,9.03573,-0.111551,,0.903573,,,7.40988,,,-0.320573,,,0.209,,1.45003,-0.45,,,,,,,-114.611,-65.632,,,,,,,1.0,,,4133.17411725539,-7040.83183530002,,,,,,,0.0,0.0,0.952494,,0.0,2.09781,1618069978.89706,
1618087982.38855,-5.708825815216027e+18,7.682450258631732e+18,1618069982.38855,0.0,0.181514,-0.0488692,3.65472,-0.45385,8.54107,-0.122228,,0.854107,,,,,,-0.320573,,,0.209,,1.45003,-0.45,,,,,,,-114.611,-65.632,,,,,,,1.0,,,4133.17411725539,-7040.83183530002,,,,,,,0.0,0.0,0.952494,,0.0,2.16852,1618069982.88831,
1618087986.5965,-5.708825815216027e+18,7.682450258631732e+18,1618069986.5965,0.0,0.164061,-0.0453786,3.66345,-0.45385,8.45863,-0.0194716,,0.845863,,,,,250.756,-0.320573,,,0.209,,1.45003,-0.45,,,,,,,-114.611,-65.632,,,,,,,1.0,,,4133.17411725539,-7040.83183530002,,,,,,,0.0,0.0,0.952494,,0.0,2.31201,1618069986.95273,
1618087990.80612,-5.708825815216027e+18,7.682450258631732e+18,1618069990.80612,0.0,0.153589,-0.0401426,3.64948,-0.45385,7.99145,-0.110758,,0.799145,,,,,250.674,-0.320573,,,0.209,,1.45003,-0.45,,,,,,,-114.611,-65.632,,,,,,,1.0,,,4133.17411725539,-7040.83183530002,,,,,,,0.0,0.0,0.953758,,0.0,2.59338,1618069990.88055,
1618087995.01205,-5.708825815216027e+18,7.682450258631732e+18,1618069995.01205,0.0,0.169297,-0.0226893,3.63378,-0.45385,7.52428,-0.111179,,0.752428,,,,,250.593,-0.320573,,,0.209,,1.45003,-0.45,,,,,,,-114.611,-65.632,,,,,,,1.0,,,4133.17411725539,-7040.83183530002,,,,,,,0.0,0.0,0.953758,,0.0,2.78812,1618069994.89337,
1618087999.07587,-5.708825815216027e+18,7.682450258631732e+18,1618069999.07587,0.0,0.169297,-0.0261799,3.62679,-0.45385,7.35939,-0.0405523,,0.735939,,,,,250.62,-0.320573,,,0.209,,1.45003,-0.45,,,,,,,-114.611,-65.632,,,,,,,1.0,,,4133.17411725539,-7040.83183530002,,,,,,,0.0,0.0,0.953758,,0.0,2.8266,1618069998.9184,
1618088003.28183,-5.708825815216027e+18,7.682450258631732e+18,1618070003.28183,0.144691,0.188496,-0.0349066,3.57443,-0.45385,6.89221,-0.111365,,0.689221,,,,,250.701,-0.320573,,,0.209,,1.45003,-0.45,,,,,,,-114.867,-66.1843,,,,,,,1.0,,,4133.173792461,-7040.83190289467,,,,,,,-0.0606909,-0.131347,0.953758,,0.0,2.95056,1618070002.99933,
1618088007.47336,-5.708825815216027e+18,7.682450258631732e+18,1618070007.47336,0.36141,0.219911,-0.0628319,3.51684,-0.45385,6.26015,-0.13431,,0.626015,,,,,250.593,-0.187289,12.198,4.066,,,1.44585,-0.45,,,,,,7.0,-115.424,-67.5986,,,,,,,1.0,,,4133.17297503678,-7040.83200930835,,,,,,,-0.132457,-0.336263,0.953758,,0.0,3.24805,1618070006.89697,
1618088012.07663,-5.708825815216027e+18,7.682450258631732e+18,1618070012.07663,0.362765,0.202458,-0.0541052,3.4767,-0.45385,5.68305,-0.108314,,0.568305,,,,,,0.0076398,,,,,1.43514,-0.45,,,,,,7.0,-115.995,-69.2403,,,,,,,1.0,,,4133.17203731835,-7040.8320809619,,,,,,,-0.119301,-0.342587,0.955006,,0.0,4.04861,1618070010.89368,
1618088016.62067,-5.708825815216027e+18,7.682450258631732e+18,1618070016.62067,1.1047,0.0855211,-0.0593412,3.44528,-0.45385,5.40824,-0.0758094,,0.540824,,,,,250.728,0.0076398,5.7,1.9,,,1.42277,-0.45,,,,,2.0,2.0,-117.431,-73.8216,,,,,,,1.0,,,4133.16944412816,-7040.83217046289,,,,,,,-0.330352,-1.05415,0.955006,0.195219,0.0,4.38763,1618070014.90042,
1618088021.13489,-5.708825815216027e+18,7.682450258631732e+18,1618070021.13489,1.0926,0.0401426,-0.0506145,3.42434,-0.45385,5.21588,-0.0429485,,0.521588,,,,,250.728,0.0076398,5.358,1.786,,,1.38888,-0.45,,,,,,7.0,-118.808,-78.562,,,,,,,1.0,,,4133.16677698635,-7040.83218813101,,,,,,,-0.304826,-1.04922,0.956254,0.202005,0.0,0.911682,1618070022.89471,
1618088025.64972,-5.708825815216027e+18,7.682450258631732e+18,1618070025.64972,1.0912,0.0645772,-0.0506145,3.39117,-0.45385,5.05099,-0.0365357,,0.505099,,,,,250.593,0.0076398,5.358,1.786,,,1.35486,-0.45,,,,,2.0,7.0,-120.025,-83.3372,,,,,,,1.0,,,4133.16411546167,-7040.8320882393,,,,,,,-0.269526,-1.05739,0.956254,0.208861,0.0,1.43076,1618070026.88934,
1618088030.16727,-5.708825815216027e+18,7.682450258631732e+18,1618070030.16727,1.08305,0.0872665,-0.0523599,3.35976,-0.45385,4.80366,-0.0549374,,0.480366,,,,,250.783,0.0076398,5.244,1.748,,,1.32151,-0.45,,,,,2.0,7.0,-121.083,-88.1081,,,,,,,1.0,,,4133.16147980266,-7040.8318788666,,,,,,,-0.234414,-1.05738,0.957502,0.215319,0.0,1.91739,1618070030.91986,
1618088034.69467,-5.708825815216027e+18,7.682450258631732e+18,1618070034.69467,1.07531,0.0959931,-0.0558505,3.31962,-0.45385,4.66626,-0.0300272,,0.466626,,16.0353,,,250.728,0.0076398,5.18397,1.71,,,1.28902,-0.45,,,,,2.0,7.0,-121.945,-92.898,,,,,,,1.0,,,4133.15886324421,-7040.83153027208,,,,,,,-0.190422,-1.05832,0.95875,0.22191,0.0,2.34027,1618070035.02173,
1618088039.22363,-5.708825815216027e+18,7.682450258631732e+18,1618070039.22363,1.07531,0.0959931,-0.0523599,3.27424,-0.452683,4.33649,-0.0732987,,0.433649,,,,,250.701,0.0076398,5.18397,1.71,,,1.25708,-0.45,,,,,2.0,7.0,-122.589,-97.7253,,,,,,,1.0,,,4133.15625953306,-7040.83102368831,,,,,,,-0.142217,-1.06587,0.95875,0.228387,0.0,3.00958,1618070038.88275,
1618088043.75311,-5.708825815216027e+18,7.682450258631732e+18,1618070043.75311,1.06854,0.0890118,-0.0541052,3.24457,-0.45385,3.95176,-0.0850614,,0.395176,,,,,250.674,0.0076398,5.06877,1.672,,,1.2254,-0.45,,,,,2.0,7.0,-123.087,-102.543,,,,,,,1.0,,,4133.15368230206,-7040.83041780109,,,,,,,-0.109838,-1.06288,0.95875,0.23472,0.0,3.53021,1618070042.89395,
1618088048.27225,-5.708825815216027e+18,7.682450258631732e+18,1618070048.27225,1.0943,0.0942478,-0.0558505,3.1957,-0.45385,3.64947,-0.0662191,,0.364947,,,,,250.81,0.0076398,5.52956,1.824,,,1.19442,-0.45,,,,,2.0,2.0,-123.354,-107.478,,,,,,,1.0,,,4133.15107867628,-7040.82962938033,,,,,,,-0.0591782,-1.09269,0.959998,0.241732,0.0,3.99811,1618070046.94211,
1618088052.79135,-5.708825815216027e+18,7.682450258631732e+18,1618070052.79135,1.06803,0.0942478,-0.0506145,3.1573,-0.45385,3.53954,-0.0245639,,0.353954,,,,,250.728,0.0076398,5.06877,1.672,,,1.16301,-0.45,,,,,2.0,2.0,-123.43,-112.308,,,,,,,1.0,,,4133.14855770846,-7040.8287291986,,,,,,,-0.0167759,-1.0679,0.959998,0.248072,0.0,4.38477,1618070051.07831,
1618088057.30493,-5.708825815216027e+18,7.682450258631732e+18,1618070057.30493,1.05905,0.102974,-0.0541052,3.12239,-0.45385,3.09985,-0.0976882,,0.309985,,,,,250.756,0.0076398,4.95357,1.634,,,1.13265,-0.45,,,,,2.0,2.0,-123.338,-117.087,,,,,,,1.0,,,4133.14608832899,-7040.82772321924,,,,,,,0.020331,-1.05885,0.961246,0.254265,0.0,1.08737,1618070058.88889,
1618088061.81915,-5.708825815216027e+18,7.682450258631732e+18,1618070061.81915,1.05866,0.106465,-0.0541052,3.06829,-0.45385,2.88,-0.0486496,,0.288,,,,,250.783,0.0076398,,,,,1.10296,-0.45,,,,,2.0,2.0,-122.989,-121.849,,,,,,,1.0,,,4133.14366539199,-7040.82654189415,,,,,,,0.0775344,-1.05582,0.961246,,0.0,1.59799,1618070062.88937,
1618088066.32309,-5.708825815216027e+18,7.682450258631732e+18,1618070066.32309,1.08807,0.0994838,-0.0523599,3.0264,-0.452683,2.49527,-0.08607,,0.249527,,,,,250.783,0.0076398,5.358,1.786,,,1.07336,-0.45,,,,,,7.0,-122.425,-126.718,,,,,,,1.0,,,4133.14121931663,-7040.82519208897,,,,,,,0.12506,-1.08086,0.962494,0.267648,0.0,2.09677,1618070066.89508,
1618088070.83908,-5.708825815216027e+18,7.682450258631732e+18,1618070070.83908,1.05979,0.0959931,-0.0471239,2.99149,-0.45385,2.08305,-0.0904573,,0.208305,,,,,250.81,0.0076398,4.902,1.634,,,1.04322,-0.45,,,,,2.0,7.0,-121.71,-131.448,,,,,,,1.0,,,4133.13886753732,-7040.82376432328,,,,,,,0.158476,-1.04787,0.962494,0.273846,0.0,2.6239,1618070070.88312,
1618088075.34711,-5.708825815216027e+18,7.682450258631732e+18,1618070075.34711,1.08236,0.0942478,-0.0418879,2.95135,-0.45385,1.86321,-0.0486819,,0.186321,,,,,250.728,0.0076398,5.244,1.748,,,1.01409,-0.447223,,,,,2.0,7.0,-120.787,-136.24,,,,,,,1.0,,,4133.13651417027,-7040.82218075974,,,,,,,0.204669,-1.06283,0.963742,0.280425,0.0,3.12234,1618070074.89264,
1618088079.8808,-5.708825815216027e+18,7.682450258631732e+18,1618070079.8808,1.0513,0.0942478,-0.0471239,2.93564,-0.45385,1.39603,-0.102653,,0.139603,,,,,250.837,0.0076398,4.788,1.596,,,0.984598,-0.44675,,,,,2.0,7.0,-119.813,-140.905,,,,,,,1.0,,,4133.13423469514,-7040.82058659093,,,,,,,0.214987,-1.02908,0.96499,0.286444,0.0,3.66873,1618070078.88248,
1618088084.41412,-5.708825815216027e+18,7.682450258631732e+18,1618070084.41412,1.05095,0.0977384,-0.0471239,2.86932,-0.45385,1.03878,-0.0791606,,0.103878,,,,,250.728,0.0076398,4.788,1.596,,,0.956291,-0.440355,,,,,2.0,7.0,-118.532,-145.492,,,,,,,1.0,,,4133.13204081583,-7040.81879581519,,,,,,,0.282621,-1.01223,0.96499,0.292447,0.0,4.17368,1618070082.90839,
1618088088.93713,-5.708825815216027e+18,7.682450258631732e+18,1618070088.93713,1.05077,0.0994838,-0.0593412,2.8571,-0.45385,0.846412,-0.0424463,,0.0846412,,,,,250.81,0.0076398,4.788,1.596,,,0.927892,-0.45,,,,,2.0,7.0,-117.197,-150.057,,,,,,,1.0,,,4133.12986679184,-7040.81697222708,,,,,,,0.294915,-1.00853,0.96499,0.298599,0.0,4.72552,1618070086.88358,
1618088093.47562,-5.708825815216027e+18,7.682450258631732e+18,1618070093.47562,0.0,0.0994838,-0.0645772,2.76635,-0.452683,0.736489,-0.0211107,,0.0736489,,,,,250.864,0.0076398,0.0,0.0,,,0.900009,-0.43489,,,,,2.0,7.0,-117.197,-150.057,,,,,,,1.0,,,4133.12986679184,-7040.81697222708,,,,,,,0.0,0.0,0.966254,0.298599,0.0,1.26804,1618070094.88776,
1618088097.98251,-5.708825815216027e+18,7.682450258631732e+18,1618070097.98251,0.0,0.0785398,-0.0453786,2.81696,-0.45385,0.351756,-0.102541,,0.0351756,,16.0407,,,166.564,0.0076398,,,,,0.900009,-0.45,,,,,2.0,2.0,-117.197,-150.057,,,,,,,1.0,,,4133.12986679184,-7040.81697222708,,,,,,,0.0,0.0,0.966254,,0.0,1.76089,1618070098.89264,
1618088102.41974,-5.708825815216027e+18,7.682450258631732e+18,1618070102.41974,0.0,0.0226893,-0.0314159,2.58134,-0.45385,0.269313,-0.0186185,,0.0269313,,,7.30882,,69.554,0.0076398,,,,,0.900009,-0.45,,,,,2.0,2.0,-117.197,-150.057,,,,,,,1.0,,,4133.12986679184,-7040.81697222708,,,,,,,0.0,0.0,0.967502,,0.0,2.20206,1618070102.88721,
1618088106.6908,-5.708825815216027e+18,7.682450258631732e+18,1618070106.6908,0.0,-0.120428,-0.0418879,2.62323,-0.452683,0.159389,-0.0258705,,0.0159389,,,,,-23.7898,0.0076398,,,,,0.900009,-0.45,,,,,2.0,2.0,-117.197,-150.057,,,,,,,1.0,,,4133.12986679184,-7040.81697222708,,,,,,,0.0,0.0,0.967502,,0.0,2.4765,1618070106.8851,
1618088111.11917,-5.708825815216027e+18,7.682450258631732e+18,1618070111.11917,0.0584733,-0.298451,-0.0122173,2.40157,-0.46552,0.269313,0.0249373,,0.0269313,,,,,-126.558,0.012638,,,,,0.900009,-0.45,,,,,,7.0,-117.021,-150.25,,,,,,,2.0,,,4133.12979277925,-7040.81681260357,,,,,,,0.0394287,-0.0431799,0.967502,,0.0,2.93042,1618070110.87924,
1618088115.5918,-5.708825815216027e+18,7.682450258631732e+18,1618070115.5918,0.141861,-0.450295,-0.0366519,2.24275,-0.45385,0.626565,0.0781049,,0.0626565,,,,,-232.313,0.0109719,,,,,0.89838,-0.45,,,,,2.0,7.0,-116.526,-150.643,,,,,,,2.0,,,4133.1296615751,-7040.81639269441,,,,,,,0.111022,-0.0883106,0.967502,,0.0,3.3537,1618070114.90945,
1618088120.05029,-5.708825815216027e+18,7.682450258631732e+18,1618070120.05029,0.0818125,-0.553269,-0.0331613,1.91463,-0.45385,0.873893,0.0570144,,0.0873893,,,,,,0.012638,,,,,0.894519,-0.45,,,,,2.0,7.0,-116.184,-150.766,,,,,,,2.0,,,4133.12964859757,-7040.81613157411,,,,,,,0.0770241,-0.0275786,0.967502,,0.0,3.61935,1618070119.0993,
1618088124.27286,-5.708825815216027e+18,7.682450258631732e+18,1618070124.27286,0.226552,-0.589921,-0.0366519,1.92859,-0.45385,1.5884,0.162868,,0.15884,,,,,-260.286,0.012638,,,,,0.892574,-0.45,,,,,2.0,7.0,-115.286,-151.101,,,,,,,2.0,,,4133.12960721361,-7040.81544463768,,,,,,,0.212205,-0.0793403,0.96875,,0.0,4.05219,1618070122.89084,
1618088128.81766,-5.708825815216027e+18,7.682450258631732e+18,1618070128.81766,0.24491,-0.589921,-0.0366519,1.92859,-0.45385,2.38534,0.175771,,0.238534,,,,,-260.313,0.012638,,,,,0.887387,0.0,,,,,2.0,7.0,-114.244,-151.491,,,,,,,2.0,,,4133.12955914389,-7040.81464672528,,,,,,,0.229401,-0.0857694,0.96875,,0.0,4.59641,1618070126.89041,
1618088133.1651,-5.708825815216027e+18,7.682450258631732e+18,1618070133.1651,0.202602,-0.589921,-0.0366519,1.92859,0.00868453,2.98992,0.146034,,0.298992,,,,,-260.313,0.012638,,,,,0.881322,0.0,,,,,2.0,2.0,-113.419,-151.799,,,,,,,2.0,,,4133.12952111086,-7040.81401541355,,,,,,,0.189772,-0.0709528,0.96875,,0.0,0.928986,1618070134.90619,
1618088137.67526,-5.708825815216027e+18,7.682450258631732e+18,1618070137.67526,0.187438,-0.589921,-0.0366519,1.92859,0.00868453,3.5945,0.135374,,0.35945,,,,,-260.34,0.012638,,,,,0.876492,0.0,,,,,2.0,2.0,-112.628,-152.095,,,,,,,2.0,,,4133.1294846048,-7040.81340944914,,,,,,,0.175568,-0.0656421,0.96875,,0.0,1.4473,1618070138.89572,
1618088142.01279,-5.708825815216027e+18,7.682450258631732e+18,1618070142.01279,0.18389,-0.589921,-0.0366519,1.92859,0.00868453,4.1716,0.13288,,0.41716,,,,,-260.34,0.0109719,,,,,0.871832,0.0,,,,,2.0,2.0,-111.881,-152.375,,,,,,,2.0,,,4133.12945016372,-7040.81283776206,,,,,,,0.172245,-0.0643998,0.969998,,0.0,1.78885,1618070142.89178,
1618088146.52426,-5.708825815216027e+18,7.682450258631732e+18,1618070146.52426,0.307417,-0.589921,-0.0366519,1.92859,0.00578968,5.16092,0.219701,,0.516092,,,,,-260.313,0.0109719,,,,,0.867412,0.0,,,,,2.0,2.0,-110.573,-152.864,,,,,,,2.0,,,4133.12938983832,-7040.81183642332,,,,,,,0.287949,-0.10766,0.969998,,0.0,2.33298,1618070146.88977,
1618088150.8967,-5.708825815216027e+18,7.682450258631732e+18,1618070150.8967,0.200144,-0.589921,-0.0366519,1.92859,0.00868453,5.79298,0.144306,,0.579298,,,,,-260.34,0.012638,,,,,0.859619,0.0,,,,,,7.0,-109.759,-153.168,,,,,,,2.0,,,4133.12935230964,-7040.81121348775,,,,,,,0.18747,-0.070092,0.969998,,0.0,2.64932,1618070150.91525,
1618088155.40707,-5.708825815216027e+18,7.682450258631732e+18,1618070155.40707,0.288225,-0.589921,-0.0366519,1.92859,0.00868453,6.72733,0.206213,,0.672733,,,,,-260.286,0.012638,,,,,0.854736,0.0,,,,,2.0,7.0,-108.54,-153.624,,,,,,,2.0,,,4133.12929611124,-7040.81028065662,,,,,,,0.269972,-0.100938,0.969998,,0.0,3.18234,1618070154.8942,
1618088159.76889,-5.708825815216027e+18,7.682450258631732e+18,1618070159.76889,0.225292,-0.589921,-0.0366519,1.92859,0.00868453,7.44183,0.161982,,0.744183,,16.0457,,,-260.34,0.012638,,,,,0.847376,0.0,,,,,2.0,7.0,-107.62,-153.968,,,,,,,2.0,,,4133.12925367244,-7040.80957622106,,,,,,,0.211024,-0.0788988,0.971246,,0.0,3.54492,1618070158.89203,
1618088164.30496,-5.708825815216027e+18,7.682450258631732e+18,1618070164.30496,0.222798,-0.532325,-0.0261799,2.16246,0.00868453,8.12886,0.142892,,0.812886,,,,,-260.34,0.012638,,,-0.209,,0.84178,-0.45,,,,,,,-106.782,-154.531,,,,,,,2.0,,,4133.129085291,-7040.80888573729,,,,,,,0.184925,-0.124264,0.971246,,0.0,4.09558,1618070162.88022,
1618088168.39584,-5.708825815216027e+18,7.682450258631732e+18,1618070168.39584,0.220266,-0.523599,-0.010472,2.28464,-0.45385,8.65099,0.138829,,0.865099,,,,,-260.313,0.012638,,,-0.209,,0.835458,-0.45,,,,,,,-106.101,-155.12,,,,,,,2.0,,,4133.12887979054,-7040.80829867051,,,,,,,0.166489,-0.144217,0.971246,,0.0,4.17755,1618070166.88644,
1618088172.62576,-5.708825815216027e+18,7.682450258631732e+18,1618070172.62576,0.310902,-0.537561,-0.0139626,2.19562,-0.45385,9.5029,0.200025,,0.95029,,,,,-260.34,-0.187289,,,-0.209,,0.829676,-0.45,,,,,,,-105.03,-155.893,,,,,,,2.0,,,4133.12863689668,-7040.80740471065,,,,,,,0.252161,-0.181865,0.971246,,0.0,4.4241,1618070170.89044,
1618088176.88843,-5.708825815216027e+18,7.682450258631732e+18,1618070176.88843,0.254814,-0.528835,-0.0314159,2.0368,-0.45385,10.1899,0.161729,,1.01899,,,,,-260.368,-0.383883,,,-0.209,,0.82129,-0.45,,,,,,,-104.064,-156.379,,,,,,,2.0,,,4133.12852757986,-7040.80664077139,,,,,,,0.227644,-0.114493,0.971246,,0.0,4.66702,1618070174.89188,
1618088181.12161,-5.708825815216027e+18,7.682450258631732e+18,1618070181.12161,0.26767,-0.411898,-0.0453786,1.97222,-0.45385,10.7945,0.132033,,1.07945,,,,,-260.286,-0.372221,,,0.209,,0.814706,-0.45,,,,,,,-103.02,-156.822,,,,,,,2.0,,,4133.12845201241,-7040.80583143554,,,,,,,0.246392,-0.104587,0.97251,,0.0,0.900848,1618070182.88925,
1618088185.29816,-5.708825815216027e+18,7.682450258631732e+18,1618070185.29816,0.326114,-0.319395,-0.0488692,1.93382,-0.45385,11.2892,0.12795,,1.12892,,,,,-242.633,-0.372221,,,0.209,,0.807941,-0.45,,,,,,,-101.747,-157.306,,,,,,,2.0,,,4133.12838937724,-7040.80485590011,,,,,,,0.304859,-0.115805,0.973758,,0.0,1.08588,1618070186.88202,
1618088189.6059,-5.708825815216027e+18,7.682450258631732e+18,1618070189.6059,0.319219,-0.328122,-0.0471239,1.81689,-0.45385,11.8388,0.128146,,1.18388,,,,,-218.652,-0.372221,,,0.209,,0.799905,-0.45,,,,,,,-100.414,-157.641,,,,,,,2.0,,,4133.12841290541,-7040.80386723709,,,,,,,0.309601,-0.0777665,0.97499,,0.0,1.3804,1618070190.8959,
1618088193.76086,-5.708825815216027e+18,7.682450258631732e+18,1618070193.76086,0.207806,-0.363028,-0.0366519,1.67726,-0.45385,12.2235,0.0925061,,1.22235,,,,,-195.051,-0.372221,,,0.209,,0.79222,-0.45,,,,,,,-99.5554,-157.732,,,,,,,2.0,,,4133.12849240987,-7040.80325541707,,,,,,,0.206629,-0.0220823,0.977502,,0.0,1.53381,1618070194.89655,
1618088198.06711,-5.708825815216027e+18,7.682450258631732e+18,1618070198.06711,0.172218,-0.240855,-0.0401426,1.78024,-0.45385,12.4708,0.0573981,,1.24708,,,,,-171.315,-0.372221,,,0.209,,0.787814,-0.45,,,,,,,-98.8305,-157.886,,,,,,,2.0,,,4133.12851974476,-7040.80272362931,,,,,,,0.168455,-0.0358062,0.979998,,0.0,1.84894,1618070198.88583,
1618088202.21786,-5.708825815216027e+18,7.682450258631732e+18,1618070202.21786,0.171397,-0.0942478,-0.0418879,1.8867,-0.45385,12.8006,0.0794246,,1.28006,,,,,-147.931,-0.372221,,,0.209,,0.783712,-0.45,,,,,,,-98.1559,-158.107,,,,,,,1.0,,,4133.12850512082,-7040.80221348372,,,,,,,0.162915,-0.0532489,0.985006,,0.0,2.00272,1618070202.88425,
1618088206.5105,-5.708825815216027e+18,7.682450258631732e+18,1618070206.5105,0.0731979,-0.0610865,-0.0436332,1.88146,-0.45385,12.8556,0.0128086,,1.28556,,,,,-123.081,-0.372221,,,0.209,,0.779514,-0.45,,,,,,,-97.8565,-158.203,,,,,,,1.0,,,4133.1284995307,-7040.80198742063,,,,,,,0.0696938,-0.0223762,0.986254,,0.0,2.28632,1618070206.89572,
1618088210.80869,-5.708825815216027e+18,7.682450258631732e+18,1618070210.80869,0.0,-0.0872665,-0.0366519,1.81514,-0.45385,12.6082,-0.057545,,1.26082,,,,,-98.2585,-0.372221,,,0.209,,0.777654,-0.45,,,,,,,-97.8565,-158.203,,,,,,,1.0,,,4133.1284995307,-7040.80198742063,,,,,,,0.0,0.0,0.98875,,0.0,2.59348,1618070210.88629,
1618088215.09802,-5.708825815216027e+18,7.682450258631732e+18,1618070215.09802,0.0,-0.155334,-0.0331613,1.72613,-0.45385,12.5808,-0.0064585,,1.25808,,,,,-73.0554,-0.372221,,,0.209,,0.777654,-0.45,,,,,,,-97.8565,-158.203,,,,,,,1.0,,,4133.1284995307,-7040.80198742063,,,,,,,0.0,0.0,0.991246,,0.0,2.87955,1618070214.88834,
1618088219.23816,-5.708825815216027e+18,7.682450258631732e+18,1618070219.23816,0.0,-0.190241,-0.0383972,1.66155,-0.45385,12.5258,-0.0132534,,1.25258,,,,,-50.1607,-0.372221,,,0.209,,0.777654,-0.45,,,,,,,-97.8565,-158.203,,,,,,,1.0,,,4133.1284995307,-7040.80198742063,,,,,,,0.0,0.0,0.993742,,0.0,3.00677,1618070218.90179,
1618088223.5285,-5.708825815216027e+18,7.682450258631732e+18,1618070223.5285,0.0,-0.179769,-0.0331613,1.67377,-0.45385,12.4434,-0.0190092,,1.24434,,16.0283,,,-25.528,-0.372221,,,0.209,,0.777654,-0.45,,,,,,,-97.8565,-158.203,,,,,,,1.0,,,4133.1284995307,-7040.80198742063,,,,,,,0.0,0.0,0.997502,,0.0,3.31757,1618070222.87961,
1618088227.6647,-5.708825815216027e+18,7.682450258631732e+18,1618070227.6647,0.0,-0.113446,-0.0331613,1.775,-0.45385,12.4159,-0.0066347,,1.24159,,,7.27061,,-1.98155,-0.372221,,,0.209,,0.777654,-0.45,,,,,,,-97.8565,-158.203,,,,,,,1.0,,,4133.1284995307,-7040.80198742063,,,,,,,0.0,0.0,1.0,,0.0,3.44354,1618070226.89175,
1618088231.95444,-5.708825815216027e+18,7.682450258631732e+18,1618070231.95444,0.0,-0.0541052,-0.0331613,1.84307,-0.45385,12.3884,-0.00649053,,1.23884,,,,,23.1944,-0.372221,,,0.209,,0.777654,-0.45,,,,,,,-97.8565,-158.203,,,,,,,1.0,,,4133.1284995307,-7040.80198742063,,,,,,,0.0,0.0,1.0025,,0.0,3.72852,1618070230.89532,
1618088236.09369,-5.708825815216027e+18,7.682450258631732e+18,1618070236.09369,0.0,-0.0436332,-0.0366519,1.83958,-0.45385,12.1411,-0.0594539,,1.21411,,,,,47.4198,-0.372221,,,0.209,,0.777654,-0.45,,,,,,,-97.8565,-158.203,,,,,,,1.0,,,4133.1284995307,-7040.80198742063,,,,,,,0.0,0.0,1.00501,,0.0,3.8685,1618070234.89304,
1618088240.38058,-5.708825815216027e+18,7.682450258631732e+18,1618070240.38058,0.0,-0.0401426,-0.0383972,1.83783,-0.45385,11.8388,-0.0704147,,1.18388,,,,,72.297,-0.372221,,,0.209,,0.777654,-0.45,,,,,,,-97.8565,-158.203,,,,,,,1.0,,,4133.1284995307,-7040.80198742063,,,,,,,0.0,0.0,1.00626,,0.0,4.15997,1618070238.88959,
1618088244.66852,-5.708825815216027e+18,7.682450258631732e+18,1618070244.66852,0.0,0.00523599,-0.0383972,1.87448,-0.45385,11.8113,-0.00641778,,1.18113,,,,,97.6358,-0.372221,,,0.209,,0.777654,-0.45,,,,,,,-97.8565,-158.203,,,,,,,1.0,,,4133.1284995307,-7040.80198742063,,,,,,,0.0,0.0,1.01126,,0.0,4.4426,1618070242.89679,
1618088248.95663,-5.708825815216027e+18,7.682450258631732e+18,1618070248.95663,0.0,0.0366519,-0.0401426,1.91812,-0.45385,11.4266,-0.0900592,,1.14266,,,,,122.92,-0.372221,,,0.209,,0.777654,-0.45,,,,,,,-97.8565,-158.203,,,,,,,1.0,,,4133.1284995307,-7040.80198742063,,,,,,,0.0,0.0,1.01373,,0.0,4.73502,1618070246.88934,
1618088253.09647,-5.708825815216027e+18,7.682450258631732e+18,1618070253.09647,0.0,0.0541052,-0.0383972,1.92684,-0.45385,11.2342,-0.0462197,,1.12342,,,,,147.146,-0.372221,,,0.209,,0.777654,-0.45,,,,,,,-97.8565,-158.203,,,,,,,1.0,,,4133.1284995307,-7040.80198742063,,,,,,,0.0,0.0,1.01498,,0.0,4.8743,1618070250.89197,
1618088257.38541,-5.708825815216027e+18,7.682450258631732e+18,1618070257.38541,0.0,0.0680678,-0.0314159,1.96175,-0.45385,10.822,-0.0961992,,1.0822,,,,,171.996,-0.372221,,,0.209,,0.777654,-0.45,,,,,,,-97.8565,-158.203,,,,,,,1.0,,,4133.1284995307,-7040.80198742063,,,,,,,0.0,0.0,1.01749,,0.0,1.15952,1618070258.89377,
1618088261.5282,-5.708825815216027e+18,7.682450258631732e+18,1618070261.5282,0.0,0.0837758,-0.0296706,1.98968,-0.45385,10.5747,-0.0594968,,1.05747,,,,,196.058,-0.372221,,,0.209,,0.777654,-0.45,,,,,,,-97.8565,-158.203,,,,,,,1.0,,,4133.1284995307,-7040.80198742063,,,,,,,0.0,0.0,1.01999,,0.0,1.30856,1618070262.88867,
1618088265.82022,-5.708825815216027e+18,7.682450258631732e+18,1618070265.82022,0.0,0.106465,-0.0383972,2.00538,-0.45385,10.1624,-0.0963116,,1.01624,,,,,220.61,-0.372221,,,0.209,,0.777654,-0.45,,,,,,,-97.8565,-158.203,,,,,,,1.0,,,4133.1284995307,-7040.80198742063,,,,,,,0.0,0.0,1.02374,,0.0,1.56528,1618070266.92392,
1618088269.95575,-5.708825815216027e+18,7.682450258631732e+18,1618070269.95575,0.0,0.148353,-0.0383972,2.03505,-0.45385,9.77771,-0.0936318,,0.977771,,,,,244.129,-0.372221,,,0.209,,0.777654,-0.45,,,,,,,-97.8565,-158.203,,,,,,,1.0,,,4133.1284995307,-7040.80198742063,,,,,,,0.0,0.0,1.02625,,0.0,1.72528,1618070270.89832,
1618088274.20706,-5.708825815216027e+18,7.682450258631732e+18,1618070274.20706,0.152482,0.200713,-0.0453786,2.08043,-0.455017,9.58534,-0.0463757,,0.958534,,,,,,-0.373887,,,0.209,,0.777654,-0.45,,,,,,,-97.2894,-158.52,,,,,,,2.0,,,4133.12841887636,-7040.80153269524,,,,,,,0.133105,-0.0743898,1.02875,,0.0,1.97745,1618070274.89743,
1618088278.4393,-5.708825815216027e+18,7.682450258631732e+18,1618070278.4393,0.359857,0.246091,-0.0506145,2.08567,-0.45385,9.09069,-0.115574,,0.909069,,,,,,-0.380551,,,0.209,,0.773495,-0.45,,,,,,,-95.9633,-159.27,,,,,,,2.0,,,4133.12822550155,-7040.80046742828,,,,,,,0.313204,-0.177202,1.02875,,0.0,2.15564,1618070278.95218,
1618088282.66663,-5.708825815216027e+18,7.682450258631732e+18,1618070282.66663,0.335189,0.275762,-0.0488692,2.04727,-0.455017,8.59603,-0.117189,,0.859603,,,,,,-0.380551,,,0.209,,0.76369,-0.45,,,,,,,-94.7043,-159.92,,,,,,,2.0,,,4133.12807437764,-7040.7994683654,,,,,,,0.297855,-0.153734,1.02875,,0.0,2.44916,1618070282.88507,
1618088286.75052,-5.708825815216027e+18,7.682450258631732e+18,1618070286.75052,0.270886,0.261799,-0.0453786,1.96175,-0.455017,8.2113,-0.09224,,0.82113,,16.0343,,,250.783,-0.247267,,,0.209,,0.754621,-0.45,,,,,,,-93.6597,-160.351,,,,,,,2.0,,,4133.12800542302,-7040.79866086832,,,,,,,0.250447,-0.103227,1.03,,0.0,2.61188,1618070286.8942,
1618088291.06915,-5.708825815216027e+18,7.682450258631732e+18,1618070291.06915,0.279566,0.197222,-0.0436332,1.80991,-0.455017,7.85405,-0.0837048,,0.785405,,,,,250.864,-0.247267,,,0.209,,0.747555,-0.45,,,,,,,-92.514,-160.63,,,,,,,1.0,,,4133.12803004269,-7040.79781331097,,,,,,,0.271612,-0.066212,1.03,,0.0,2.8316,1618070290.90485,
1618088295.14044,-5.708825815216027e+18,7.682450258631732e+18,1618070295.14044,0.127686,0.148353,-0.0401426,1.67377,-0.455017,7.44183,-0.101306,,0.744183,,,,,250.864,-0.247267,,,0.209,,0.740635,-0.45,,,,,,,-91.9966,-160.683,,,,,,,1.0,,,4133.12807891926,-7040.79744484507,,,,,,,0.127009,-0.0131251,1.03,,0.0,2.922,1618070294.88855,
1618088299.35397,-5.708825815216027e+18,7.682450258631732e+18,1618070299.35397,0.0,0.148353,-0.0383972,1.6441,-0.455017,7.00214,-0.104193,,0.700214,,,,,250.756,-0.247267,,,0.209,,0.737822,-0.45,,,,,,,-91.9966,-160.683,,,,,,,1.0,,,4133.12807891926,-7040.79744484507,,,,,,,0.0,0.0,1.03,,0.0,3.12732,1618070298.89633,
1618088303.42691,-5.708825815216027e+18,7.682450258631732e+18,1618070303.42691,0.145017,0.176278,-0.0436332,1.62839,-0.45385,6.83725,-0.040783,,0.683725,,,,,250.756,-0.247267,,,0.209,,0.737822,-0.45,,,,,,,-91.4072,-160.717,,,,,,,1.0,,,4133.12814858166,-7040.79703045311,,,,,,,0.144777,-0.00834778,1.03,,0.0,3.2077,1618070302.88681,
1618088307.78043,-5.708825815216027e+18,7.682450258631732e+18,1618070307.78043,0.364245,0.181514,-0.0593412,1.57952,-0.455017,6.17771,-0.131619,,0.617771,,,,,250.837,-0.16563,12.198,4.066,,,0.734725,-0.206297,,,,,,7.0,-89.8166,-160.731,,,,,,,1.0,,,4133.12837702375,-7040.79592747015,,,,,,,0.364231,-0.0031786,1.03,,0.0,3.56665,1618070306.88522,
1618088312.37143,-5.708825815216027e+18,7.682450258631732e+18,1618070312.37143,0.365565,0.16057,-0.0593412,1.52891,-0.199744,5.57313,-0.116759,,0.557313,,,,,,0.0259664,,,,,0.72664,-0.207847,,,,,,7.0,-88.066,-160.658,,,,,,,1.0,,,4133.12867451047,-7040.79473100766,,,,,,,0.365245,0.0153083,1.03125,,0.0,4.3544,1618070310.89612,
1618088317.09332,-5.708825815216027e+18,7.682450258631732e+18,1618070317.09332,1.10519,0.0802851,-0.0523599,1.40499,-0.202639,5.3258,-0.0659718,,0.53258,,,,,250.864,0.0259664,5.7,1.9,,,0.718007,-0.198453,,,,,2.0,2.0,-83.1445,-159.834,,,,,,,1.0,,,4133.12983158045,-7040.79148916311,,,,,,,1.09003,0.182408,1.03125,0.312406,0.0,4.87851,1618070314.88675,
1618088321.6105,-5.708825815216027e+18,7.682450258631732e+18,1618070321.6105,1.09757,0.0541052,-0.0541052,1.31249,-0.202639,5.21588,-0.0242979,,0.521588,,,,,250.918,0.0259664,5.472,1.824,,,0.695735,-0.200115,,,,,2.0,2.0,-78.3545,-158.569,,,,,,,1.0,,,4133.13119884561,-7040.78842541238,,,,,,,1.06115,0.280368,1.0325,0.319447,0.0,1.30643,1618070322.97406,
1618088326.12973,-5.708825815216027e+18,7.682450258631732e+18,1618070326.12973,1.09082,0.0698132,-0.0575959,1.31249,-0.202639,4.91359,-0.0647857,,0.491359,,,,,250.81,0.0259664,5.358,1.786,,,0.674981,-0.171993,,,,,2.0,2.0,-73.5897,-157.31,,,,,,,1.0,,,4133.13255890617,-7040.78537780052,,,,,,,1.05463,0.278644,1.0325,0.326434,0.0,1.91711,1618070326.88242,
1618088330.63739,-5.708825815216027e+18,7.682450258631732e+18,1618070330.63739,1.08305,0.0872665,-0.0506145,1.26187,-0.167901,4.69374,-0.049095,,0.469374,,,,,250.864,0.0259664,5.244,1.748,,,0.653115,-0.139622,,,,,2.0,2.0,-68.9374,-155.825,,,,,,,1.0,,,4133.13401963141,-7040.78245255532,,,,,,,1.03178,0.329282,1.03375,0.332962,0.0,2.42014,1618070330.88684,
1618088335.1514,-5.708825815216027e+18,7.682450258631732e+18,1618070335.1514,1.08321,0.0855211,-0.0506145,1.23395,-0.133163,4.25405,-0.100778,,0.425405,,,,,250.946,0.0259664,5.244,1.748,,,0.631663,-0.153423,,,,,,7.0,-64.3225,-154.209,,,,,,,1.0,,,4133.1355430577,-7040.77957912772,,,,,,,1.02234,0.358017,1.035,0.339269,0.0,2.91162,1618070334.90955,
1618088339.66226,-5.708825815216027e+18,7.682450258631732e+18,1618070339.66226,1.07681,0.0802851,-0.0541052,1.21126,-0.133163,4.08916,-0.0362465,,0.408916,,,,,250.783,0.0259664,5.13,1.71,,,0.609708,-0.142835,,,,,2.0,7.0,-59.7777,-152.501,,,,,,,1.0,,,4133.13710403644,-7040.77677227088,,,,,,,1.00796,0.378866,1.035,0.345845,0.0,3.40829,1618070338.92227,
1618088344.19724,-5.708825815216027e+18,7.682450258631732e+18,1618070344.19724,1.10116,0.0750492,-0.0541052,1.16413,-0.133163,3.86931,-0.0482757,,0.386931,,,,,250.756,0.0259664,5.586,1.862,,,0.587223,-0.140489,,,,,2.0,7.0,-55.1922,-150.526,,,,,,,1.0,,,4133.13880951121,-7040.77398988821,,,,,,,1.01135,0.435558,1.035,0.35277,0.0,3.97678,1618070342.8884,
1618088348.72357,-5.708825815216027e+18,7.682450258631732e+18,1618070348.72357,1.06903,0.0837758,-0.0541052,1.14668,-0.130268,3.53954,-0.0727329,,0.353954,,16.0343,,,250.728,0.0259664,4.99885,1.672,,,0.564155,-0.144567,,,,,2.0,7.0,-50.7824,-148.535,,,,,,,1.0,,,4133.14049739707,-7040.7713322678,,,,,,,0.974315,0.43992,1.03626,0.359063,0.0,4.4949,1618070346.89633,
1618088353.259,-5.708825815216027e+18,7.682450258631732e+18,1618070353.259,1.06933,0.0802851,-0.0488692,1.09607,-0.133163,3.31969,-0.0484993,,0.331969,,,7.43577,,250.918,0.0259664,,,,,0.540814,-0.133984,,,,,2.0,7.0,-46.4683,-146.318,,,,,,,1.0,,,4133.14228858265,-7040.76878538657,,,,,,,0.951083,0.48879,1.03626,,0.0,0.894318,1618070355.03293,
1618088357.60242,-5.708825815216027e+18,7.682450258631732e+18,1618070357.60242,1.06903,0.0837758,-0.0471239,1.10654,-0.133163,2.96244,-0.0827164,,0.296244,,,,,250.918,0.0259664,5.016,1.672,,,0.517558,-0.141485,,,,,2.0,7.0,-42.316,-144.238,,,,,,,1.0,,,4133.14398418315,-7040.76632323491,,,,,,,0.955875,0.478667,1.03751,0.371399,0.0,1.3902,1618070358.88098,
1618088362.11276,-5.708825815216027e+18,7.682450258631732e+18,1618070362.11276,1.06126,0.0802851,-0.0541052,1.08909,-0.133163,2.98992,0.00613276,,0.298992,,,,,250.891,0.0259664,4.902,1.634,,,0.493247,-0.124087,,,,,2.0,2.0,-38.0744,-142.021,,,,,,,1.0,,,4133.14576478957,-7040.76382655544,,,,,,,0.940492,0.491677,1.03751,0.377571,0.0,1.88974,1618070362.89227,
1618088366.62534,-5.708825815216027e+18,7.682450258631732e+18,1618070366.62534,1.0898,0.0820305,-0.0453786,1.04196,-0.133163,2.46779,-0.115441,,0.246779,,,,,250.837,0.0259664,5.358,1.786,,,0.466962,-0.136454,,,,,2.0,2.0,-33.8308,-139.541,,,,,,,1.0,,,4133.14768197763,-7040.76138023538,,,,,,,0.940931,0.549836,1.03876,0.3843,0.0,2.40079,1618070366.89191,
1618088371.13693,-5.708825815216027e+18,7.682450258631732e+18,1618070371.13693,1.06155,0.0767945,-0.0488692,1.10479,-0.133163,2.22046,-0.0548521,,0.222046,,,,,250.783,0.0259664,4.902,1.634,,,0.439715,-0.143435,,,,,2.0,2.0,-29.5537,-137.39,,,,,,,1.0,,,4133.14943338557,-7040.75884593002,,,,,,,0.94836,0.476975,1.03876,0.390445,0.0,2.89172,1618070370.91199,
1618088375.64508,-5.708825815216027e+18,7.682450258631732e+18,1618070375.64508,1.09108,0.0663225,-0.0488692,1.05767,-0.130268,1.89069,-0.0702089,,0.189069,,,,,250.756,0.0259664,5.358,1.786,,,0.40841,-0.119123,,,,,2.0,2.0,-25.2629,-134.972,,,,,,,1.0,,,4133.15132535327,-7040.75635470652,,,,,,,0.950561,0.535613,1.04001,0.397403,0.0,3.43262,1618070374.88422,
1618088380.1673,-5.708825815216027e+18,7.682450258631732e+18,1618070380.1673,1.05288,0.0767945,-0.0506145,1.05592,-0.118689,1.7258,-0.0368212,,0.17258,,,,,250.81,0.0259664,4.788,1.596,,,0.375508,-0.159149,,,,,,7.0,-21.1245,-132.631,,,,,,,1.0,,,4133.15315503781,-7040.75395388595,,,,,,,0.916376,0.518461,1.04001,0.403317,0.0,3.91382,1618070378.9213,
1618088384.67926,-5.708825815216027e+18,7.682450258631732e+18,1618070384.67926,1.08368,0.0802851,-0.0453786,1.08734,-0.165006,1.31359,-0.0935361,,0.131359,,,,,250.81,0.0259664,5.244,1.748,,,0.341068,-0.147794,,,,,2.0,7.0,-16.7895,-130.355,,,,,,,1.0,,,4133.15497983262,-7040.75140415662,,,,,,,0.959486,0.503741,1.04126,0.409734,0.0,4.47003,1618070382.88089,
1618088389.21286,-5.708825815216027e+18,7.682450258631732e+18,1618070389.21286,1.08398,0.0767945,-0.0506145,0.895354,-0.167901,1.1487,-0.0363344,,0.11487,,,,,250.864,0.0259664,5.244,1.748,,,0.301176,-0.14859,,,,,2.0,7.0,-12.9564,-127.284,,,,,,,1.0,,,4133.15714335377,-7040.74935836614,,,,,,,0.845972,0.677751,1.04126,0.416346,0.0,1.00076,1618070390.8819,
1618088393.73865,-5.708825815216027e+18,7.682450258631732e+18,1618070393.73865,1.05259,0.0802851,-0.0471239,1.25664,-0.165006,0.76397,-0.0825607,,0.0763969,,,,,250.918,0.0259664,4.788,1.596,,,0.266506,-0.204083,,,,,2.0,7.0,-8.42761,-125.812,,,,,,,1.0,,,4133.1585789027,-7040.74651587421,,,,,,,1.00107,0.325267,1.04251,0.422582,0.0,1.52475,1618070394.883,
1618088398.26669,-5.708825815216027e+18,7.682450258631732e+18,1618070398.26669,0.0,0.0925025,-0.0471239,1.01927,-0.205534,0.736489,-0.00544716,,0.0736489,,,,,250.756,0.0259664,0.0,0.0,,,0.214651,-0.086839,,,,,2.0,7.0,-8.42761,-125.812,,,,,,,1.0,,,4133.1585789027,-7040.74651587421,,,,,,,0.0,0.0,1.04251,0.422582,0.0,2.06549,1618070398.88943,
1618088402.79538,-5.708825815216027e+18,7.682450258631732e+18,1618070402.79538,0.0,0.0680678,-0.0331613,0.933751,-0.0810556,0.324275,-0.105506,,0.0324275,,,,,163.767,0.0259664,,,,,0.214651,-0.45,,,,,2.0,7.0,-8.42761,-125.812,,,,,,,1.0,,,4133.1585789027,-7040.74651587421,,,,,,,0.0,0.0,1.04376,,0.0,2.57599,1618070402.90903,
1618088407.26437,-5.708825815216027e+18,7.682450258631732e+18,1618070407.26437,0.0,0.0244346,0.015708,0.696386,-0.451516,0.296794,-0.00640581,,0.0296794,,,,,67.6529,0.0259664,,,,,0.214651,-0.45,,,,,2.0,2.0,-8.42761,-125.812,,,,,,,1.0,,,4133.1585789027,-7040.74651587421,,,,,,,0.0,0.0,1.04376,,0.0,3.05215,1618070406.88034,
1618088411.52838,-5.708825815216027e+18,7.682450258631732e+18,1618070411.52838,0.0,-0.129154,-0.0261799,0.584685,-0.451516,0.0769466,-0.0491169,,0.00769466,,16.0396,,,-27.7821,0.0259664,,,,,0.214651,-0.425396,,,,,2.0,2.0,-8.42761,-125.812,,,,,,,1.0,,,4133.1585789027,-7040.74651587421,,,,,,,0.0,0.0,1.04376,,0.0,3.3179,1618070410.87936,
1618088415.96191,-5.708825815216027e+18,7.682450258631732e+18,1618070415.96191,0.121114,-0.314159,-0.0401426,0.185005,-0.395498,0.296794,0.0498859,,0.0296794,,,,,-129.002,0.0309646,,,,,0.214651,-0.295119,,,,,2.0,2.0,-8.32856,-125.283,,,,,,,2.0,,,4133.15886859445,-7040.74655174489,,,,,,,0.022279,0.119047,1.04498,,0.0,3.74445,1618070414.88513,
1618088420.25833,-5.708825815216027e+18,7.682450258631732e+18,1618070420.25833,0.159398,-0.459022,-0.0296706,0.18675,-0.270626,0.681527,0.0888939,,0.0681527,,,,,-234.105,0.0309646,,,,,0.21486,-0.147321,,,,,,7.0,-8.20145,-124.61,,,,,,,2.0,,,4133.1592369692,-7040.74659649521,,,,,,,0.0295949,0.156627,1.04498,,0.0,4.03357,1618070418.89276,
1618088424.68826,-5.708825815216027e+18,7.682450258631732e+18,1618070424.68826,0.152386,-0.563741,-0.0122173,0.0506145,-0.144742,1.12122,0.10524,,0.112122,,,,,,0.0309646,,,,,0.215115,-0.147321,,,,,2.0,7.0,-8.1673,-123.936,,,,,,,2.0,,,4133.15959234967,-7040.74670584074,,,,,,,0.00770967,0.152191,1.04498,,0.0,4.3208,1618070423.0368,
1618088428.9111,-5.708825815216027e+18,7.682450258631732e+18,1618070428.9111,0.257881,-0.563741,-0.0122173,0.0506145,-0.141847,1.89069,0.175557,,0.189069,,,,,-260.177,0.0309646,,,,,0.21659,0.0,,,,,2.0,7.0,-8.11213,-122.847,,,,,,,2.0,,,4133.16016633253,-7040.74688244717,,,,,,,0.013047,0.257551,1.04498,,0.0,4.68472,1618070426.89725,
1618088433.45273,-5.708825815216027e+18,7.682450258631732e+18,1618070433.45273,0.20363,-0.563741,-0.0122173,0.0506145,0.0,2.49527,0.139401,,0.249527,,,,,-260.123,0.0309646,,,,,0.219029,0.0,,,,,2.0,7.0,-8.06536,-121.924,,,,,,,2.0,,,4133.16065300938,-7040.74703219081,,,,,,,0.0103022,0.203369,1.04498,,0.0,1.22208,1618070434.89987,
1618088437.9819,-5.708825815216027e+18,7.682450258631732e+18,1618070437.9819,0.195429,-0.563741,-0.0122173,0.0506145,0.00289484,3.09985,0.133934,,0.309985,,,,,-260.15,0.0309646,,,,,0.221154,0.0,,,,,2.0,7.0,-8.02058,-121.04,,,,,,,2.0,,,4133.16111895464,-7040.74717555568,,,,,,,0.00988732,0.195179,1.04623,,0.0,1.70639,1618070438.94617,
1618088442.49579,-5.708825815216027e+18,7.682450258631732e+18,1618070442.49579,0.331639,-0.563741,-0.0122173,0.0506145,0.00289484,4.11664,0.224706,,0.411664,,,,,-260.177,0.0309646,,,,,0.223238,0.0,,,,,2.0,2.0,-7.94488,-119.546,,,,,,,2.0,,,4133.16190668783,-7040.74741793029,,,,,,,0.0167786,0.331215,1.04623,,0.0,2.1777,1618070442.98569,
1618088446.83746,-5.708825815216027e+18,7.682450258631732e+18,1618070446.83746,0.196028,-0.563741,-0.0122173,0.0506145,0.0,4.69374,0.134334,,0.469374,,,,,-260.177,0.0309646,,,,,0.226879,0.0,,,,,2.0,2.0,-7.90182,-118.696,,,,,,,2.0,,,4133.16235466168,-7040.7475557657,,,,,,,0.00991765,0.195777,1.04623,,0.0,2.54276,1618070446.96326,
1618088451.34567,-5.708825815216027e+18,7.682450258631732e+18,1618070451.34567,0.177001,-0.563741,-0.0122173,0.0506145,0.0,5.24336,0.121651,,0.524336,,,,,-260.205,0.0309646,,,,,0.229018,0.0,,,,,2.0,2.0,-7.86146,-117.899,,,,,,,2.0,,,4133.16277462106,-7040.74768498147,,,,,,,0.008955,0.176774,1.04623,,0.0,3.11142,1618070450.90195,
1618088455.68195,-5.708825815216027e+18,7.682450258631732e+18,1618070455.68195,0.278775,-0.563741,-0.0122173,0.0506145,0.0,6.06779,0.18948,,0.606779,,,,,-260.177,0.0309646,,,,,0.231071,0.0,,,,,,7.0,-7.80028,-116.691,,,,,,,2.0,,,4133.16341125123,-7040.74788086395,,,,,,,0.014104,0.278418,1.04749,,0.0,3.46973,1618070454.88196,
1618088460.20132,-5.708825815216027e+18,7.682450258631732e+18,1618070460.20132,0.266818,-0.563741,-0.0122173,0.0506145,0.0,6.89221,0.181512,,0.689221,,,,,-260.15,0.0309646,,,,,0.234273,0.0,,,,,2.0,7.0,-7.73929,-115.487,,,,,,,2.0,,,4133.1640458583,-7040.74807612401,,,,,,,0.0134991,0.266476,1.04749,,0.0,3.98547,1618070458.88562,
1618088464.54413,-5.708825815216027e+18,7.682450258631732e+18,1618070464.54413,0.221962,-0.563741,-0.0122173,0.0506145,0.0,7.55176,0.151619,,0.755176,,,,,-260.205,0.0309646,,,,,0.237579,0.0,,,,,2.0,7.0,-7.6905,-114.524,,,,,,,2.0,,,4133.16455356383,-7040.74823233822,,,,,,,0.0112297,0.221677,1.04749,,0.0,4.33212,1618070462.88089,
1618088469.08197,-5.708825815216027e+18,7.682450258631732e+18,1618070469.08197,0.345706,-0.523599,-0.0261799,0.0855211,0.0,8.59603,0.215715,,0.859603,,,,,-260.205,-0.125645,,,-0.209,,0.240309,0.122153,,,,,,,-7.55649,-112.961,,,,,,,2.0,,,4133.16538559818,-7040.74844792413,,,,,,,0.0295291,0.344442,1.04749,,0.0,0.871948,1618070470.88193,
1618088473.20059,-5.708825815216027e+18,7.682450258631732e+18,1618070473.20059,0.357553,-0.453786,-0.0226893,0.172788,0.121583,9.33802,0.192174,,0.933802,,,,,-260.368,-0.187289,,,-0.209,,0.244083,0.120704,,,,,,,-7.30396,-111.514,,,,,,,2.0,,,4133.16617485448,-7040.74855861652,,,,,,,0.0614737,0.352228,1.04874,,0.0,0.983734,1618070474.88455,
1618088477.43149,-5.708825815216027e+18,7.682450258631732e+18,1618070477.43149,0.196611,-0.424115,-0.0244346,0.225147,0.121583,9.77771,0.100801,,0.977771,,16.0461,7.12271,,-260.313,-0.33057,,,-0.209,,0.245753,0.0856325,,,,,,,-7.11807,-110.702,,,,,,,2.0,,,4133.16662412247,-7040.74859010742,,,,,,,0.0438935,0.191649,1.04874,,0.0,1.21457,1618070478.88705,
1618088481.5253,-5.708825815216027e+18,7.682450258631732e+18,1618070481.5253,0.290883,-0.432842,-0.0366519,0.21293,0.0868453,10.3823,0.15002,,1.03823,,,,,-260.259,-0.45719,,,-0.209,,0.246031,0.0370006,,,,,,,-6.86659,-109.539,,,,,,,2.0,,,4133.16726574517,-7040.74864555298,,,,,,,0.0614709,0.284314,1.04874,,0.0,1.29636,1618070482.89749,
1618088485.76071,-5.708825815216027e+18,7.682450258631732e+18,1618070485.76071,0.253264,-0.389208,-0.0383972,0.205949,0.0405278,10.9044,0.11883,,1.09044,,,,,-260.205,-0.273924,,,0.209,,0.24668,0.0370006,,,,,,,-6.64684,-108.487,,,,,,,2.0,,,4133.16784486724,-7040.74870100513,,,,,,,0.0517914,0.247912,1.04874,,0.0,1.53217,1618070486.89719,
1618088489.86926,-5.708825815216027e+18,7.682450258631732e+18,1618070489.86926,0.30081,-0.347321,-0.0366519,0.219911,0.0405278,11.509,0.126933,,1.1509,,,,,-260.313,-0.22894,,,0.209,,0.247415,0.0370006,,,,,,,-6.37616,-107.276,,,,,,,2.0,,,4133.16851418793,-7040.74875260014,,,,,,,0.0656197,0.293566,1.04874,,0.0,1.5993,1618070490.96259,
1618088494.12637,-5.708825815216027e+18,7.682450258631732e+18,1618070494.12637,0.196368,-0.42237,-0.0331613,0.235619,0.0376329,11.8388,0.100295,,1.18388,,,,,-260.259,-0.22894,,,0.209,,0.248001,0.0370006,,,,,,,-6.18198,-106.468,,,,,,,2.0,,,4133.16896322887,-7040.74877780101,,,,,,,0.0458412,0.190942,1.04999,,0.0,1.73785,1618070495.05951,
1618088498.29013,-5.708825815216027e+18,7.682450258631732e+18,1618070498.29013,0.235239,-0.376991,-0.0314159,0.350811,0.0376329,12.306,0.107595,,1.2306,,,,,-240.515,-0.64712,,,0.209,,0.24818,0.0370006,,,,,,,-5.84543,-105.548,,,,,,,2.0,,,4133.16949094544,-7040.74872638292,,,,,,,0.0808423,0.220912,1.04999,,0.0,2.07449,1618070498.88556,
1618088502.5993,-5.708825815216027e+18,7.682450258631732e+18,1618070502.5993,0.192199,-0.129154,-0.0261799,0.63879,0.0405278,12.6907,0.0877784,,1.26907,,,,,-216.642,-0.843715,,,0.209,,0.246404,-0.0597755,,,,,,,-5.35302,-104.885,,,,,,,1.0,,,4133.16990840991,-7040.74851653619,,,,,,,0.114594,0.154301,1.05374,,0.0,2.37466,1618070502.89407,
1618088506.75314,-5.708825815216027e+18,7.682450258631732e+18,1618070506.75314,0.0857978,-0.0122173,-0.0296706,0.895354,-0.0665814,12.938,0.0602799,,1.2938,,,,,-192.634,-0.830386,,,0.209,,0.240737,-0.141321,,,,,,,-5.07494,-104.662,,,,,,,1.0,,,4133.1700653679,-7040.74836811864,,,,,,,0.0669592,0.0536444,1.05624,,0.0,2.54047,1618070506.8804,
1618088511.04874,-5.708825815216027e+18,7.682450258631732e+18,1618070511.04874,0.0,-0.0191986,-0.0296706,0.87441,-0.147637,12.8556,-0.0190136,,1.28556,,,,,-169.006,-0.973667,,,0.209,,0.236825,-0.335471,,,,,,,-5.07494,-104.662,,,,,,,1.0,,,4133.1700653679,-7040.74836811864,,,,,,,0.0,0.0,1.05875,,0.0,2.83279,1618070510.88364,
1618088515.18915,-5.708825815216027e+18,7.682450258631732e+18,1618070515.18915,0.0,0.00174533,-0.0366519,0.95295,-0.340648,12.938,0.0202115,,1.2938,,,,,-145.351,-1.11028,,,0.209,,0.236825,-0.439472,,,,,,,-5.07494,-104.662,,,,,,,1.0,,,4133.1700653679,-7040.74836811864,,,,,,,0.0,0.0,1.06125,,0.0,2.98172,1618070514.88754,
1618088519.49115,-5.708825815216027e+18,7.682450258631732e+18,1618070519.49115,0.0,0.0453786,-0.0331613,1.0821,-0.44218,12.9105,-0.00662031,,1.29105,,,,,-121.044,-1.10195,,,0.209,,0.236825,-0.45,,,,,,,-5.07494,-104.662,,,,,,,1.0,,,4133.1700653679,-7040.74836811864,,,,,,,0.0,0.0,1.06375,,0.0,3.26706,1618070518.8931,
1618088523.63455,-5.708825815216027e+18,7.682450258631732e+18,1618070523.63455,0.0,0.0733038,-0.0349066,1.13272,-0.44218,12.938,0.00659964,,1.2938,,,,,-96.9548,-1.10195,,,0.209,,0.236825,-0.45,,,,,,,-5.07494,-104.662,,,,,,,1.0,,,4133.1700653679,-7040.74836811864,,,,,,,0.0,0.0,1.06625,,0.0,3.41391,1618070522.88867,
1618088527.92545,-5.708825815216027e+18,7.682450258631732e+18,1618070527.92545,0.0,0.127409,-0.0349066,1.22522,-0.44218,12.8831,-0.0128416,,1.28831,,,,,-71.9962,-1.10195,,,0.209,,0.236825,-0.45,,,,,,,-5.07494,-104.662,,,,,,,1.0,,,4133.1700653679,-7040.74836811864,,,,,,,0.0,0.0,1.07001,,0.0,3.70563,1618070526.88901,
1618088532.0744,-5.708825815216027e+18,7.682450258631732e+18,1618070532.0744,0.0,0.188496,-0.0349066,1.3439,-0.44218,12.8006,-0.0199523,,1.28006,,,,,-49.1016,-1.10195,,,0.209,,0.236825,-0.45,,,,,,,-5.07494,-104.662,,,,,,,1.0,,,4133.1700653679,-7040.74836811864,,,,,,,0.0,0.0,1.07251,,0.0,3.85248,1618070530.89206,
1618088536.36563,-5.708825815216027e+18,7.682450258631732e+18,1618070536.36563,0.0534247,0.240855,-0.0331613,1.41197,-0.44218,12.7182,-0.0192309,,1.27182,,,,,-24.496,-1.10195,,,0.209,,0.236825,-0.45,,,,,,,-4.848,-104.626,,,,,,,2.0,,,4133.17011787672,-7040.74821830692,,,,,,,0.0527523,0.00844955,1.07501,,0.0,4.15076,1618070534.88379,
1618088540.52563,-5.708825815216027e+18,7.682450258631732e+18,1618070540.52563,0.192672,0.247837,-0.0331613,1.38928,-0.44218,12.4434,-0.0647524,,1.24434,,16.0285,,,-0.623627,-1.10195,,,0.209,,0.232994,-0.45,,,,,,,-4.05946,-104.481,,,,,,,2.0,,,4133.17030989727,-7040.74770139814,,,,,,,0.189506,0.0347809,1.07623,,0.0,4.30823,1618070538.88821,
1618088544.83664,-5.708825815216027e+18,7.682450258631732e+18,1618070544.83664,0.0708735,0.244346,-0.0331613,1.33343,-0.44218,12.3334,-0.0257916,,1.23334,,,,,24.7424,-1.10195,,,0.209,,0.219662,-0.45,,,,,,,-3.7625,-104.409,,,,,,,2.0,,,4133.17039122376,-7040.74751014634,,,,,,,0.0688862,0.0166653,1.08124,,0.0,4.62399,1618070542.88147,
1618088548.99634,-5.708825815216027e+18,7.682450258631732e+18,1618070548.99634,0.264814,0.270526,-0.0314159,1.3282,-0.44218,11.9487,-0.0924172,,1.19487,,,,,49.1851,-1.10195,,,0.209,,0.214668,-0.45,,,,,,,-2.6939,-104.145,,,,,,,2.0,,,4133.17068694544,-7040.7468231268,,,,,,,0.257059,0.0636157,1.08374,,0.0,4.77518,1618070546.88937,
1618088553.30432,-5.708825815216027e+18,7.682450258631732e+18,1618070553.30432,0.0731829,0.312414,-0.0418879,1.34216,-0.44218,11.8113,-0.0317478,,1.18113,,,,,74.4153,-1.10195,,,0.209,,0.196521,-0.45,,,,,,,-2.38698,-104.073,,,,,,,2.0,,,4133.17076952828,-7040.74662490519,,,,,,,0.0712783,0.016587,1.08624,,0.0,1.08218,1618070554.89008,
1618088557.46487,-5.708825815216027e+18,7.682450258631732e+18,1618070557.46487,0.308711,0.335103,-0.0383972,1.36136,-0.44218,11.2892,-0.126273,,1.12892,,,,,98.695,-1.10195,,,0.209,,0.191235,-0.45,,,,,,,-1.1299,-103.806,,,,,,,2.0,,,4133.17109460336,-7040.74580804637,,,,,,,0.301965,0.0641847,1.0875,,0.0,1.24307,1618070558.89218,
1618088561.77325,-5.708825815216027e+18,7.682450258631732e+18,1618070561.77325,0.172427,0.357792,-0.0296706,1.46782,-0.44218,10.9594,-0.0765841,,1.09594,,,,,124.061,-1.10195,,,0.209,,0.169243,-0.45,,,,,,,-0.391184,-103.73,,,,,,,2.0,,,4133.17124370904,-7040.74531211524,,,,,,,0.171514,0.0177243,1.09,,0.0,1.47296,1618070562.96848,
1618088565.92807,-5.708825815216027e+18,7.682450258631732e+18,1618070565.92807,0.1473,0.39619,-0.0296706,1.52193,-0.44218,10.6571,-0.0720253,,1.06571,,,,,148.531,-0.933682,,,0.209,,0.155902,-0.45,,,,,,,0.220116,-103.7,,,,,,,2.0,,,4133.17134980801,-7040.74489515819,,,,,,,0.147124,0.00719557,1.095,,0.0,1.62064,1618070566.97675,
1618088570.23605,-5.708825815216027e+18,7.682450258631732e+18,1618070570.23605,0.350255,0.39968,-0.0314159,1.49749,-0.44218,9.9426,-0.166668,,0.99426,,,,,173.327,-0.82039,,,0.209,,0.144701,-0.45,,,,,,,1.72741,-103.589,,,,,,,2.0,,,4133.17163062732,-7040.74387435234,,,,,,,0.349315,0.0256521,1.09625,,0.0,2.00708,1618070570.89816,
1618088574.41046,-5.708825815216027e+18,7.682450258631732e+18,1618070574.41046,0.222185,0.357792,-0.0314159,1.31423,-0.441013,9.53038,-0.097381,,0.953038,,,,,197.199,-0.703766,,,0.209,,0.116956,-0.45,,,,,,,2.62338,-103.354,,,,,,,2.0,,,4133.17188549992,-7040.74330094281,,,,,,,0.214913,0.0563813,1.09876,,0.0,2.18817,1618070574.89197,
1618088578.72122,-5.708825815216027e+18,7.682450258631732e+18,1618070578.72122,0.363962,0.319395,-0.0366519,1.05418,-0.441013,8.9258,-0.142221,,0.89258,,,,,222.348,-0.617131,,,0.209,,0.100641,-0.45,,,,,,,3.98797,-102.579,,,,,,,2.0,,,4133.17249045755,-7040.7425099064,,,,,,,0.316463,0.179776,1.10126,,0.0,2.48874,1618070578.90286,
1618088582.88602,-5.708825815216027e+18,7.682450258631732e+18,1618070582.88602,0.257727,0.308923,-0.0383972,0.71384,-0.441013,8.51359,-0.0994964,,0.851359,,,,,246.003,-0.632126,,,0.209,,0.0760116,-0.45,,,,,,,4.69045,-101.768,,,,,,,2.0,,,4133.17301591225,-7040.74218392312,,,,,,,0.168744,0.194804,1.10376,,0.0,2.66788,1618070582.88846,
1618088587.1503,-5.708825815216027e+18,7.682450258631732e+18,1618070587.1503,0.302302,0.336849,-0.0418879,0.385718,-0.441013,7.99145,-0.124289,,0.799145,,,,,,-0.493843,,,0.209,,0.0635114,-0.45,,,,,,,5.17484,-100.575,,,,,,,2.0,,,4133.17370751625,-7040.74208412864,,,,,,,0.113734,0.280092,1.10748,,0.0,2.91602,1618070586.90182,
1618088591.23715,-5.708825815216027e+18,7.682450258631732e+18,1618070591.23715,0.354036,0.333358,-0.0383972,6.17323,-0.44218,7.38687,-0.143469,,0.738687,,,,,,-0.498841,,,0.209,,0.0553394,-0.363918,,,,,,,5.01595,-99.1358,,,,,,,2.0,,,4133.1744318233,-7040.74247790114,,,,,,,-0.0388499,0.351898,1.10748,,0.0,3.00974,1618070590.89764,
1618088595.47012,-5.708825815216027e+18,7.682450258631732e+18,1618070595.47012,0.366315,0.298451,-0.0418879,5.88001,-0.349984,6.80977,-0.135533,,0.680977,,,,,,-0.3389,,,0.209,,0.0602558,-0.0979732,,,,,,,4.40773,-97.7099,,,,,,,2.0,,,4133.17508264527,-7040.7431798573,,,,,,,-0.143719,0.336945,1.10748,,0.0,3.25848,1618070594.88049,
1618088599.55685,-5.708825815216027e+18,7.682450258631732e+18,1618070599.55685,0.357326,0.247837,-0.0418879,5.74562,-0.0955298,6.28763,-0.115364,,0.628763,,,7.44974,,250.756,0.0109719,,,,,0.0749752,0.186695,,,,,,7.0,3.54669,-96.2655,,,,,,,2.0,,,4133.17570560204,-7040.74406033642,,,,,,,-0.182966,0.306929,1.10748,,0.0,3.95517,1618070598.88333,
1618088604.70612,-5.708825815216027e+18,7.682450258631732e+18,1618070604.70612,0.248763,0.0925025,-0.0453786,5.91667,0.18527,5.73802,-0.110609,,0.573802,,16.034,,,250.837,0.0109719,,,,,0.0961251,0.373543,,,,,,7.0,3.1432,-95.2144,,,,,,,1.0,,,4133.17619199213,-7040.74454674838,,,,,,,-0.0891488,0.23224,1.10748,,0.0,4.4841,1618070602.89279,
1618088609.06628,-5.708825815216027e+18,7.682450258631732e+18,1618070609.06628,0.147286,-0.0139626,-0.0366519,6.1104,0.376826,5.3258,-0.0971744,,0.53258,,,,,250.837,0.0109719,,,,,0.107364,0.38577,,,,,2.0,7.0,3.03279,-94.5817,,,,,,,1.0,,,4133.17650433861,-7040.74474788579,,,,,,,-0.0253227,0.145092,1.10874,,0.0,4.85156,1618070606.88391,
1618088613.79245,-5.708825815216027e+18,7.682450258631732e+18,1618070613.79245,0.0,0.0244346,-0.0593412,0.00872665,0.375659,5.21588,-0.022113,,0.521588,,,,,250.918,0.00930586,0.0,0.0,,,0.111391,0.136071,,,,,2.0,7.0,3.03279,-94.5817,,,,,,,1.0,,,4133.17650433861,-7040.74474788579,,,,,,,0.0,0.0,1.10874,0.422582,0.0,1.5387,1618070614.92056,
1618088618.29855,-5.708825815216027e+18,7.682450258631732e+18,1618070618.29855,0.146783,0.0837758,-0.0331613,0.0663225,0.133163,5.24336,0.00653996,,0.524336,,,,,250.918,0.0109719,,,,,0.111391,0.141808,,,,,2.0,2.0,3.07672,-93.9205,,,,,,,1.0,,,4133.17685444424,-7040.74484792367,,,,,,,0.00972791,0.146461,1.10874,,0.0,2.08853,1618070618.8829,
1618088623.00839,-5.708825815216027e+18,7.682450258631732e+18,1618070623.00839,0.42665,0.111701,-0.0506145,0.219911,0.136057,4.6113,-0.125558,,0.46113,,,,,250.891,0.0109719,11.97,3.99,,,0.112079,0.0320297,,,,,2.0,2.0,3.51461,-91.9614,,,,,,,1.0,,,4133.17793724509,-7040.74493139128,,,,,,,0.0930707,0.416374,1.10999,0.453382,0.0,2.77859,1618070622.89603,
1618088627.72595,-5.708825815216027e+18,7.682450258631732e+18,1618070627.72595,1.11347,0.0959931,-0.0523599,0.307178,0.0202639,4.33649,-0.0600676,,0.433649,,,,,250.756,0.0109719,6.042,2.014,,,0.106865,0.0351506,,,,,2.0,2.0,5.10408,-86.9508,,,,,,,1.0,,,4133.18077626735,-7040.74482013896,,,,,,,0.33668,1.06135,1.10999,0.461013,0.0,3.51398,1618070626.88223,
1618088632.44241,-5.708825815216027e+18,7.682450258631732e+18,1618070632.44241,1.09593,0.0767945,-0.0541052,0.284489,0.0202639,4.06168,-0.0562672,,0.406168,,,,,250.918,0.0109719,5.472,1.824,,,0.0780471,-0.00725687,,,,,2.0,2.0,6.55468,-81.9901,,,,,,,1.0,,,4133.18356876639,-7040.74479508942,,,,,,,0.307592,1.05188,1.11124,0.468437,0.0,4.21542,1618070630.89691,
1618088637.1582,-5.708825815216027e+18,7.682450258631732e+18,1618070637.1582,1.09054,0.0733038,-0.0523599,0.324631,-0.00578968,3.97924,-0.0174445,,0.397924,,,,,250.864,0.0109719,5.358,1.786,,,0.04415,-0.0497975,,,,,2.0,2.0,8.1944,-77.1178,,,,,,,1.0,,,4133.18634336211,-7040.74462179848,,,,,,,0.347839,1.03358,1.11124,0.475469,0.0,0.940247,1618070638.88803,
1618088641.86456,-5.708825815216027e+18,7.682450258631732e+18,1618070641.86456,1.10519,0.0802851,-0.0471239,0.364774,-0.055002,3.5945,-0.0849863,,0.35945,,,,,250.891,0.0109719,5.7,1.9,,,6.27332,-0.0392472,,,,,2.0,2.0,10.0494,-72.26,,,,,,,1.0,,,4133.1891422967,-7040.74429671808,,,,,,,0.394262,1.03247,1.11249,0.482689,0.0,1.61743,1618070642.91684,
1618088646.5715,-5.708825815216027e+18,7.682450258631732e+18,1618070646.5715,1.08305,0.0872665,-0.0506145,0.397935,-0.055002,3.29221,-0.0643993,,0.329221,,,,,250.81,0.0109719,5.244,1.748,,,6.18512,-0.0550497,,,,,2.0,2.0,12.0249,-67.5605,,,,,,,1.0,,,4133.19187688644,-7040.74385707143,,,,,,,0.419698,0.998422,1.11249,0.489524,0.0,2.20459,1618070647.03522,
1618088651.27582,-5.708825815216027e+18,7.682450258631732e+18,1618070651.27582,1.0765,0.0837758,-0.0488692,0.404916,-0.0521072,3.04489,-0.0507444,,0.304489,,,,,250.783,0.0109719,5.13,1.71,,,6.04434,-0.0767439,,,,,2.0,2.0,14.0194,-62.9071,,,,,,,1.0,,,4133.19459027593,-7040.74339522461,,,,,,,0.424078,0.989448,1.11374,0.496471,0.0,3.0527,1618070650.89111,
1618088655.99033,-5.708825815216027e+18,7.682450258631732e+18,1618070655.99033,1.07567,0.0925025,-0.0506145,0.390954,-0.0781607,2.63267,-0.0871304,,0.263267,,,,,250.756,0.0109719,5.13,1.71,,,5.81876,-0.106799,,,,,,7.0,15.9533,-58.215,,,,,,,1.0,,,4133.19731481166,-7040.74298286317,,,,,,,0.409906,0.994506,1.11374,0.503281,0.0,3.78207,1618070654.88156,
1618088660.71118,-5.708825815216027e+18,7.682450258631732e+18,1618070660.71118,1.07666,0.0820305,-0.0436332,0.342085,-0.110004,2.3029,-0.0696748,,0.23029,,,,,250.783,0.0109719,5.13,1.71,,,5.46131,-0.141868,,,,,2.0,7.0,17.6594,-53.4236,,,,,,,1.0,,,4133.20005721728,-7040.74274766219,,,,,,,0.361166,1.01427,1.11499,0.509869,0.0,4.48395,1618070658.89832,
1618088665.4343,-5.708825815216027e+18,7.682450258631732e+18,1618070665.4343,1.06948,0.0785398,-0.0436332,0.37001,-0.144742,2.02809,-0.0582717,,0.202809,,,,,250.756,0.0109719,5.016,1.672,,,4.97965,-0.205392,,,,,2.0,7.0,19.4845,-48.7183,,,,,,,1.0,,,4133.20277251295,-7040.7424132139,,,,,,,0.386751,0.997104,1.11499,0.516442,0.0,1.21603,1618070666.88959,
1618088670.16498,-5.708825815216027e+18,7.682450258631732e+18,1618070670.16498,1.06903,0.0837758,-0.0471239,0.260054,-0.205534,1.89069,-0.0290619,,0.189069,,16.0353,,,250.756,0.0109719,5.00447,1.672,,,4.53736,-0.297123,,,,,2.0,7.0,20.7853,-43.8297,,,,,,,1.0,,,4133.20550532565,-7040.74247760143,,,,,,,0.274882,1.03308,1.11624,0.523052,0.0,1.94312,1618070670.89456,
1618088674.89551,-5.708825815216027e+18,7.682450258631732e+18,1618070674.89551,1.06785,0.0959931,-0.0471239,6.26224,-0.298635,1.45099,-0.0930965,,0.145099,,,,,250.864,0.0109719,,,,,4.21776,-0.443453,,,,,2.0,7.0,20.6795,-38.7799,,,,,,,1.0,,,4133.2081135649,-7040.74354673634,,,,,,,-0.0223634,1.06762,1.11749,,0.0,2.66156,1618070674.90436,
1618088679.62714,-5.708825815216027e+18,7.682450258631732e+18,1618070679.62714,1.05924,0.101229,-0.0541052,6.18196,-0.445681,1.03878,-0.090279,,0.103878,,,,,250.891,0.0109719,4.902,1.634,,,3.95789,-0.45,,,,,2.0,7.0,20.1734,-33.7975,,,,,,,1.0,,,4133.21062748492,-7040.74487949807,,,,,,,-0.107043,1.05382,1.11749,0.535663,0.0,3.39484,1618070678.90027,
1618088684.35999,-5.708825815216027e+18,7.682450258631732e+18,1618070684.35999,1.05866,0.106465,-0.0628319,5.87827,-0.445681,0.76397,-0.0577937,,0.0763969,,,,,250.946,0.0109719,4.902,1.634,,,3.7666,-0.45,,,,,2.0,7.0,18.1999,-29.193,,,,,,,1.0,,,4133.21272762263,-7040.74715276059,,,,,,,-0.417051,0.973053,1.11875,0.542139,0.0,4.13828,1618070682.8891,
1618088689.0899,-5.708825815216027e+18,7.682450258631732e+18,1618070689.0899,0.0,0.111701,-0.0418879,5.73864,-0.446848,0.296794,-0.0594144,,0.0296794,,,,,250.864,0.0109719,,,,,3.58583,-0.45,,,,,2.0,2.0,18.1999,-29.193,,,,,,,1.0,,,4133.21272762263,-7040.74715276059,,,,,,,0.0,0.0,1.11875,,0.0,3.43631,1618070690.89172,
1618088696.52325,-5.708825815216027e+18,7.682450258631732e+18,1618070696.52325,0.0,0.0907571,-0.0314159,5.60251,-0.470188,0.0,-0.0681345,,-0.011542,,,,,250.946,0.0109719,0.0,0.0,,,3.58583,-0.45,,,,,2.0,2.0,18.1999,-29.193,,,,,,,1.0,,,4133.21272762263,-7040.74715276059,,,,,,,0.0,0.0,1.12,0.542139,0.0,4.29227,1618070694.89886,
1618088700.97733,-5.708825815216027e+18,7.682450258631732e+18,1618070700.97733,0.0,0.111701,-0.00523599,5.2517,-0.445681,0.0,0.0,,-0.0252824,,,,,167.325,0.0109719,,,,,3.58583,-0.45,,,,,,7.0,18.1999,-29.193,,,,,,,1.0,,,4133.21272762263,-7040.74715276059,,,,,,,0.0,0.0,1.12,,0.0,4.75781,1618070698.88895,
