time,m_filename_hash,m_mission_hash,m_present_time,m_speed,m_pitch,m_roll,m_heading,m_fin,m_depth,m_depth_rate,m_water_depth,m_pressure,m_altitude,m_battery,m_vacuum,m_ballast_pumped,m_de_oil_vol,m_battpos,m_thruster_power,m_thruster_current,c_pitch,c_roll,c_heading,c_fin,m_gps_x_lmc,m_gps_y_lmc,m_gps_fix_x_lmc,m_gps_fix_y_lmc,m_gps_status,m_gps_full_status,m_x_lmc,m_y_lmc,m_dr_time,m_dr_surf_x_lmc,m_dr_surf_y_lmc,m_ext_x_lmc,m_ext_y_lmc,m_ext_z_lmc,x_lmc_xy_source,c_wpt_x_lmc,c_wpt_y_lmc,m_lat,m_lon,m_gps_lat,m_gps_lon,c_wpt_lat,c_wpt_lon,m_water_vx,m_water_vy,m_vx_lmc,m_vy_lmc,m_coulomb_amphr,m_thruster_watthr,m_appear_to_be_at_surface,m_science_clothesline_lag,sci_m_present_time,x_software_ver
1617929234.13806,-7.754726824868482e+18,3.6966576867081027e+18,1617911234.13806,-0.0,0.233874,0.0,0.0,0.0,0.00547864,0.0,-1.0,0.000547864,0.0,13.1216,-0.893529,420.931,420.795,1.17555,0.0,0.0,0.0,0.0,0.0,0.0,-4.33747,-23.5903,0.0,0.0,0.0,0.0,-4.33747,-23.5903,-1.0,0.0,0.0,0.0,0.0,0.0,3.0,0.0,0.0,4131.00410006646,-7040.44540000607,4131.0041,-7040.4454,0.0,0.0,0.0,0.0,-0.0,0.0,0.0225,0.0,1.0,18.0934,1617911225.74884,8.2
1617929245.88379,-7.754726824868482e+18,3.6966576867081027e+18,1617911245.88379,,0.233874,0.0,0.0,0.0,0.00547864,0.0,,0.000547864,,13.1216,-0.890242,420.849,420.849,1.17388,,,,,0.181836,0.0,-4.65657,-25.2486,0.0,0.0,0.0,0.0,-4.65657,-25.2486,-1.0,0.0,0.0,,,,3.0,0.0,0.0,4131.00320006645,-7040.44560000607,4131.0032,-7040.4456,4131.01690006645,-7040.44270000607,,,-0.0,0.0,0.0225,,1.0,3.83514,1617911245.74692,
1617929251.36374,-7.754726824868482e+18,3.6966576867081027e+18,1617911251.36374,,0.233874,0.0,0.0,0.0,0.00547864,0.0,,0.000547864,,,-0.891475,420.768,420.768,-0.000690476,,,,,0.182379,0.0,-4.82295,-26.3553,0.0,0.0,0.0,7.0,-4.82295,-26.3553,-1.0,0.0,0.0,,,,3.0,,,4131.00260006645,-7040.44570000607,4131.0026,-7040.4457,,,,,-0.0,0.0,0.0225,,1.0,4.38541,1617911249.73819,
1617929255.6629,-7.754726824868482e+18,3.6966576867081027e+18,1617911255.6629,,0.233874,0.0,0.0,0.0,0.00547864,0.0,,0.000547864,,,-0.889421,420.876,420.985,0.0076398,,,,,0.180995,0.0,-5.1375,-27.8286,0.0,0.0,0.0,0.0,-5.1375,-27.8286,-1.0,0.0,0.0,,,,3.0,,,4131.00180006645,-7040.44590000607,4131.0018,-7040.4459,,,,,-0.0,0.0,0.0225,,1.0,0.589111,1617911257.74387,
1617929259.95596,-7.754726824868482e+18,3.6966576867081027e+18,1617911259.95596,,0.233874,0.0,0.0,0.0,0.00547864,0.0,,0.000547864,,,,420.985,429.73,-0.408874,,,,,,0.0,-6.40936,-34.277,0.0,0.0,0.0,0.0,-6.40936,-34.277,-1.0,0.0,0.0,,,,3.0,,,4130.99830006645,-7040.44670000607,4130.9983,-7040.4467,,,,,-0.0,0.0,0.02375,,1.0,1.26672,1617911281.77795,
1617929284.93173,-7.754726824868482e+18,3.6966576867081027e+18,1617911284.93173,-0.0,1.19031,0.0,0.0,0.0,0.00547864,0.0,,0.000547864,,,,430.491,430.491,-1.20525,,,,,,0.0,,,0.0,0.0,,,-6.40936,-34.277,-1.0,0.0,0.0,,,,2.0,,,4130.99830006645,-7040.44670000607,,,,,,,-0.0,0.0,0.025,,1.0,8.32471,1617911289.79404,
1617929299.93326,-7.754726824868482e+18,3.6966576867081027e+18,1617911299.93326,-0.0,1.6633,0.0,0.0,0.0,0.00547864,0.0,,0.000547864,,,,430.708,430.708,-1.20525,,,,,,0.0,,,0.0,0.0,,,-6.40936,-34.277,-1.0,0.0,0.0,,,,2.0,,,4130.99830006645,-7040.44670000607,,,,,,,-0.0,0.0,0.02625,,1.0,8.48727,1617911304.74069,
1617929415.23389,7.730621854801656e+18,-4.787918488371493e+18,1617911415.23389,-0.0,0.221657,0.0,0.0,0.0,0.00547864,0.0,-1.0,0.000547864,0.0,13.1216,-0.886134,430.545,430.545,1.22719,0.0,0.0,0.0,0.0,0.180995,0.0,-6.40936,-34.277,0.0,0.0,2.0,2.0,0.0,0.0,-1.0,0.0,0.0,0.0,0.0,0.0,-1.0,0.0,0.0,4130.99830006645,-7040.44670000607,4130.9983,-7040.4467,4131.01690006645,-7040.44270000607,0.0,0.0,0.0,0.0,0.03125,0.0,1.0,3.81152,1617911421.74329,8.2
1617929427.50345,7.730621854801656e+18,-4.787918488371493e+18,1617911427.50345,,0.221657,0.0,0.0,0.0,,,,,,13.1216,-0.888599,430.626,430.626,1.22719,,,,,,0.0,,,0.0,0.0,1.0,7.0,,,-1.0,0.0,0.0,,,,-1.0,,,,,,,,,,,,,0.03125,,1.0,4.42972,1617911425.74384,
1617929431.60876,7.730621854801656e+18,-4.787918488371493e+18,1617911431.60876,,0.221657,0.0,0.0,0.0,,,,,,,-0.88901,430.518,430.518,1.22719,,,,,,0.0,,,0.0,0.0,1.0,1.0,,,-1.0,0.0,0.0,,,,-1.0,,,,,,,,,,,,,0.03125,,1.0,0.531677,1617911433.74777,
1617929435.74237,7.730621854801656e+18,-4.787918488371493e+18,1617911435.74237,,0.221657,0.0,0.0,0.0,,,,,,,-0.886545,430.491,430.491,1.22886,,,,,,0.0,,,0.0,0.0,1.0,1.0,,,-1.0,0.0,0.0,,,,-1.0,,,,,,,,,,,,,0.03125,,1.0,,1617911433.74777,
1617929443.22787,7.730621854801656e+18,-4.787918488371493e+18,1617911443.22787,,0.219911,0.0,0.0,0.0,0.00547864,0.0,,0.000547864,,,,430.572,430.572,-0.965337,,,,,,0.0,,,0.0,0.0,1.0,1.0,,,-1.0,0.0,0.0,,,,-1.0,,,,,,,,,,,,,0.03125,,1.0,2.09402,1617911454.73828,
1617929458.52533,7.730621854801656e+18,-4.787918488371493e+18,1617911458.52533,,1.6633,0.0,0.0,0.0,0.00547864,0.0,,0.000547864,,,,430.355,430.355,-1.20358,,,,,,0.0,,,0.0,0.0,,,,,-1.0,0.0,0.0,,,,-1.0,,,,,,,,,,,,,0.0325,,1.0,2.14853,1617911469.7507,
1617998765.00687,5.754256888141661e+18,7.77619770229344e+18,1617980765.00687,0.0,0.00872665,-0.0453786,3.81005,0.0,0.0,-8.47942e-05,-1.0,-0.00494946,0.0,16.1976,-1.00692,0.0,457.893,0.947295,0.0,0.0,0.0,0.0,0.0,0.0,0.0,0.0,0.0,0.0,2.0,7.0,0.0,0.0,-1.0,0.0,0.0,0.0,0.0,0.0,-1.0,0.0,0.0,4130.9826,-7040.45,69696969.0,69696969.0,0.0,0.0,0.0,0.0,0.0,0.0,0.00875,0.0,1.0,1.60175,1617980777.5961,8.2
1617998781.40863,5.754256888141661e+18,7.77619770229344e+18,1617980781.40863,,0.00872665,-0.0488692,3.7926,0.0,0.00547864,0.000301887,,0.000547864,,,,,,-1.20858,,,,,,0.0,,,0.0,0.0,,,,,-1.0,0.0,0.0,,,,-1.0,,,,,,,,,,,,,0.00875,,1.0,12.8636,1617980783.60922,
1618011679.54532,5.916135190801756e+18,7.870193393808276e+18,1617993679.54532,-0.0,0.230383,0.0,0.0,0.0,0.00547864,0.0,-1.0,0.000547864,0.0,13.2261,6.50481,0.0,429.513,1.20887,0.0,0.0,0.0,0.0,0.0,0.0,0.0,0.0,0.0,0.0,2.0,2.0,0.0,0.0,-1.0,0.0,0.0,0.0,0.0,0.0,-1.0,0.0,0.0,4130.9826,-7040.45,69696969.0,69696969.0,0.0,0.0,0.0,0.0,0.0,0.0,0.017504,0.0,1.0,112.813,1617993604.13995,8.2
1618011719.10565,5.916135190801756e+18,7.870193393808276e+18,1617993719.10565,,0.685914,0.0,0.0,0.0,0.00547864,0.0,,0.000547864,,,,,429.513,-1.0753,,,,,,0.0,,,0.0,0.0,,,,,-1.0,0.0,0.0,,,,-1.0,,,,,,,,,,,,,0.018752,,1.0,2.46078,1617993729.88382,
1618011734.10687,5.916135190801756e+18,7.870193393808276e+18,1617993734.10687,,1.66504,0.0,0.0,0.0,0.00547864,0.0,,0.000547864,,,,,429.513,-1.21025,,,,,,0.0,,,0.0,0.0,,,,,-1.0,0.0,0.0,,,,-1.0,,,,,,,,,,,,,0.02,,1.0,2.57135,1617993744.87088,
1618012153.46744,-4.0373468895997317e+18,-6.965226083041622e+18,1617994153.46744,-0.0,0.223402,0.0,0.0,0.00289484,0.00547864,0.0,-1.0,0.000547864,0.0,13.1216,7.6683,421.067,421.067,0.652404,0.0,0.0,0.0,0.0,0.0,0.0,-4.9803,-27.092,0.0,0.0,0.0,0.0,-4.9803,-27.092,-1.0,0.0,0.0,0.0,0.0,0.0,3.0,-2848.65,4046.31,4130.96790006645,-7040.45310000608,4130.9679,-7040.4531,4133.13,-7042.57,0.0,0.0,-0.0,0.0,0.060019,0.0,1.0,65.9096,1617994116.51816,8.2
1618012184.71701,-4.0373468895997317e+18,-6.965226083041622e+18,1617994184.71701,,1.46957,0.0,0.0,0.00289484,0.00547864,0.0,,0.000547864,,,,421.012,421.012,-1.19858,,,,,,0.0,,,0.0,0.0,,,,,-1.0,0.0,0.0,,,,-1.0,,,,,,,,,,,,,0.060019,,1.0,2.33917,1617994195.51144,
1618019997.77982,6.450822899755749e+18,4.031522651416378e+18,1618001997.77982,0.0,0.00174533,-0.0715585,0.223402,0.00578968,0.0,0.0,-1.0,-0.0363341,0.0,16.1611,8.45916,0.0,421.202,1.18388,0.0,0.0,0.0,0.0,0.0,0.0,0.0,0.0,0.0,0.0,69.0,7.0,0.0,0.0,-1.0,0.0,0.0,0.0,0.0,0.0,-1.0,0.0,0.0,4130.9679,-7040.4531,69696969.0,69696969.0,0.0,0.0,0.0,0.0,0.0,0.0,0.05,0.0,1.0,41.4754,1618001972.95056,8.2
1618020017.17316,6.450822899755749e+18,4.031522651416378e+18,1618002017.17316,,-0.0261799,-0.0767945,0.232129,0.00578968,0.0,0.0,,-0.0363341,,,,,421.257,-1.22524,,,,,,0.0,,,0.0,0.0,,,,,-1.0,0.0,0.0,,,,-1.0,,,,,,,,,,,,,0.05125,,1.0,1.03442,1618002028.94101,
1618020300.10452,-3.5029419782698706e+18,8.986294831247175e+18,1618002300.10452,0.0,0.0575959,-0.0872665,0.191986,0.0,0.0,0.0,-1.0,-0.0390835,0.0,16.1752,8.46245,0.0,421.257,1.2072,0.0,0.0,0.0,0.0,0.0,0.0,0.0,0.0,0.0,0.0,69.0,7.0,0.0,0.0,-1.0,0.0,0.0,0.0,0.0,0.0,-1.0,0.0,0.0,4130.9679,-7040.4531,69696969.0,69696969.0,0.0,0.0,0.0,0.0,0.0,0.0,0.0675,0.0,1.0,12.3766,1618002304.94,8.2
1618020319.48697,-3.5029419782698706e+18,8.986294831247175e+18,1618002319.48697,,0.0663225,-0.0942478,0.511381,-0.00289484,0.0,0.0,,-0.041833,,,,,421.311,-1.19858,,,,,,0.0,,,0.0,0.0,,,,,-1.0,0.0,0.0,,,,-1.0,,,,,,,,,,,,,0.06875,,1.0,3.70053,1618002328.93332,
1618021204.05289,5.178422571055612e+18,4.073504650584483e+17,1618003204.05289,0.0,-0.00174533,-0.0767945,5.92888,-0.00289484,0.0,0.0,-1.0,-0.0390835,0.0,16.1532,8.5857,0.0,421.42,1.20387,0.0,0.0,0.0,0.0,0.0,0.0,0.0,0.0,0.0,0.0,69.0,7.0,0.0,0.0,-1.0,0.0,0.0,0.0,0.0,0.0,-1.0,0.0,0.0,4130.9679,-7040.4531,69696969.0,69696969.0,0.0,0.0,0.0,0.0,0.0,0.0,0.01375,0.0,1.0,43.2752,1618003177.39694,8.2
1618021223.4147,5.178422571055612e+18,4.073504650584483e+17,1618003223.4147,,0.0191986,-0.0785398,6.04408,0.0,0.0,0.0,,-0.041833,,,,,421.42,-1.20192,,,,,,0.0,,,0.0,0.0,,,,,-1.0,0.0,0.0,,,,-1.0,,,,,,,,,,,,,0.015,,1.0,11.8138,1618003224.40305,
1618021446.48483,1.6709452474981696e+16,-4.933292685870406e+18,1618003446.48483,0.0,0.0418879,-0.0733038,6.02488,0.0,0.0,0.0,-1.0,-0.0390835,0.0,16.1632,8.60871,0.0,421.338,1.18887,0.0,0.0,0.0,0.0,0.0,0.0,0.0,0.0,0.0,0.0,69.0,7.0,0.0,0.0,-1.0,0.0,0.0,0.0,0.0,0.0,-1.0,0.0,0.0,4130.9679,-7040.4531,69696969.0,69696969.0,0.0,0.0,0.0,0.0,0.0,0.0,0.02875,0.0,1.0,14.0681,1618003449.39795,8.2
1618021465.64154,1.6709452474981696e+16,-4.933292685870406e+18,1618003465.64154,,0.0436332,-0.0750492,6.21163,0.0,0.0,0.0,,-0.0445824,,,,,421.392,-1.19858,,,,,,0.0,,,0.0,0.0,,,,,-1.0,0.0,0.0,,,,-1.0,,,,,,,,,,,,,0.02875,,1.0,13.379,1618003465.40488,
1618023746.8432,8.978689185146085e+18,-6.300213946354519e+18,1618005746.8432,0.0,-0.0261799,-0.162316,2.988,0.00289484,0.0,0.0,-1.0,-0.106169,0.0,16.1815,8.85028,0.0,421.8,1.18388,0.0,0.0,0.0,0.0,0.0,0.0,0.987041,-0.0889366,0.0,0.0,0.0,7.0,0.0,0.0,-1.0,0.0,0.0,0.0,0.0,0.0,-1.0,0.0,0.0,4131.44910006647,-7040.61850000613,4131.4492,-7040.6178,0.0,0.0,0.0,0.0,0.0,0.0,0.15875,0.0,1.0,11.0919,1618005753.40811,8.2
1618023766.76883,8.978689185146085e+18,-6.300213946354519e+18,1618005766.76883,,-0.015708,-0.116937,2.81347,0.00289484,0.0,0.0,,-0.106169,,,,,421.908,-1.19858,,,,,,0.0,,,0.0,0.0,,,,,-1.0,0.0,0.0,,,,-1.0,,,,,,,,,,,,,0.15875,,1.0,5.4664,1618005774.39789,
1618024060.91116,-6.60565592930964e+17,-4.757889074435395e+18,1618006060.91116,0.0,-0.0418879,-0.216421,0.506145,0.0,0.0,0.0,-1.0,-0.0214354,0.0,16.1762,8.95422,0.0,421.881,1.21053,0.0,0.0,0.0,0.0,0.0,0.0,0.668786,-0.190659,0.0,0.0,0.0,7.0,0.668786,-0.190659,-1.0,0.0,0.0,0.0,0.0,0.0,-1.0,0.0,0.0,4131.45290006647,-7040.61810000613,4131.4529,-7040.6181,0.0,0.0,0.0,0.0,-0.0,-0.0,0.17625,0.0,1.0,12.1832,1618006065.40436,8.2
1618024079.76376,-6.60565592930964e+17,-4.757889074435395e+18,1618006079.76376,,-0.010472,-0.162316,1.26013,0.00289484,0.0,0.0,,-0.0269316,,,,,421.881,-1.19858,,,,,,0.0,,,0.0,0.0,,,,,-1.0,0.0,0.0,,,,-1.0,,,,,,,,,,,,,0.17625,,1.0,3.52496,1618006089.40414,
1618024207.63477,-1.3436162406669752e+18,-6.760145148641058e+18,1618006207.63477,0.0,0.0,-0.0506145,2.58134,-0.00289484,0.0,0.0,-1.0,-0.0269316,0.0,16.1706,8.98421,0.0,421.963,0.96229,0.0,0.0,0.0,0.0,0.0,0.0,0.668786,-0.190659,0.0,0.0,1.0,7.0,0.0,0.0,-1.0,0.0,0.0,0.0,0.0,0.0,-1.0,0.0,0.0,4131.45290006647,-7040.61810000613,4131.4529,-7040.6181,0.0,0.0,0.0,0.0,0.0,0.0,0.182502,0.0,1.0,0.212555,1618006221.40375,8.2
1618024223.78214,-1.3436162406669752e+18,-6.760145148641058e+18,1618006223.78214,,-0.0191986,-0.18326,2.70526,-0.00289484,0.0,0.0,,-0.0269316,,,,,421.854,-1.19692,,,,,,0.0,,,0.0,0.0,,,,,-1.0,0.0,0.0,,,,-1.0,,,,,,,,,,,,,0.182502,,1.0,12.5518,1618006224.4039,
1618024823.41501,9.422080768147386e+17,3.585619225284993e+17,1618006823.41501,0.0253035,-0.356047,-0.0610865,1.39975,-0.00578968,0.0883535,0.0521858,-1.0,0.00883535,0.0,15.9803,8.35522,0.0,-188.072,0.635743,0.0,0.0,0.0,0.0,0.0,0.0,0.0,0.0,0.0,0.0,69.0,7.0,0.0,0.0,-1.0,0.0,0.0,0.0,0.0,0.0,0.0,0.0,0.0,4131.4529,-7040.6181,69696969.0,69696969.0,0.0,0.0,0.0,0.0,0.0,0.0,0.03,0.0,1.0,0.0,0.0,8.2
1618024840.00781,9.422080768147386e+17,3.585619225284993e+17,1618006840.00781,,-0.647517,-0.0261799,1.29503,-0.00578968,0.445539,0.042588,,0.0445539,,,,,-100.051,-1.19692,,,,,,0.0,,,0.0,0.0,,,,,-1.0,0.0,0.0,,,,-1.0,,,,,,,,,,,,,0.033752,,1.0,,0.0,
1618024855.00906,9.422080768147386e+17,3.585619225284993e+17,1618006855.00906,,-0.0331613,-0.0418879,1.88146,-0.00578968,0.00592599,-0.0298488,,0.000592599,,,,,-12.1932,-1.18859,,,,,,0.0,,,0.0,0.0,,,,,-1.0,0.0,0.0,,,,-1.0,,,,,,,,,,,,,0.044996,,1.0,,0.0,
1618024870.0098,9.422080768147386e+17,3.585619225284993e+17,1618006870.0098,,0.0471239,-0.120428,1.43466,-0.0115794,0.00592599,0.0,,0.000592599,,,,,76.4522,-1.18692,,,,,,0.0,,,0.0,0.0,,,,,-1.0,0.0,0.0,,,,-1.0,,,,,,,,,,,,,0.054996,,1.0,,0.0,
1618024885.01666,9.422080768147386e+17,3.585619225284993e+17,1618006885.01666,,-0.00349066,-0.0418879,6.20465,-0.00578968,0.00592599,0.0,,0.000592599,,,,,164.772,-1.18692,,,,,,0.0,,,0.0,0.0,,,,,-1.0,0.0,0.0,,,,-1.0,,,,,,,,,,,,,0.069996,,1.0,,0.0,
1618024900.03323,9.422080768147386e+17,3.585619225284993e+17,1618006900.03323,,0.0244346,-0.0802851,0.153589,-0.0492123,0.00592599,0.0,,0.000592599,,,,,251.489,-1.18692,,,,,,0.0,,,0.0,0.0,,,,,-1.0,0.0,0.0,,,,-1.0,,,,,,,,,,,,,0.0725,,1.0,3.15546,1618006910.1987,
1618024915.14673,9.422080768147386e+17,3.585619225284993e+17,1618006915.14673,,0.00174533,-0.0331613,0.579449,0.0607917,0.335636,0.0190992,,0.0335636,,,,,339.075,-1.18692,,,,,,0.0,,,0.0,0.0,,,,,-1.0,0.0,0.0,,,,-1.0,,,,,,,,,,,,,0.083748,,1.0,4.93921,1618006923.44965,
1618024930.17035,9.422080768147386e+17,3.585619225284993e+17,1618006930.17035,,0.010472,-0.0331613,0.712094,-0.00289484,0.00592599,-0.0234452,,0.000592599,,,,,420.306,-1.18859,,,,,,0.0,,,0.0,0.0,,,,,-1.0,0.0,0.0,,,,-1.0,,,,,,,,,,,,,0.093748,,1.0,7.19769,1618006936.20242,
1618025119.28204,3.1403840708860764e+18,-8.922903886097699e+18,1618007119.28204,0.0253035,-0.015708,-0.0296706,0.74002,-0.00289484,0.0,-8.38247e-05,-1.0,-0.00215499,0.0,16.1276,8.94518,0.0,421.61,1.22386,0.0,0.0,0.0,0.0,0.0,0.0,0.0,0.0,0.0,0.0,69.0,7.0,0.0,0.0,-1.0,0.0,0.0,0.0,0.0,0.0,-1.0,0.0,0.0,4131.4529,-7040.6181,69696969.0,69696969.0,0.0,0.0,0.0,0.0,0.0,0.0,0.114996,0.0,1.0,12.6787,1618007122.20535,8.2
1618025137.06244,3.1403840708860764e+18,-8.922903886097699e+18,1618007137.06244,,-0.00872665,-0.0872665,0.720821,-0.00289484,0.0,0.0,,-0.00765015,,,,,421.61,-1.20192,,,,,,0.0,,,0.0,0.0,,,,,-1.0,0.0,0.0,,,,-1.0,,,,,,,,,,,,,0.116244,,1.0,4.02542,1618007146.20523,
1618025321.98529,-5.38763389754439e+18,-7.084329222507462e+18,1618007321.98529,0.0253035,-0.0244346,-0.106465,1.9792,-0.0694762,0.0,-8.23867e-05,-1.0,-0.00215499,0.0,16.1657,9.15512,0.0,421.637,1.22553,0.0,0.0,0.0,0.0,0.0,0.0,0.133757,-0.0381316,0.0,0.0,0.0,7.0,0.0,0.0,-1.0,0.0,0.0,0.0,0.0,0.0,-1.0,0.0,0.0,4131.45960006647,-7040.61300000613,4131.4596,-7040.6129,0.0,0.0,0.0,0.0,0.0,0.0,0.124996,0.0,1.0,12.5424,1618007326.19595,8.2
1618025340.91882,-5.38763389754439e+18,-7.084329222507462e+18,1618007340.91882,,-0.0122173,-0.127409,1.81165,0.0,0.00592599,0.000949678,,0.000592599,,,,,421.555,-1.19858,,,,,,0.0,,,0.0,0.0,,,,,-1.0,0.0,0.0,,,,-1.0,,,,,,,,,,,,,0.126252,,1.0,12.8907,1618007341.1944,
1618025900.48273,-1.8959284546541647e+18,7.139463908077409e+18,1618007900.48273,0.0253035,-0.0279253,-0.0802851,1.03673,0.00289484,0.0,-8.23981e-05,-1.0,-0.00215499,0.0,16.1723,9.19826,0.0,421.936,1.22886,0.0,0.0,0.0,0.0,0.0,0.0,0.350531,-0.292381,0.0,0.0,0.0,7.0,0.350531,-0.292381,-1.0,0.0,0.0,0.0,0.0,0.0,-1.0,0.0,0.0,4131.45750006647,-7040.61100000613,4131.4575,-7040.611,0.0,0.0,0.0,0.0,0.0,0.0,0.1475,0.0,1.0,10.8665,1618007906.20474,8.2
1618025919.25284,-1.8959284546541647e+18,7.139463908077409e+18,1618007919.25284,,-0.0191986,-0.0750492,1.12574,0.00289484,0.0,0.0,,-0.00215499,,,,,421.908,-1.19858,,,,,,0.0,,,0.0,0.0,,,,,-1.0,0.0,0.0,,,,-1.0,,,,,,,,,,,,,0.1475,,1.0,6.22113,1618007926.19302,
1618028135.56647,-3.523453559930862e+18,1.9495763917271552e+18,1618010135.56647,0.0253035,-0.0279253,-0.109956,2.41903,-0.00289484,0.0,0.0,-1.0,-0.0213881,0.0,16.1486,9.30507,0.0,422.859,1.2072,0.0,0.0,0.0,0.0,0.0,0.0,0.350531,-0.292381,0.0,0.0,0.0,7.0,0.0,0.0,-1.0,0.0,0.0,0.0,0.0,0.0,-1.0,0.0,0.0,4131.45750006647,-7040.61100000613,4131.4575,-7040.611,0.0,0.0,0.0,0.0,0.0,0.0,0.289996,0.0,1.0,41.9304,1618010110.19836,8.2
1618028154.86047,-3.523453559930862e+18,1.9495763917271552e+18,1618010154.86047,,-0.0401426,-0.0733038,2.27067,-0.00289484,0.0,0.0,,-0.0131453,,,,,422.832,-1.19858,,,,,,0.0,,,0.0,0.0,,,,,-1.0,0.0,0.0,,,,-1.0,,,,,,,,,,,,,0.291244,,1.0,6.43381,1618010161.18979,
1618070901.58823,5.829927421390307e+18,-2.9120580020130637e+18,1618052901.58823,0.0,-0.0418879,-0.0855211,3.17126,0.0,0.0,-8.49689e-05,-1.0,-0.00215499,0.0,16.1243,9.39176,0.0,424.679,1.19554,0.0,0.0,0.0,0.0,0.0,0.0,0.0,0.0,0.0,0.0,2.0,7.0,0.0,0.0,-1.0,0.0,0.0,0.0,0.0,0.0,-1.0,0.0,0.0,4131.4575,-7040.611,69696969.0,69696969.0,0.0,0.0,0.0,0.0,0.0,0.0,0.01,0.0,1.0,37.9539,1618052878.00491,8.2
1618070918.74301,5.829927421390307e+18,-2.9120580020130637e+18,1618052918.74301,,-0.0366519,-0.0890118,3.1381,0.0,0.0,0.0,,-0.00765015,,,,,424.706,-1.19858,,,,,,0.0,,,0.0,0.0,,,,,-1.0,0.0,0.0,,,,-1.0,,,,,,,,,,,,,0.01,,1.0,4.52393,1618052926.99585,
1618072729.37479,-7.487624180466707e+18,8.254100138398785e+18,1618054729.37479,0.0,-0.0383972,-0.0872665,3.17475,0.00578968,0.00592599,8.39019e-05,-1.0,0.000592599,0.0,16.1198,7.50561,0.0,410.692,-0.510504,0.0,0.0,0.0,0.0,0.0,0.0,0.152189,0.533966,0.0,0.0,0.0,0.0,0.152189,0.533966,-1.0,0.0,0.0,0.0,0.0,0.0,3.0,0.0,0.0,4131.46130006648,-7040.29930000603,4131.4613,-7040.2993,0.0,0.0,0.0,0.0,0.0,0.0,0.1125,0.0,1.0,6.22958,1618054741.33661,8.2
1618072749.84747,-7.487624180466707e+18,8.254100138398785e+18,1618054749.84747,,-0.0418879,-0.0715585,3.16079,0.00578968,0.00592599,0.0,,0.000592599,,,,,,-1.20692,,,,,,0.0,-0.936313,0.266864,0.0,0.0,0.0,7.0,-0.936313,0.266864,-1.0,0.0,0.0,,,,3.0,,,4131.46100006648,-7040.30000000603,4131.461,-7040.3,,,,,0.0,0.0,0.115,,1.0,12.5633,1618054750.34875,
1618073523.8891,-3.293577336971064e+18,5.058294605049936e+16,1618055523.8891,0.0,-0.0488692,-0.0837758,3.17126,-0.00578968,0.00592599,0.0,-1.0,0.000592599,0.0,16.1206,9.20771,0.0,420.931,1.20553,0.0,0.0,0.0,0.0,0.0,0.0,3.39926,0.763184,0.0,0.0,0.0,0.0,3.39926,0.763184,-1.0,0.0,0.0,0.0,0.0,0.0,3.0,0.0,0.0,4131.46190006648,-7040.29880000603,4131.4619,-7040.2988,0.0,0.0,0.0,0.0,-0.0,-0.0,0.011248,0.0,1.0,33.451,1618055508.83325,8.2
1618073544.66821,-3.293577336971064e+18,5.058294605049936e+16,1618055544.66821,,-0.0401426,-0.0785398,3.16603,-0.00289484,0.00592599,0.0,,0.000592599,,,,,421.012,-1.20192,,,,,,0.0,3.08102,0.661442,0.0,0.0,0.0,7.0,3.08102,0.661442,-1.0,0.0,0.0,,,,3.0,,,4131.46180006648,-7040.29900000603,4131.4618,-7040.299,,,,,-0.0,-0.0,0.011248,,1.0,3.89792,1618055553.83612,
1618073786.22595,6.22732414558364e+18,8.134890158772798e+18,1618055786.22595,0.0,-0.0418879,-0.0715585,3.16254,-0.00578968,9.99325e-14,1.38384e-15,-1.0,9.99325e-15,0.0,16.1437,9.44681,0.0,421.067,1.22886,0.0,0.0,0.0,0.0,0.0,0.0,0.184489,0.139865,0.0,0.0,0.0,7.0,0.0,0.0,-1.0,0.0,0.0,0.0,0.0,0.0,-1.0,0.0,0.0,4131.46190006648,-7040.30040000603,4131.462,-7040.3003,0.0,0.0,0.0,0.0,0.0,0.0,0.02,0.0,1.0,6.88599,1618055796.83475,8.2
1618073805.97906,6.22732414558364e+18,8.134890158772798e+18,1618055805.97906,,-0.0506145,-0.0750492,3.16777,-0.00578968,0.0,-1.57473e-14,,-0.0027476,,,,,420.849,-1.20358,,,,,,0.0,0.230658,-1.22043,0.0,0.0,0.0,0.0,0.230658,-1.22043,-1.0,0.0,0.0,,,,3.0,,,4131.46130006648,-7040.30000000603,4131.4613,-7040.3,,,,,0.0,0.0,0.02,,1.0,10.1939,1618055808.88943,
1618074186.22388,4.473820533659461e+18,5.777863208918998e+18,1618056186.22388,0.0,-0.0401426,-0.0890118,3.17475,-0.00578968,0.357187,0.00515154,-1.0,0.0357187,0.0,16.1418,9.42709,0.0,420.822,1.22886,0.0,0.0,0.0,0.0,0.0,0.0,0.249088,-0.648337,0.0,0.0,0.0,0.0,0.249088,-0.648337,-1.0,0.0,0.0,0.0,0.0,0.0,3.0,0.0,0.0,4131.46230006648,-7040.29880000603,4131.4623,-7040.2988,0.0,0.0,0.0,0.0,0.0,0.0,0.0325,0.0,1.0,4.06924,1618056196.83395,8.2
1618074203.22406,4.473820533659461e+18,5.777863208918998e+18,1618056203.22406,,-0.0401426,-0.0890118,3.17475,-0.00578968,,,,,,,,,420.849,1.22886,,,,,,0.0,0.198358,-0.826325,0.0,0.0,0.0,7.0,0.198358,-0.826325,-1.0,0.0,0.0,,,,3.0,,,4131.46220006648,-7040.29880000603,4131.4622,-7040.2988,,,,,0.0,0.0,0.0325,,1.0,5.06512,1618056200.82516,
1618074207.70575,4.473820533659461e+18,5.777863208918998e+18,1618056207.70575,,-0.0401426,-0.0890118,3.17475,-0.00578968,,,,,,,,,420.795,1.22886,,,,,,0.0,0.198358,-0.826325,0.0,0.0,0.0,0.0,0.198358,-0.826325,-1.0,0.0,0.0,,,,3.0,,,4131.46220006648,-7040.29880000603,4131.4622,-7040.2988,,,,,0.0,0.0,0.0325,,1.0,1.54269,1618056208.83432,
1618074212.22729,4.473820533659461e+18,5.777863208918998e+18,1618056212.22729,,-0.0401426,-0.0890118,3.17475,-0.00578968,9.99325e-14,-0.0255444,,9.99325e-15,,,,,420.904,1.22886,,,,,,0.0,0.0138699,-0.966191,0.0,0.0,0.0,0.0,0.0138699,-0.966191,-1.0,0.0,0.0,,,,3.0,,,4131.46210006648,-7040.29890000603,4131.4621,-7040.2989,,,,,0.0,0.0,0.0325,,1.0,2.06537,1618056212.83188,
1618074216.70959,4.473820533659461e+18,5.777863208918998e+18,1618056216.70959,,-0.0401426,-0.0890118,3.17475,-0.00578968,,,,,,,,,420.904,1.22886,,,,,,0.0,-0.119889,-0.928067,0.0,0.0,0.0,0.0,-0.119889,-0.928067,-1.0,0.0,0.0,,,,3.0,,,4131.46210006648,-7040.29900000603,4131.4621,-7040.299,,,,,0.0,0.0,0.033748,,1.0,2.48871,1618056216.89038,
1618074221.18259,4.473820533659461e+18,5.777863208918998e+18,1618056221.18259,,-0.0401426,-0.0890118,3.17475,-0.00289484,,,,,,,,,420.876,1.22886,,,,,,0.0,0.147629,-1.00431,0.0,0.0,0.0,0.0,0.147629,-1.00431,-1.0,0.0,0.0,,,,3.0,,,4131.46210006648,-7040.29880000603,4131.4621,-7040.2988,,,,,0.0,0.0,0.033748,,1.0,3.08078,1618056220.83301,
1618074225.71735,4.473820533659461e+18,5.777863208918998e+18,1618056225.71735,,-0.0401426,-0.0890118,3.17475,-0.00578968,9.99325e-14,0.0,,9.99325e-15,,,,,420.849,1.22886,,,,,,0.0,0.364417,-1.25855,0.0,0.0,0.0,0.0,0.364417,-1.25855,-1.0,0.0,0.0,,,,3.0,,,4131.46200006648,-7040.29860000603,4131.462,-7040.2986,,,,,0.0,0.0,0.033748,,1.0,3.64282,1618056224.83517,
1618074230.29288,4.473820533659461e+18,5.777863208918998e+18,1618056230.29288,,-0.0401426,-0.0890118,3.17475,-0.00578968,,,,,,,,,420.822,1.22886,,,,,,0.0,0.581206,-1.51279,0.0,0.0,0.0,0.0,0.581206,-1.51279,-1.0,0.0,0.0,,,,3.0,,,4131.46190006648,-7040.29840000603,4131.4619,-7040.2984,,,,,0.0,0.0,0.033748,,1.0,0.212219,1618056232.84079,
1618074234.85559,4.473820533659461e+18,5.777863208918998e+18,1618056234.85559,,-0.0401426,-0.0890118,3.17475,-0.00578968,,,,,,,,,420.876,1.22886,,,,,,0.0,,,0.0,0.0,,7.0,,,-1.0,0.0,0.0,,,,-1.0,,,,,,,,,,,,,0.033748,,1.0,0.682831,1618056236.84003,
1618074239.09924,4.473820533659461e+18,5.777863208918998e+18,1618056239.09924,,-0.0401426,-0.0890118,3.17475,-0.00289484,9.99325e-14,0.0,,9.99325e-15,,,,,420.795,1.22886,,,,,,0.0,0.848723,-1.58903,0.0,0.0,0.0,7.0,0.848723,-1.58903,-1.0,0.0,0.0,,,,3.0,,,4131.46190006648,-7040.29820000603,4131.4619,-7040.2982,,,,,0.0,0.0,0.035,,1.0,0.942352,1618056240.82559,
1618074243.60468,4.473820533659461e+18,5.777863208918998e+18,1618056243.60468,,-0.0401426,-0.0890118,3.17475,-0.00578968,,,,,,,,,420.795,1.22886,,,,,,0.0,0.931753,-1.80514,0.0,0.0,0.0,7.0,0.931753,-1.80514,-1.0,0.0,0.0,,,,3.0,,,4131.46180006648,-7040.29810000603,4131.4618,-7040.2981,,,,,0.0,0.0,0.035,,1.0,1.44427,1618056244.83237,
1618074248.09717,4.473820533659461e+18,5.777863208918998e+18,1618056248.09717,,-0.0401426,-0.0890118,3.17475,-0.00289484,,,,,,,,,420.768,1.22886,,,,,,0.0,0.797994,-1.76702,0.0,0.0,0.0,0.0,0.797994,-1.76702,-1.0,0.0,0.0,,,,3.0,,,4131.46180006648,-7040.29820000603,4131.4618,-7040.2982,,,,,0.0,0.0,0.035,,1.0,4.55267,1618056248.82797,
1618074255.18365,4.473820533659461e+18,5.777863208918998e+18,1618056255.18365,,-0.0401426,-0.0890118,3.17475,-0.00578968,9.99325e-14,0.0,,9.99325e-15,,,,,420.795,1.22886,,,,,,0.0,0.714965,-1.55091,0.0,0.0,0.0,7.0,0.714965,-1.55091,-1.0,0.0,0.0,,,,3.0,,,4131.46190006648,-7040.29830000603,4131.4619,-7040.2983,,,,,0.0,0.0,0.036252,,1.0,1.01968,1618056256.83417,
1618074259.68341,4.473820533659461e+18,5.777863208918998e+18,1618056259.68341,,-0.0401426,-0.0890118,3.17475,-0.00578968,,,,,,16.1398,,,420.904,1.22886,,,,,,0.0,0.447447,-1.47466,0.0,0.0,0.0,7.0,0.447447,-1.47466,-1.0,0.0,0.0,,,,3.0,,,4131.46190006648,-7040.29850000603,4131.4619,-7040.2985,,,,,0.0,0.0,0.036252,,1.0,1.50998,1618056260.84067,
1618074264.17273,4.473820533659461e+18,5.777863208918998e+18,1618056264.17273,,-0.0401426,-0.0890118,3.17475,-0.00578968,,,,,,,,,420.849,1.22886,,,,,,0.0,0.0461697,-1.36029,0.0,0.0,0.0,7.0,0.0461697,-1.36029,-1.0,0.0,0.0,,,,3.0,,,4131.46190006648,-7040.29880000603,4131.4619,-7040.2988,,,,,0.0,0.0,0.036252,,1.0,2.00858,1618056264.83441,
1618074959.31409,-4.99408370885023e+18,-8.997037180004657e+18,1618056959.31409,0.0,0.00872665,-0.102974,1.78373,0.00289484,0.192332,0.00280183,-1.0,0.0192332,0.0,16.1201,7.66707,0.0,420.686,1.23886,0.0,0.0,0.0,0.0,0.0,0.0,-0.733203,-4.60221,0.0,0.0,0.0,0.0,-0.733203,-4.60221,-1.0,0.0,0.0,0.0,0.0,0.0,3.0,0.0,0.0,4131.45830006648,-7040.29860000603,4131.4583,-7040.2986,0.0,0.0,0.0,0.0,-0.0,-0.0,0.153744,0.0,1.0,4.22604,1618056968.83939,8.2
1618074975.37399,-4.99408370885023e+18,-8.997037180004657e+18,1618056975.37399,,0.00872665,-0.102974,1.78373,0.0,,,,,,,,,420.523,,,,,,,0.0,-1.18521,-4.66583,0.0,0.0,0.0,0.0,-1.18521,-4.66583,-1.0,0.0,0.0,,,,3.0,,,4131.45820006648,-7040.29890000603,4131.4582,-7040.2989,,,,,-0.0,-0.0,0.153744,,1.0,2.08228,1618056976.8295,
1618074980.75195,-4.99408370885023e+18,-8.997037180004657e+18,1618056980.75195,,0.00872665,-0.102974,1.78373,0.00289484,,,,,,,,,420.089,1.23886,,,,,,0.0,-1.72025,-4.51334,0.0,0.0,0.0,7.0,-1.72025,-4.51334,-1.0,0.0,0.0,,,,3.0,,,4131.45820006648,-7040.29930000603,4131.4582,-7040.2993,,,,,-0.0,-0.0,0.155,,1.0,1.42484,1618056981.99567,
1618074985.2905,-4.99408370885023e+18,-8.997037180004657e+18,1618056985.2905,,0.00872665,-0.102974,1.78373,0.00289484,0.027476,-0.0109787,,0.0027476,,,,,420.605,1.23886,,,,,,0.0,-1.90474,-4.6532,0.0,0.0,0.0,7.0,-1.90474,-4.6532,-1.0,0.0,0.0,,,,3.0,,,4131.45810006648,-7040.29940000603,4131.4581,-7040.2994,,,,,-0.0,-0.0,0.155,,1.0,3.13474,1618056984.82474,
1618074989.78339,-4.99408370885023e+18,-8.997037180004657e+18,1618056989.78339,,0.00872665,-0.102974,1.78373,0.00289484,,,,,,,,,420.523,1.24052,,,,,,0.0,-1.77098,-4.69133,0.0,0.0,0.0,7.0,-1.77098,-4.69133,-1.0,0.0,0.0,,,,3.0,,,4131.45810006648,-7040.29930000603,4131.4581,-7040.2993,,,,,-0.0,-0.0,0.155,,1.0,3.58575,1618056988.86722,
1618074994.27646,-4.99408370885023e+18,-8.997037180004657e+18,1618056994.27646,,0.00872665,-0.102974,1.78373,0.00578968,,,,,,,,,420.659,1.24052,,,,,,0.0,-1.63722,-4.72945,0.0,0.0,0.0,7.0,-1.63722,-4.72945,-1.0,0.0,0.0,,,,3.0,,,4131.45810006648,-7040.29920000603,4131.4581,-7040.2992,,,,,-0.0,-0.0,0.156248,,1.0,0.113861,1618056996.83344,
1618074998.76907,-4.99408370885023e+18,-8.997037180004657e+18,1618056998.76907,,0.00872665,-0.102974,1.78373,0.00578968,9.99325e-14,-0.00204313,,9.99325e-15,,,,,420.469,1.24052,,,,,,0.0,-1.18521,-4.66583,0.0,0.0,0.0,7.0,-1.18521,-4.66583,-1.0,0.0,0.0,,,,3.0,,,4131.45820006648,-7040.29890000603,4131.4582,-7040.2989,,,,,-0.0,-0.0,0.156248,,1.0,0.596313,1618057000.84348,
1618075003.27377,-4.99408370885023e+18,-8.997037180004657e+18,1618057003.27377,,0.00872665,-0.102974,1.78373,0.0376329,,,,,,,,,420.713,1.24052,,,,,,0.0,-0.682474,-4.42422,0.0,0.0,0.0,7.0,-0.682474,-4.42422,-1.0,0.0,0.0,,,,3.0,,,4131.45840006648,-7040.29860000603,4131.4584,-7040.2986,,,,,-0.0,-0.0,0.156248,,1.0,1.09869,1618057004.84161,
1618075007.74551,-4.99408370885023e+18,-8.997037180004657e+18,1618057007.74551,,0.00872665,-0.102974,1.78373,0.00289484,,,,,,,,,420.523,1.23886,,,,,,0.0,-0.313497,-4.14449,0.0,0.0,0.0,0.0,-0.313497,-4.14449,-1.0,0.0,0.0,,,,3.0,,,4131.45860006648,-7040.29840000603,4131.4586,-7040.2984,,,,,-0.0,-0.0,0.157504,,1.0,1.5752,1618057008.84091,
1618075012.22577,-4.99408370885023e+18,-8.997037180004657e+18,1618057012.22577,,0.00872665,-0.102974,1.78373,0.0,9.99325e-14,0.0,,9.99325e-15,,,,,420.578,1.23886,,,,,,0.0,-0.129008,-4.00463,0.0,0.0,0.0,0.0,-0.129008,-4.00463,-1.0,0.0,0.0,,,,3.0,,,4131.45870006648,-7040.29830000603,4131.4587,-7040.2983,,,,,-0.0,-0.0,0.157504,,1.0,2.06094,1618057012.83456,
1618075016.70786,-4.99408370885023e+18,-8.997037180004657e+18,1618057016.70786,,0.00872665,-0.102974,1.78373,0.0,,,,,,,,,420.333,1.23886,,,,,,0.0,-0.447256,-4.10637,0.0,0.0,0.0,0.0,-0.447256,-4.10637,-1.0,0.0,0.0,,,,3.0,,,4131.45860006648,-7040.29850000603,4131.4586,-7040.2985,,,,,-0.0,-0.0,0.157504,,1.0,2.53912,1618057016.83997,
1618075021.18347,-4.99408370885023e+18,-8.997037180004657e+18,1618057021.18347,,0.00872665,-0.102974,1.78373,0.0,,,,,,,,,420.632,1.23886,,,,,,0.0,-0.262767,-3.96651,0.0,0.0,0.0,0.0,-0.262767,-3.96651,-1.0,0.0,0.0,,,,3.0,,,4131.45870006648,-7040.29840000603,4131.4587,-7040.2984,,,,,-0.0,-0.0,0.158752,,1.0,3.10727,1618057020.83264,
1618075025.74683,-4.99408370885023e+18,-8.997037180004657e+18,1618057025.74683,,0.00872665,-0.102974,1.78373,0.0,0.027476,0.00199927,,0.0027476,,,,,420.551,1.23886,,,,,,0.0,,,0.0,0.0,,7.0,,,-1.0,0.0,0.0,,,,-1.0,,,,,,,,,,,,,0.158752,,1.0,3.57306,1618057024.84457,
1618075030.16281,-4.99408370885023e+18,-8.997037180004657e+18,1618057030.16281,,0.00872665,-0.102974,1.78373,0.0,,,,,,,,,420.632,1.23886,,,,,,0.0,-0.212037,-3.78852,0.0,0.0,0.0,7.0,-0.212037,-3.78852,-1.0,0.0,0.0,,,,3.0,,,4131.45880006648,-7040.29840000603,4131.4588,-7040.2984,,,,,-0.0,-0.0,0.158752,,1.0,-0.0141602,1618057032.84671,
1618075034.64795,-4.99408370885023e+18,-8.997037180004657e+18,1618057034.64795,,0.00872665,-0.102974,1.78373,0.0,,,,,,16.1182,,,420.469,1.23886,,,,,,0.0,-0.345796,-3.75039,0.0,0.0,0.0,7.0,-0.345796,-3.75039,-1.0,0.0,0.0,,,,3.0,,,4131.45880006648,-7040.29850000603,4131.4588,-7040.2985,,,,,-0.0321907,-0.203244,0.16,,1.0,0.481689,1618057036.83365,
1618077102.44116,4.295464888087264e+18,6.215171133023038e+18,1618059102.44116,0.0,-0.0349066,-0.0122173,3.96888,0.0,0.0271012,0.000406236,-1.0,0.00271012,0.0,16.1115,9.25249,0.0,420.062,1.23886,0.0,0.0,0.0,0.0,0.0,0.0,0.0,0.0,0.0,0.0,1.0,1.0,0.0,0.0,-1.0,0.0,0.0,0.0,0.0,0.0,-1.0,0.0,0.0,4131.4615,-7040.299,69696969.0,69696969.0,0.0,0.0,0.0,0.0,0.0,0.0,0.01125,0.0,1.0,5.02496,1618059112.80853,8.2
1618077120.01831,4.295464888087264e+18,6.215171133023038e+18,1618059120.01831,,-0.0349066,-0.0122173,3.96888,-0.00289484,,,,,,,,,420.116,1.23886,,,,,,0.0,0.0,0.0,0.0,0.0,0.0,7.0,0.0,0.0,-1.0,0.0,0.0,,,,3.0,,,4131.45780006648,-7040.31270000603,4131.4578,-7040.3127,,,,,0.0,0.0,0.01125,,1.0,1.87466,1618059120.81302,
1618077124.59409,4.295464888087264e+18,6.215171133023038e+18,1618059124.59409,,-0.0349066,-0.0122173,3.96888,0.0,0.0,-0.00185105,,-3.74772e-05,,,,,420.116,1.23886,,,,,,0.0,0.0,0.0,0.0,0.0,0.0,0.0,0.0,0.0,-1.0,0.0,0.0,,,,3.0,0.0,0.0,4131.45780006648,-7040.31270000603,4131.4578,-7040.3127,4131.45780006648,-7040.31270000603,,,0.0,0.0,0.0125,,1.0,2.97009,1618059124.81973,
1618077129.6467,4.295464888087264e+18,6.215171133023038e+18,1618059129.6467,,-0.0349066,-0.0122173,3.96888,0.0,0.0,0.0,,-3.74772e-05,,,,,420.034,1.23886,,,,,,0.0,0.133759,-0.0381238,0.0,0.0,0.0,0.0,0.133759,-0.0381238,-1.0,0.0,0.0,,,,3.0,,,4131.45780006648,-7040.31260000603,4131.4578,-7040.3126,,,,,0.0,0.0,0.0125,,1.0,2.87714,1618059132.80978,
1618077137.52594,4.295464888087264e+18,6.215171133023038e+18,1618059137.52594,,-0.0349066,-0.0122173,3.96888,-0.00289484,0.0,0.0,,-3.74772e-05,,,,,420.143,1.23886,,,,,,0.0,0.133759,-0.0381238,0.0,0.0,0.0,7.0,0.133759,-0.0381238,-1.0,0.0,0.0,,,,3.0,0.0,0.0,4131.45780006648,-7040.31260000603,4131.4578,-7040.3126,4131.45780006648,-7040.31270000603,,,0.0,0.0,0.01375,,1.0,3.37622,1618059136.81894,
1618077142.01196,4.295464888087264e+18,6.215171133023038e+18,1618059142.01196,,-0.0349066,-0.0122173,3.96888,0.0,0.0271012,0.0075031,,0.00271012,,,,,420.007,1.23886,,,,,,0.0,0.318248,0.101741,0.0,0.0,0.0,0.0,0.318248,0.101741,-1.0,0.0,0.0,,,,3.0,,,4131.45790006648,-7040.31250000603,4131.4579,-7040.3125,,,,,0.0,0.0,0.01375,,1.0,3.8663,1618059140.81509,
1618077146.50339,4.295464888087264e+18,6.215171133023038e+18,1618059146.50339,,-0.0349066,-0.0122173,3.96888,-0.00289484,0.0271012,0.0,,0.00271012,,,,,420.17,1.23886,,,,,,0.0,0.184489,0.139865,0.0,0.0,0.0,0.0,0.184489,0.139865,-1.0,0.0,0.0,,,,3.0,0.0,0.0,4131.45790006648,-7040.31260000603,4131.4579,-7040.3126,4131.45780006648,-7040.31270000603,,,0.0,0.0,0.01375,,1.0,0.350189,1618059148.82068,
1618077150.98734,4.295464888087264e+18,6.215171133023038e+18,1618059150.98734,,-0.0349066,-0.0122173,3.96888,-0.00289484,0.0,-0.00705393,,-3.74772e-05,,,,,420.062,1.23886,,,,,,0.0,,,0.0,0.0,,7.0,,,-1.0,0.0,0.0,,,,-1.0,,,,,,,,,,,,,0.01375,,1.0,0.838562,1618059152.81863,
1618077155.39743,4.295464888087264e+18,6.215171133023038e+18,1618059155.39743,,-0.0349066,-0.0122173,3.96888,-0.00289484,0.0,0.0,,-3.74772e-05,,,,,419.98,1.23886,,,,,,0.0,-0.0322989,0.394101,0.0,0.0,0.0,0.0,-0.0322989,0.394101,-1.0,0.0,0.0,,,,3.0,0.0,0.0,4131.45800006648,-7040.31280000603,4131.458,-7040.3128,4131.45780006648,-7040.31270000603,,,0.0,0.0,0.015,,1.0,1.24539,1618059156.81985,
1618077159.94141,4.295464888087264e+18,6.215171133023038e+18,1618059159.94141,,-0.0349066,-0.0122173,3.96888,0.0,0.0,0.0,,-3.74772e-05,,,,,420.034,1.23886,,,,,,0.0,,,0.0,0.0,,7.0,,,-1.0,0.0,0.0,,,,-1.0,,,,,,,,,,,,,0.015,,1.0,1.77841,1618059160.83151,
1618077164.36591,4.295464888087264e+18,6.215171133023038e+18,1618059164.36591,,-0.0349066,-0.0122173,3.96888,-0.00289484,0.0,0.0,,-3.74772e-05,,,,,420.225,1.23886,,,,,,0.0,-0.216788,0.254236,0.0,0.0,0.0,0.0,-0.216788,0.254236,-1.0,0.0,0.0,,,,3.0,0.0,0.0,4131.45790006648,-7040.31290000603,4131.4579,-7040.3129,4131.45780006648,-7040.31270000603,,,0.0,0.0,0.015,,1.0,2.21741,1618059164.8183,
1618077168.87521,4.295464888087264e+18,6.215171133023038e+18,1618059168.87521,,-0.0349066,-0.0122173,3.96888,0.0,0.0,0.0,,-3.74772e-05,,,8.68676,,420.034,1.23886,,,,,,0.0,-0.401277,0.114371,0.0,0.0,0.0,7.0,-0.401277,0.114371,-1.0,0.0,0.0,,,,3.0,,,4131.45780006648,-7040.31300000603,4131.4578,-7040.313,,,,,0.0,0.0,0.015,,1.0,2.73105,1618059168.81238,
1618077173.38336,4.295464888087264e+18,6.215171133023038e+18,1618059173.38336,,-0.0349066,-0.0122173,3.96888,0.0,0.0545772,0.010643,,0.00545772,,16.1127,,,420.089,1.24052,,,,,,0.0,-0.535036,0.152495,0.0,0.0,0.0,0.0,-0.535036,0.152495,-1.0,0.0,0.0,,,,3.0,0.0,0.0,4131.45780006648,-7040.31310000603,4131.4578,-7040.3131,4131.45780006648,-7040.31270000603,,,0.0,0.0,0.015,,1.0,3.26285,1618059172.81876,
1618077177.91714,4.295464888087264e+18,6.215171133023038e+18,1618059177.91714,,-0.0349066,-0.0122173,3.96888,-0.00289484,0.0,-0.0140301,,-3.74772e-05,,,,,420.007,1.23886,,,,,,0.0,-0.401277,0.114371,0.0,0.0,0.0,7.0,-0.401277,0.114371,-1.0,0.0,0.0,,,,3.0,,,4131.45780006648,-7040.31300000603,4131.4578,-7040.313,,,,,0.0,0.0,0.015,,1.0,3.77808,1618059176.80869,
1618077182.41501,4.295464888087264e+18,6.215171133023038e+18,1618059182.41501,,-0.0349066,-0.0122173,3.96888,-0.00289484,0.0271012,0.0052593,,0.00271012,,,,,420.089,1.24052,,,,,,0.0,-0.484306,0.330484,0.0,0.0,0.0,0.0,-0.484306,0.330484,-1.0,0.0,0.0,,,,3.0,0.0,0.0,4131.45790006648,-7040.31310000603,4131.4579,-7040.3131,4131.45780006648,-7040.31270000603,,,0.0,0.0,0.01625,,1.0,4.30261,1618059180.82236,
1618077186.95163,4.295464888087264e+18,6.215171133023038e+18,1618059186.95163,,-0.0349066,-0.0122173,3.96888,0.0,0.0,-0.00717342,,-3.74772e-05,,,,,420.062,1.23886,,,,,,0.0,-0.484306,0.330484,0.0,0.0,0.0,0.0,-0.484306,0.330484,-1.0,0.0,0.0,,,,3.0,,,4131.45790006648,-7040.31310000603,4131.4579,-7040.3131,,,,,0.0,0.0,0.01625,,1.0,0.809662,1618059188.8136,
1618077475.20181,8.452936778268353e+18,4.232306419222845e+18,1618059475.20181,0.0,-0.0383972,-0.00523599,3.95841,-0.00289484,0.109529,0.00164723,-1.0,0.0109529,0.0,16.0362,7.58079,0.0,317.674,-0.652118,0.0,0.0,0.0,0.0,,0.0,0.364415,-1.25855,0.0,0.0,0.0,0.0,0.364415,-1.25855,-1.0,0.0,0.0,0.0,0.0,0.0,3.0,0.0,0.0,4131.45760006648,-7040.31260000603,4131.4576,-7040.3126,4131.45780006648,-7040.31270000603,0.0,0.0,0.0,0.0,0.08125,0.0,1.0,7.82642,1618059480.81277,8.2
1618077491.18521,8.452936778268353e+18,4.232306419222845e+18,1618059491.18521,,-0.0383972,-0.00523599,3.95841,-0.00578968,,,,,,,,,355.506,0.910642,,,,,,0.0,0.313685,-1.43654,0.0,0.0,0.0,0.0,0.313685,-1.43654,-1.0,0.0,0.0,,,,3.0,,,4131.45750006648,-7040.31260000603,4131.4575,-7040.3126,,,,,0.0,0.0,0.08625,,1.0,5.03497,1618059488.81931,
1618077495.72852,8.452936778268353e+18,4.232306419222845e+18,1618059495.72852,,-0.0383972,-0.00523599,3.95841,-0.00578968,,,,,,,,,381.904,1.19887,,,,,,0.0,,,0.0,0.0,,7.0,,,-1.0,0.0,0.0,,,,-1.0,,,,,,,,,,,,,0.08875,,1.0,1.57626,1618059496.82138,
1618077499.97952,8.452936778268353e+18,4.232306419222845e+18,1618059499.97952,,-0.0383972,-0.00523599,3.95841,-0.00289484,0.0,-0.00777078,,-3.74772e-05,,,,,406.673,1.1972,,,,,,0.0,0.396714,-1.65265,0.0,0.0,0.0,7.0,0.396714,-1.65265,-1.0,0.0,0.0,,,,3.0,,,4131.45740006648,-7040.31250000603,4131.4574,-7040.3125,,,,,0.0,0.0,0.09125,,1.0,1.83536,1618059500.8118,
1618077504.41602,8.452936778268353e+18,4.232306419222845e+18,1618059504.41602,,-0.0383972,-0.00523599,3.95841,-0.00578968,,,,,,,,,,1.1972,,,,,,0.0,0.345983,-1.83064,0.0,0.0,0.0,7.0,0.345983,-1.83064,-1.0,0.0,0.0,,,,3.0,,,4131.45730006648,-7040.31250000603,4131.4573,-7040.3125,,,,,0.0,0.0,0.09375,,1.0,2.23383,1618059504.85339,
1618077508.75229,8.452936778268353e+18,4.232306419222845e+18,1618059508.75229,,-0.0383972,-0.00523599,3.95841,-0.00578968,,,,,,,,,,1.1972,,,,,,0.0,0.479742,-1.86876,0.0,0.0,0.0,7.0,0.479742,-1.86876,-1.0,0.0,0.0,,,,3.0,,,4131.45730006648,-7040.31240000603,4131.4573,-7040.3124,,,,,0.0,0.0,0.095,,1.0,2.59207,1618059508.82834,
1618077513.24417,8.452936778268353e+18,4.232306419222845e+18,1618059513.24417,,-0.0383972,-0.00523599,3.95841,-0.00578968,0.0,0.0,,-3.74772e-05,,,,,,1.1972,,,,,,0.0,0.530473,-1.69078,0.0,0.0,0.0,7.0,0.530473,-1.69078,-1.0,0.0,0.0,,,,3.0,,,4131.45740006648,-7040.31240000603,4131.4574,-7040.3124,,,,,0.0,0.0,0.09625,,1.0,3.1037,1618059512.80948,
1618077517.72919,8.452936778268353e+18,4.232306419222845e+18,1618059517.72919,,-0.0383972,-0.00523599,3.95841,-0.00578968,,,,,,,,,420.822,1.1972,,,,,,0.0,0.479742,-1.86876,0.0,0.0,0.0,0.0,0.479742,-1.86876,-1.0,0.0,0.0,,,,3.0,,,4131.45730006648,-7040.31240000603,4131.4573,-7040.3124,,,,,0.0,0.0,0.09625,,1.0,3.58969,1618059516.80832,
1618077522.20184,8.452936778268353e+18,4.232306419222845e+18,1618059522.20184,,-0.0383972,-0.00523599,3.95841,-0.00578968,,,,,,,,,420.795,1.1972,,,,,,0.0,0.613501,-1.90689,0.0,0.0,0.0,0.0,0.613501,-1.90689,-1.0,0.0,0.0,,,,3.0,,,4131.45730006648,-7040.31230000603,4131.4573,-7040.3123,,,,,0.0,0.0,0.09625,,1.0,0.0541992,1618059524.81689,
1618077526.67023,8.452936778268353e+18,4.232306419222845e+18,1618059526.67023,,-0.0383972,-0.00523599,3.95841,-0.00289484,0.0,0.0,,-3.74772e-05,,,,,420.985,1.1972,,,,,,0.0,0.613501,-1.90689,0.0,0.0,0.0,0.0,0.613501,-1.90689,-1.0,0.0,0.0,,,,3.0,,,4131.45730006648,-7040.31230000603,4131.4573,-7040.3123,,,,,0.0,0.0,0.09625,,1.0,0.52832,1618059528.81256,
1618077531.14688,8.452936778268353e+18,4.232306419222845e+18,1618059531.14688,,-0.0383972,-0.00523599,3.95841,-0.00289484,,,,,,,,,420.822,1.1972,,,,,,0.0,0.378282,-2.22474,0.0,0.0,0.0,0.0,0.378282,-2.22474,-1.0,0.0,0.0,,,,3.0,,,4131.45710006648,-7040.31240000603,4131.4571,-7040.3124,,,,,0.0,0.0,0.0975,,1.0,1.0495,1618059532.80963,
1618077535.66342,8.452936778268353e+18,4.232306419222845e+18,1618059535.66342,,-0.0383972,-0.00523599,3.95841,-0.00289484,,,,,,,,,420.686,1.1972,,,,,,0.0,,,0.0,0.0,,7.0,,,-1.0,0.0,0.0,,,,-1.0,,,,,,,,,,,,,0.0975,,1.0,1.51715,1618059536.81812,
1618077539.89182,8.452936778268353e+18,4.232306419222845e+18,1618059539.89182,,-0.0383972,-0.00523599,3.95841,-0.00578968,0.0271012,0.00201451,,0.00271012,,,,,420.741,1.1972,,,,,,0.0,0.378282,-2.22474,0.0,0.0,0.0,7.0,0.378282,-2.22474,-1.0,0.0,0.0,,,,3.0,,,4131.45710006648,-7040.31240000603,4131.4571,-7040.3124,,,,,0.0,0.0,0.0975,,1.0,1.74893,1618059540.81216,
1618077544.392,8.452936778268353e+18,4.232306419222845e+18,1618059544.392,,-0.0383972,-0.00523599,3.95841,-0.00578968,,,,,,,,,420.659,1.1972,,,,,,0.0,0.562771,-2.08488,0.0,0.0,0.0,7.0,0.562771,-2.08488,-1.0,0.0,0.0,,,,3.0,,,4131.45720006648,-7040.31230000603,4131.4572,-7040.3123,,,,,0.0,0.0,0.09875,,1.0,2.2402,1618059544.81967,
1618077548.88583,8.452936778268353e+18,4.232306419222845e+18,1618059548.88583,,-0.0383972,-0.00523599,3.95841,-0.00578968,,,,,,16.0417,,,420.741,1.1972,,,,,,0.0,0.530473,-1.69078,0.0,0.0,0.0,7.0,0.530473,-1.69078,-1.0,0.0,0.0,,,,3.0,,,4131.45740006648,-7040.31240000603,4131.4574,-7040.3124,,,,,0.0,0.0,0.09875,,1.0,2.74527,1618059548.80881,
1618078492.99036,7.659340548093384e+18,8.92818309526863e+18,1618060492.99036,0.0,-0.0383972,-0.00523599,3.95841,0.0694762,0.274385,0.00323389,-1.0,0.0274385,0.0,16.1406,9.41312,0.0,420.659,1.19387,0.0,0.0,0.0,0.0,,0.0,0.654975,0.775534,0.0,0.0,0.0,0.0,0.654975,0.775534,-1.0,0.0,0.0,0.0,0.0,0.0,3.0,0.0,0.0,4131.45480006647,-7040.62230000613,4131.4548,-7040.6223,4131.45780006648,-7040.31270000603,0.0,0.0,-0.0,-0.0,0.13375,0.0,1.0,1.33368,1618060504.82266,8.2
1618078508.38425,7.659340548093384e+18,8.92818309526863e+18,1618060508.38425,,-0.0383972,-0.00523599,3.95841,-0.00289484,0.0820531,-0.0285274,,0.00820531,,,,,420.551,1.19554,,,,,3.84291,0.0,0.604234,0.597548,0.0,0.0,0.0,0.0,0.604234,0.597548,-1.0,0.0,0.0,,,,3.0,0.0,0.0,4131.45470006647,-7040.62230000613,4131.4547,-7040.6223,4131.45430006647,-7040.62260000613,,,-0.0,-0.0,0.134998,,1.0,2.87766,1618060508.8215,
1618078513.79984,7.659340548093384e+18,8.92818309526863e+18,1618060513.79984,,-0.0383972,-0.00523599,3.95841,-0.0231587,0.109529,0.00286178,,0.0109529,,,,,,-0.0206832,,,,,,0.0,0.63651,0.203444,0.0,0.0,0.0,0.0,0.63651,0.203444,-1.0,0.0,0.0,,,,3.0,,,4131.45450006647,-7040.62220000613,4131.4545,-7040.6222,,,,,-0.0,-0.0,0.13625,,1.0,4.4801,1618060516.81879,
1618078523.07401,7.659340548093384e+18,8.92818309526863e+18,1618060523.07401,,-0.0383972,-0.00523599,3.95841,0.0,0.137005,0.0064543,,0.0137005,,,,,420.605,-0.0190171,,,,,,0.0,0.954765,0.305167,0.0,0.0,0.0,7.0,0.954765,0.305167,-1.0,0.0,0.0,,,,3.0,0.0,0.0,4131.45460006647,-7040.62200000613,4131.4546,-7040.622,4131.45430006647,-7040.62260000613,,,-0.0,-0.0,0.13625,,1.0,0.931091,1618060524.81259,
1618078527.40698,7.659340548093384e+18,8.92818309526863e+18,1618060527.40698,,-0.0383972,-0.00523599,3.95841,0.0,0.0820531,-0.0157817,,0.00820531,,,,,420.551,0.222561,,,,,,0.0,1.27302,0.406889,0.0,0.0,0.0,0.0,1.27302,0.406889,-1.0,0.0,0.0,,,,3.0,,,4131.45470006647,-7040.62180000613,4131.4547,-7040.6218,,,,,-0.0,-0.0,0.13625,,1.0,1.25525,1618060528.82065,
1618078531.92288,7.659340548093384e+18,8.92818309526863e+18,1618060531.92288,,-0.0383972,-0.00523599,3.95841,0.0318433,0.0545772,-0.00508908,,0.00545772,,,,,420.686,1.22386,,,,,,0.0,,,0.0,0.0,,,,,-1.0,0.0,0.0,,,,-1.0,0.0,0.0,,,,,4131.45430006647,-7040.62260000613,,,,,0.137498,,1.0,2.65466,1618060532.81128,
1618078537.06476,7.659340548093384e+18,8.92818309526863e+18,1618060537.06476,,-0.0383972,-0.00523599,3.95841,0.0,0.0271012,-0.00634256,,0.00271012,,,,,420.578,1.22219,,,,,,0.0,1.59127,0.508611,0.0,0.0,0.0,0.0,1.59127,0.508611,-1.0,0.0,0.0,,,,3.0,,,4131.45480006647,-7040.62160000613,4131.4548,-7040.6216,,,,,-0.0,-0.0,0.137498,,1.0,2.92581,1618060536.80719,
1618078541.3999,7.659340548093384e+18,8.92818309526863e+18,1618060541.3999,,-0.0383972,-0.00523599,3.95841,0.0,0.0820531,0.0127825,,0.00820531,,,,,420.605,1.22386,,,,,,0.0,1.59127,0.508611,0.0,0.0,0.0,0.0,1.59127,0.508611,-1.0,0.0,0.0,,,,3.0,,,4131.45480006647,-7040.62160000613,4131.4548,-7040.6216,,,,,-0.0,-0.0,0.137498,,1.0,3.24854,1618060540.81876,
1618078545.72305,7.659340548093384e+18,8.92818309526863e+18,1618060545.72305,,-0.0383972,-0.00523599,3.95841,0.0,0.0271012,-0.0114055,,0.00271012,,,,,420.659,1.22219,,,,,,0.0,1.67429,0.292493,0.0,0.0,0.0,0.0,1.67429,0.292493,-1.0,0.0,0.0,,,,3.0,0.0,0.0,4131.45470006647,-7040.62150000613,4131.4547,-7040.6215,4131.45430006647,-7040.62260000613,,,-0.0,-0.0,0.137498,,1.0,3.58484,1618060544.80807,
1618078550.09003,7.659340548093384e+18,8.92818309526863e+18,1618060550.09003,,-0.0383972,-0.00523599,3.95841,0.0,0.0545772,0.00665761,,0.00545772,,,,,420.632,1.22386,,,,,,0.0,,,0.0,0.0,,7.0,,,-1.0,0.0,0.0,,,,-1.0,,,,,,,,,,,,,0.137498,,1.0,-0.0576172,1618060552.819,
1618078554.20862,7.659340548093384e+18,8.92818309526863e+18,1618060554.20862,,-0.0383972,-0.00523599,3.95841,0.0231587,0.0271012,-0.00572416,,0.00271012,,,,,420.523,1.22386,,,,,,0.0,1.35604,0.190771,0.0,0.0,0.0,7.0,1.35604,0.190771,-1.0,0.0,0.0,,,,3.0,0.0,0.0,4131.45460006647,-7040.62170000613,4131.4546,-7040.6217,4131.45430006647,-7040.62260000613,,,-0.0,-0.0,0.13875,,1.0,0.0649414,1618060556.81403,
1618078558.56122,7.659340548093384e+18,8.92818309526863e+18,1618060558.56122,,-0.0383972,-0.00523599,3.95841,0.0144742,0.0545772,0.00740792,,0.00545772,,,8.69046,,420.632,1.22553,,,,,,0.0,0.98704,-0.0889371,0.0,0.0,0.0,7.0,0.98704,-0.0889371,-1.0,0.0,0.0,,,,3.0,,,4131.45440006647,-7040.62190000613,4131.4544,-7040.6219,,,,,-0.0,-0.0,0.13875,,1.0,0.39505,1618060560.83551,
1618078562.90475,7.659340548093384e+18,8.92818309526863e+18,1618060562.90475,,-0.0383972,-0.00523599,3.95841,0.0173691,0.0271012,-0.00560277,,0.00271012,,,,,420.659,1.22553,,,,,,0.0,1.07006,-0.305055,0.0,0.0,0.0,7.0,1.07006,-0.305055,-1.0,0.0,0.0,,,,3.0,0.0,0.0,4131.45430006647,-7040.62180000613,4131.4543,-7040.6218,4131.45430006647,-7040.62260000613,,,-0.0,-0.0,0.13875,,1.0,0.749146,1618060564.8241,
1618078567.23474,7.659340548093384e+18,8.92818309526863e+18,1618060567.23474,,-0.020944,-0.0279253,3.81703,0.0144742,0.0,-0.000558661,,-3.74772e-05,,,,,420.768,1.22719,,,,,,0.0,,,0.0,0.0,,,,,-1.0,0.0,0.0,,,,-1.0,,,,,,,,,,,,,0.14125,,1.0,17.1924,1618060596.819,
1618078616.24805,7.659340548093384e+18,8.92818309526863e+18,1618060616.24805,,-0.010472,-0.0767945,3.67217,0.0144742,0.109529,0.0179556,,0.0109529,,,,,420.469,-1.19858,,,,,,0.0,,,0.0,0.0,,,,,-1.0,0.0,0.0,,,,-1.0,,,,,,,,,,,,,0.14125,,1.0,4.34183,1618060624.81628,
1618078806.0,-5.55257184435706e+18,-2.498992271246762e+18,1618060806.0,0.0,-0.0401426,-0.0523599,3.75944,0.0144742,0.246909,0.00316084,-1.0,0.0246909,0.0,16.1326,9.42339,0.0,420.741,1.22886,0.0,0.0,0.0,0.0,3.84291,0.0,1.60974,1.0807,0.0,0.0,0.0,0.0,1.60974,1.0807,-1.0,0.0,0.0,0.0,0.0,0.0,3.0,0.0,0.0,4131.45940006647,-7040.61970000613,4131.4594,-7040.6197,4131.45430006647,-7040.62260000613,0.0,0.0,0.0,0.0,0.15125,0.0,1.0,4.01129,1618060816.80951,8.2
1618078823.13867,-5.55257184435706e+18,-2.498992271246762e+18,1618060823.13867,,-0.0401426,-0.0523599,3.75944,0.0144742,,,,,,,,,420.659,1.22886,,,,,,0.0,1.79424,1.22056,0.0,0.0,0.0,7.0,1.79424,1.22056,-1.0,0.0,0.0,,,,3.0,,,4131.45950006647,-7040.61960000613,4131.4595,-7040.6196,,,,,0.0,0.0,0.15125,,1.0,4.98901,1618060820.81702,
1618078827.6228,-5.55257184435706e+18,-2.498992271246762e+18,1618060827.6228,,-0.0401426,-0.0523599,3.75944,0.0144742,,,,,,,,,420.551,1.22886,,,,,,0.0,2.16323,1.50026,0.0,0.0,0.0,0.0,2.16323,1.50026,-1.0,0.0,0.0,,,,3.0,,,4131.45970006647,-7040.61940000613,4131.4597,-7040.6194,,,,,0.0,0.0,0.152502,,1.0,1.47342,1618060828.81906,
1618078832.1308,-5.55257184435706e+18,-2.498992271246762e+18,1618060832.1308,,-0.0401426,-0.0523599,3.75944,0.0144742,0.0,-0.0175436,,-3.74772e-05,,,,,420.523,1.22719,,,,,,0.0,2.48148,1.60199,0.0,0.0,0.0,0.0,2.48148,1.60199,-1.0,0.0,0.0,,,,3.0,,,4131.45980006647,-7040.61920000613,4131.4598,-7040.6192,,,,,0.0,0.0,0.152502,,1.0,1.98718,1618060832.81274,
1618078836.61584,-5.55257184435706e+18,-2.498992271246762e+18,1618060836.61584,,-0.0401426,-0.0523599,3.75944,0.0144742,,,,,,,,,420.686,1.22886,,,,,,0.0,2.85048,1.8817,0.0,0.0,0.0,0.0,2.85048,1.8817,-1.0,0.0,0.0,,,,3.0,,,4131.46000006647,-7040.61900000613,4131.46,-7040.619,,,,,0.0,0.0,0.152502,,1.0,2.47873,1618060836.80914,
1618078841.09274,-5.55257184435706e+18,-2.498992271246762e+18,1618060841.09274,,-0.0401426,-0.0523599,3.75944,0.0144742,,,,,,,,,420.551,1.22886,,,,,,0.0,,,0.0,0.0,,7.0,,,-1.0,0.0,0.0,,,,-1.0,,,,,,,,,,,,,0.152502,,1.0,2.94977,1618060840.81427,
1618078845.32507,-5.55257184435706e+18,-2.498992271246762e+18,1618060845.32507,,-0.0401426,-0.0523599,3.75944,0.0144742,0.0,0.0,,-3.74772e-05,,,,,420.605,1.22719,,,,,,0.0,3.03498,2.02155,0.0,0.0,0.0,7.0,3.03498,2.02155,-1.0,0.0,0.0,,,,3.0,,,4131.46010006647,-7040.61890000613,4131.4601,-7040.6189,,,,,0.0,0.0,0.152502,,1.0,3.02374,1618060844.97028,
1618078849.81189,-5.55257184435706e+18,-2.498992271246762e+18,1618060849.81189,,-0.0401426,-0.0523599,3.75944,0.0144742,,,,,,,,,420.605,1.22886,,,,,,0.0,3.40397,2.30126,0.0,0.0,0.0,7.0,3.40397,2.30126,-1.0,0.0,0.0,,,,3.0,,,4131.46030006647,-7040.61870000613,4131.4603,-7040.6187,,,,,0.0,0.0,0.15375,,1.0,3.6687,1618060848.81323,
1618078854.31094,-5.55257184435706e+18,-2.498992271246762e+18,1618060854.31094,,-0.0401426,-0.0523599,3.75944,0.0144742,,,,,,,,,420.605,1.22719,,,,,,0.0,3.90672,2.54283,0.0,0.0,0.0,7.0,3.90672,2.54283,-1.0,0.0,0.0,,,,3.0,,,4131.46050006647,-7040.61840000613,4131.4605,-7040.6184,,,,,0.0,0.0,0.15375,,1.0,0.164703,1618060856.81537,
1618078858.80054,-5.55257184435706e+18,-2.498992271246762e+18,1618060858.80054,,-0.0401426,-0.0523599,3.75944,0.0144742,0.0,0.0,,-3.74772e-05,,,,,420.632,1.22886,,,,,,0.0,4.27572,2.82254,0.0,0.0,0.0,7.0,4.27572,2.82254,-1.0,0.0,0.0,,,,3.0,,,4131.46070006647,-7040.61820000613,4131.4607,-7040.6182,,,,,0.0,0.0,0.15375,,1.0,0.630585,1618060860.83817,
1618078863.30209,-5.55257184435706e+18,-2.498992271246762e+18,1618060863.30209,,-0.0401426,-0.0523599,3.75944,0.0144742,,,,,,,,,420.578,1.22886,,,,,,0.0,4.64471,3.10225,0.0,0.0,0.0,7.0,4.64471,3.10225,-1.0,0.0,0.0,,,,3.0,,,4131.46090006647,-7040.61800000613,4131.4609,-7040.618,,,,,0.0,0.0,0.15375,,1.0,1.14685,1618060864.82526,
1618078867.78137,-5.55257184435706e+18,-2.498992271246762e+18,1618060867.78137,,-0.0401426,-0.0523599,3.75944,0.0144742,,,,,,,,,420.605,1.22886,,,,,,0.0,4.93069,3.59808,0.0,0.0,0.0,0.0,4.93069,3.59808,-1.0,0.0,0.0,,,,3.0,,,4131.46120006647,-7040.61790000613,4131.4612,-7040.6179,,,,,0.0,0.0,0.15375,,1.0,1.6322,1618060868.81787,
1618078872.25177,-5.55257184435706e+18,-2.498992271246762e+18,1618060872.25177,,-0.0331613,-0.0977384,3.70359,0.0144742,0.0271012,0.00146842,,0.00271012,,,,,420.578,-0.352228,,,,,,0.0,5.29969,3.87779,0.0,0.0,0.0,0.0,5.29969,3.87779,-1.0,0.0,0.0,,,,3.0,,,4131.46140006647,-7040.61770000613,4131.4614,-7040.6177,,,,,0.0,0.0,0.155002,,1.0,4.6369,1618060880.81342,
1618078887.32715,-5.55257184435706e+18,-2.498992271246762e+18,1618060887.32715,,0.0,-0.0942478,3.68614,0.0144742,0.0,-0.00212642,,-3.74772e-05,,,,,420.252,-1.20358,,,,,,0.0,,,0.0,0.0,,,,,-1.0,0.0,0.0,,,,-1.0,,,,,,,,,,,,,0.15625,,1.0,5.65747,1618060894.81451,
1618079156.52527,4.414533083588834e+18,-2.725077426894964e+18,1618061156.52527,0.0,-0.0453786,-0.0785398,3.68439,-0.00289484,0.384289,0.00474576,-1.0,0.0384289,0.0,16.123,9.42915,0.0,420.659,1.23219,0.0,0.0,0.0,0.0,3.84291,0.0,-0.0507406,-0.177986,0.0,0.0,0.0,0.0,-0.0507406,-0.177986,-1.0,0.0,0.0,0.0,0.0,0.0,3.0,0.0,0.0,4131.46270006647,-7040.61830000613,4131.4627,-7040.6183,4131.45430006647,-7040.62260000613,0.0,0.0,0.0,0.0,0.172498,0.0,1.0,2.16632,1618061168.85269,8.2
1618079173.33856,4.414533083588834e+18,-2.725077426894964e+18,1618061173.33856,,-0.0453786,-0.0785398,3.68439,-0.00289484,,,,,,,,,420.469,1.23219,,,,,,0.0,0.0,0.0,0.0,0.0,0.0,7.0,0.0,0.0,-1.0,0.0,0.0,,,,3.0,,,4131.46280006647,-7040.61830000613,4131.4628,-7040.6183,,,,,0.0,0.0,0.172498,,1.0,3.18445,1618061172.82458,
1618079177.82904,4.414533083588834e+18,-2.725077426894964e+18,1618061177.82904,,-0.0453786,-0.0785398,3.68439,-0.00289484,,,,,,,,,420.496,1.23219,,,,,,0.0,0.133757,-0.0381317,0.0,0.0,0.0,7.0,0.133757,-0.0381317,-1.0,0.0,0.0,,,,3.0,,,4131.46280006647,-7040.61820000613,4131.4628,-7040.6182,,,,,0.0,0.0,0.172498,,1.0,2.48264,1618061178.01373,
1618079182.33658,4.414533083588834e+18,-2.725077426894964e+18,1618061182.33658,,-0.0453786,-0.0785398,3.68439,-0.00289484,0.0271012,-0.0258326,,0.00271012,,,,,420.659,1.23219,,,,,,0.0,0.267514,-0.0762634,0.0,0.0,0.0,0.0,0.267514,-0.0762634,-1.0,0.0,0.0,,,,3.0,,,4131.46280006647,-7040.61810000613,4131.4628,-7040.6181,,,,,0.0,0.0,0.172498,,1.0,0.012207,1618061184.99634,
1618079186.8212,4.414533083588834e+18,-2.725077426894964e+18,1618061186.8212,,-0.0453786,-0.0785398,3.68439,-0.00289484,,,,,,,,,420.741,1.23219,,,,,,0.0,0.267514,-0.0762634,0.0,0.0,0.0,0.0,0.267514,-0.0762634,-1.0,0.0,0.0,,,,3.0,,,4131.46280006647,-7040.61810000613,4131.4628,-7040.6181,,,,,0.0,0.0,0.172498,,1.0,0.67746,1618061188.81302,
1618079191.28815,4.414533083588834e+18,-2.725077426894964e+18,1618061191.28815,,-0.0453786,-0.0785398,3.68439,-0.00289484,,,,,,,,,420.551,1.23386,,,,,,0.0,0.40127,-0.114395,0.0,0.0,0.0,0.0,0.40127,-0.114395,-1.0,0.0,0.0,,,,3.0,,,4131.46280006647,-7040.61800000613,4131.4628,-7040.618,,,,,0.0,0.0,0.17375,,1.0,1.13315,1618061192.82443,
1618079195.76077,4.414533083588834e+18,-2.725077426894964e+18,1618061195.76077,,-0.0453786,-0.0785398,3.68439,-0.00289484,0.0271012,0.0,,0.00271012,,,,,420.523,1.23219,,,,,,0.0,,,0.0,0.0,,7.0,,,-1.0,0.0,0.0,,,,-1.0,,,,,,,,,,,,,0.17375,,1.0,1.61505,1618061196.81448,
1618079200.16891,4.414533083588834e+18,-2.725077426894964e+18,1618061200.16891,,-0.0453786,-0.0785398,3.68439,-0.00289484,,,,,,,,,420.605,1.23219,,,,,,0.0,0.40127,-0.114395,0.0,0.0,0.0,7.0,0.40127,-0.114395,-1.0,0.0,0.0,,,,3.0,,,4131.46280006647,-7040.61800000613,4131.4628,-7040.618,,,,,0.0,0.0,0.17375,,1.0,2.00867,1618061200.83035,
1618079204.64816,4.414533083588834e+18,-2.725077426894964e+18,1618061204.64816,,-0.0453786,-0.0785398,3.68439,-0.00289484,,,,,,,,,420.659,1.23219,,,,,,0.0,0.40127,-0.114395,0.0,0.0,0.0,7.0,0.40127,-0.114395,-1.0,0.0,0.0,,,,3.0,,,4131.46280006647,-7040.61800000613,4131.4628,-7040.618,,,,,0.0,0.0,0.17375,,1.0,2.49646,1618061204.8204,
1618079209.13516,4.414533083588834e+18,-2.725077426894964e+18,1618061209.13516,,-0.0453786,-0.0785398,3.68439,-0.00289484,0.0271012,0.0,,0.00271012,,,,,420.496,1.23219,,,,,,0.0,0.535027,-0.152527,0.0,0.0,0.0,7.0,0.535027,-0.152527,-1.0,0.0,0.0,,,,3.0,,,4131.46280006647,-7040.61790000613,4131.4628,-7040.6179,,,,,0.0,0.0,0.17375,,1.0,2.98849,1618061208.81775,
1618079213.64044,4.414533083588834e+18,-2.725077426894964e+18,1618061213.64044,,-0.0453786,-0.0785398,3.68439,-0.00289484,,,,,,,,,420.686,1.23219,,,,,,0.0,0.585768,0.0254593,0.0,0.0,0.0,7.0,0.585768,0.0254593,-1.0,0.0,0.0,,,,3.0,,,4131.46290006647,-7040.61790000613,4131.4629,-7040.6179,,,,,0.0,0.0,0.175002,,1.0,3.48438,1618061212.82404,
1618079218.13412,4.414533083588834e+18,-2.725077426894964e+18,1618061218.13412,,-0.0453786,-0.0785398,3.68439,-0.00289484,,,,,,,,,420.605,1.23219,,,,,,0.0,0.452011,0.0635909,0.0,0.0,0.0,7.0,0.452011,0.0635909,-1.0,0.0,0.0,,,,3.0,,,4131.46290006647,-7040.61800000613,4131.4629,-7040.618,,,,,0.0,0.0,0.175002,,1.0,-0.0104065,1618061220.81357,
1618079222.60263,4.414533083588834e+18,-2.725077426894964e+18,1618061222.60263,,-0.0453786,-0.0785398,3.68439,-0.00289484,0.0,-0.00199479,,-3.74772e-05,,,,,420.496,1.23386,,,,,,0.0,0.452011,0.0635909,0.0,0.0,0.0,0.0,0.452011,0.0635909,-1.0,0.0,0.0,,,,3.0,,,4131.46290006647,-7040.61800000613,4131.4629,-7040.618,,,,,0.0,0.0,0.175002,,1.0,0.458496,1618061224.81204,
1618079227.08194,4.414533083588834e+18,-2.725077426894964e+18,1618061227.08194,,-0.0453786,-0.0785398,3.68439,-0.00289484,,,,,,,,,420.632,1.23219,,,,,,0.0,0.502752,0.241577,0.0,0.0,0.0,0.0,0.502752,0.241577,-1.0,0.0,0.0,,,,3.0,,,4131.46300006647,-7040.61800000613,4131.463,-7040.618,,,,,0.0,0.0,0.175002,,1.0,0.868805,1618061228.88135,
1618079231.54898,4.414533083588834e+18,-2.725077426894964e+18,1618061231.54898,,-0.0453786,-0.0785398,3.68439,-0.00289484,,,,,,16.1224,,,420.605,1.23219,,,,,,0.0,0.502752,0.241577,0.0,0.0,0.0,0.0,0.502752,0.241577,-1.0,0.0,0.0,,,,3.0,,,4131.46300006647,-7040.61800000613,4131.463,-7040.618,,,,,0.0,0.0,0.175002,,1.0,1.39755,1618061232.81909,
1618079369.99445,-9.642219683188035e+17,-2.2004213171624645e+18,1618061369.99445,0.0,-0.0314159,-0.0471239,5.42274,0.0,0.0,0.0,-1.0,-3.74772e-05,0.0,16.1342,9.4312,0.0,420.469,1.23219,0.0,0.0,0.0,0.0,3.84291,0.0,0.33672,0.673812,0.0,0.0,0.0,0.0,0.33672,0.673812,-1.0,0.0,0.0,0.0,0.0,0.0,3.0,0.0,0.0,4131.46230006647,-7040.62130000613,4131.4623,-7040.6213,4131.45430006647,-7040.62260000613,0.0,0.0,0.0,-0.0,0.18125,0.0,1.0,1.97327,1618061380.82092,8.2
1618079385.02316,-9.642219683188035e+17,-2.2004213171624645e+18,1618061385.02316,,-0.0349066,-0.0453786,5.36165,0.0,0.0,0.0,,-3.74772e-05,,16.1286,9.16128,,420.632,1.23219,,,,,,0.0,0.202963,0.711944,0.0,0.0,0.0,0.0,0.202963,0.711944,-1.0,0.0,0.0,,,,3.0,,,4131.46230006647,-7040.62140000613,4131.4623,-7040.6214,,,,,0.0,-0.0,0.18125,,1.0,3.81281,1618061384.81281,
1618079390.49728,-9.642219683188035e+17,-2.2004213171624645e+18,1618061390.49728,,-0.0139626,-0.0418879,5.22901,0.0,0.0,0.0,,-0.00278507,,16.1241,8.61774,,420.686,0.0976068,,,,,,0.0,0.202963,0.711944,0.0,0.0,0.0,0.0,0.202963,0.711944,-1.0,0.0,0.0,,,,3.0,,,4131.46230006647,-7040.62140000613,4131.4623,-7040.6214,,,,,0.0,-0.0,0.18125,,1.0,5.20776,1618061388.82092,
1618079395.73083,-9.642219683188035e+17,-2.2004213171624645e+18,1618061395.73083,,0.0191986,-0.0418879,5.09985,0.0,0.0,0.0,,-3.74772e-05,,16.1229,8.01381,,420.632,0.0976068,,,,,,0.0,0.33672,0.673812,0.0,0.0,0.0,0.0,0.33672,0.673812,-1.0,0.0,0.0,,,,3.0,,,4131.46230006647,-7040.62130000613,4131.4623,-7040.6213,,,,,0.0,-0.0,0.182502,,1.0,1.58728,1618061396.81165,
1618079400.17642,-9.642219683188035e+17,-2.2004213171624645e+18,1618061400.17642,,0.0628319,-0.0261799,4.98291,0.0665814,0.0,0.0,,-3.74772e-05,,16.1219,7.58983,,338.26,0.0976068,,,,,,0.0,0.470477,0.63568,0.0,0.0,0.0,7.0,0.470477,0.63568,-1.0,0.0,0.0,,,,3.0,,,4131.46230006647,-7040.62120000613,4131.4623,-7040.6212,,,,,0.0,-0.0,0.182502,,1.0,2.04636,1618061400.82172,
1618079404.63718,-9.642219683188035e+17,-2.2004213171624645e+18,1618061404.63718,,0.0977384,-0.020944,4.93928,-0.0578968,0.0545772,0.0119687,,0.00545772,,16.121,7.56189,,259.012,0.0976068,,,,,,0.0,0.788731,0.737403,0.0,0.0,0.0,7.0,0.788731,0.737403,-1.0,0.0,0.0,,,,3.0,,,4131.46240006647,-7040.62100000613,4131.4624,-7040.621,,,,,0.0,-0.0,0.182502,,1.0,2.48459,1618061404.81985,
1618079409.09296,-9.642219683188035e+17,-2.2004213171624645e+18,1618061409.09296,,0.0750492,-0.0488692,4.94103,0.0,0.0820531,0.00643164,,0.00820531,,16.1201,7.51794,,182.859,0.0976068,,,,,,0.0,0.922488,0.699271,0.0,0.0,0.0,7.0,0.922488,0.699271,-1.0,0.0,0.0,,,,3.0,,,4131.46240006647,-7040.62090000613,4131.4624,-7040.6209,,,,,0.0,-0.0,0.182502,,1.0,2.9375,1618061408.82471,
1618079413.5466,-9.642219683188035e+17,-2.2004213171624645e+18,1618061413.5466,,0.0837758,-0.0279253,4.88692,0.0492123,0.0271012,-0.0118764,,0.00271012,,16.1195,7.47356,,103.529,0.0976068,,,,,,0.0,0.839472,0.915389,0.0,0.0,0.0,7.0,0.839472,0.915389,-1.0,0.0,0.0,,,,3.0,,,4131.46250006647,-7040.62100000613,4131.4625,-7040.621,,,,,0.0,-0.0,0.182502,,1.0,3.40692,1618061412.80731,
1618079418.00302,-9.642219683188035e+17,-2.2004213171624645e+18,1618061418.00302,,0.0733038,-0.0349066,4.87121,0.0,0.0545772,0.00642262,,0.00545772,,16.1188,7.43002,,24.335,0.0976068,,,,,,0.0,0.839472,0.915389,0.0,0.0,0.0,7.0,0.839472,0.915389,-1.0,0.0,0.0,,,,3.0,,,4131.46250006647,-7040.62100000613,4131.4625,-7040.621,,,,,0.0,-0.0,0.18375,,1.0,3.8652,1618061416.8071,
1618079422.44012,-9.642219683188035e+17,-2.2004213171624645e+18,1618061422.44012,,0.0802851,-0.0331613,4.83282,-0.00289484,0.246909,0.0444903,,0.0246909,,16.1183,7.38154,,-55.1851,0.0976068,,,,,,0.0,0.890212,1.09337,0.0,0.0,0.0,0.0,0.890212,1.09337,-1.0,0.0,0.0,,,,3.0,,,4131.46260006647,-7040.62100000613,4131.4626,-7040.621,,,,,0.0,-0.0,0.18375,,1.0,0.297363,1618061424.8147,
