time,system_configuration,num_beams,num_bins,pings_per_ensemble,depth_bin_length,blanking_distance,low_correlation_threshold,percent_good_minimum,error_velocity_threshold,coordinate_transformation,heading_alignment,heading_bias,sensor_source,bin0_distance,transmit_pulse_length,ensemble_number,rtc_year,rtc_month,rtc_day,rtc_hour,rtc_minute,rtc_second,rtc_hundredths,bit_result,speed_of_sound,depth,heading,pitch,roll,salinity,temperature,min_ping_wait_minutes,min_ping_wait_seconds,min_ping_wait_hundredths,heading_standard_deviation,pitch_standard_deviation,roll_standard_deviation,adc_rounded_voltage,pressure,pressure_variance,rel_vel_pressure_u,rel_vel_pressure_v,rel_vel_pressure_w,rel_vel_dvl_u,rel_vel_dvl_v,rel_vel_dvl_w,ocn_vel_u,ocn_vel_v,ocn_vel_w,abs_vel_btm_u,abs_vel_btm_v,abs_vel_btm_w,delta_x,delta_y,delta_z,delta_t,delta_z_pressure,delta_pitch,rel_pos_x,rel_pos_y,rel_pos_z,rel_pos_x_dvl_dr,rel_pos_y_dvl_dr,rel_pos_z_dvl_dr,origin_x,origin_y,angle_of_attack,num_good_vel_bins,bathy_factor_depth,bathy_factor_slope,bathy_factor_orient,vel_bin0_beam0,vel_bin0_beam1,vel_bin0_beam2,vel_bin0_beam3,vel_bin1_beam0,vel_bin1_beam1,vel_bin1_beam2,vel_bin1_beam3,vel_bin2_beam0,vel_bin2_beam1,vel_bin2_beam2,vel_bin2_beam3,vel_bin3_beam0,vel_bin3_beam1,vel_bin3_beam2,vel_bin3_beam3,vel_bin4_beam0,vel_bin4_beam1,vel_bin4_beam2,vel_bin4_beam3,vel_bin5_beam0,vel_bin5_beam1,vel_bin5_beam2,vel_bin5_beam3,vel_bin6_beam0,vel_bin6_beam1,vel_bin6_beam2,vel_bin6_beam3,vel_bin7_beam0,vel_bin7_beam1,vel_bin7_beam2,vel_bin7_beam3,vel_bin8_beam0,vel_bin8_beam1,vel_bin8_beam2,vel_bin8_beam3,vel_bin9_beam0,vel_bin9_beam1,vel_bin9_beam2,vel_bin9_beam3,vel_bin10_beam0,vel_bin10_beam1,vel_bin10_beam2,vel_bin10_beam3,vel_bin11_beam0,vel_bin11_beam1,vel_bin11_beam2,vel_bin11_beam3,vel_bin12_beam0,vel_bin12_beam1,vel_bin12_beam2,vel_bin12_beam3,vel_bin13_beam0,vel_bin13_beam1,vel_bin13_beam2,vel_bin13_beam3,vel_bin14_beam0,vel_bin14_beam1,vel_bin14_beam2,vel_bin14_beam3,vel_bin15_beam0,vel_bin15_beam1,vel_bin15_beam2,vel_bin15_beam3,vel_bin16_beam0,vel_bin16_beam1,vel_bin16_beam2,vel_bin16_beam3,vel_bin17_beam0,vel_bin17_beam1,vel_bin17_beam2,vel_bin17_beam3,vel_bin18_beam0,vel_bin18_beam1,vel_bin18_beam2,vel_bin18_beam3,vel_bin19_beam0,vel_bin19_beam1,vel_bin19_beam2,vel_bin19_beam3,vel_bin20_beam0,vel_bin20_beam1,vel_bin20_beam2,vel_bin20_beam3,vel_bin21_beam0,vel_bin21_beam1,vel_bin21_beam2,vel_bin21_beam3,vel_bin22_beam0,vel_bin22_beam1,vel_bin22_beam2,vel_bin22_beam3,vel_bin23_beam0,vel_bin23_beam1,vel_bin23_beam2,vel_bin23_beam3,vel_bin24_beam0,vel_bin24_beam1,vel_bin24_beam2,vel_bin24_beam3,vel_bin25_beam0,vel_bin25_beam1,vel_bin25_beam2,vel_bin25_beam3,vel_bin26_beam0,vel_bin26_beam1,vel_bin26_beam2,vel_bin26_beam3,vel_bin27_beam0,vel_bin27_beam1,vel_bin27_beam2,vel_bin27_beam3,vel_bin28_beam0,vel_bin28_beam1,vel_bin28_beam2,vel_bin28_beam3,vel_bin29_beam0,vel_bin29_beam1,vel_bin29_beam2,vel_bin29_beam3,vel_bin30_beam0,vel_bin30_beam1,vel_bin30_beam2,vel_bin30_beam3,vel_bin31_beam0,vel_bin31_beam1,vel_bin31_beam2,vel_bin31_beam3,vel_bin32_beam0,vel_bin32_beam1,vel_bin32_beam2,vel_bin32_beam3,vel_bin33_beam0,vel_bin33_beam1,vel_bin33_beam2,vel_bin33_beam3,vel_bin34_beam0,vel_bin34_beam1,vel_bin34_beam2,vel_bin34_beam3,vel_bin35_beam0,vel_bin35_beam1,vel_bin35_beam2,vel_bin35_beam3,vel_bin36_beam0,vel_bin36_beam1,vel_bin36_beam2,vel_bin36_beam3,vel_bin37_beam0,vel_bin37_beam1,vel_bin37_beam2,vel_bin37_beam3,vel_bin38_beam0,vel_bin38_beam1,vel_bin38_beam2,vel_bin38_beam3,vel_bin39_beam0,vel_bin39_beam1,vel_bin39_beam2,vel_bin39_beam3,btm_pings_per_ensemble,btm_bottom_track_mode,btm_max_error_velocity,btm_beam0_range,btm_beam1_range,btm_beam2_range,btm_beam3_range,btm_beam0_velocity,btm_beam1_velocity,btm_beam2_velocity,btm_beam3_velocity,btm_beam0_rssi,btm_beam1_rssi,btm_beam2_rssi,btm_beam3_rssi
1618083747.000006,16971.0,4.0,40.0,10.0,2.0,0.0,64.0,0.0,2.0,31.0,0.0,0.0,130.0,2.94,2.04,1.0,21.0,4.0,10.0,15.0,42.0,27.0,6.0,0.0,1494.0,0.0,233.29,-1.3900000000000001,0.5,35.0,13.85,51.0,0.0,95.0,0.0,1.4000000000000001,0.5,15.0,0.0,0.0,0.0,0.0,0.0,0.0,0.0,0.0,0.0,0.0,0.0,0.0,0.0,0.0,0.0,0.0,0.0,0.0,0.0,0.0,0.0,0.0,0.0,0.0,0.0,0.0,0.0,0.0,0.0,9.0,0.0,0.0,0.0,-0.06012625562226938,-0.08407673658210243,-0.012997528632370144,-0.005,-0.0993951268110117,-0.08651416569199669,-0.028229557220059973,-0.038,-0.07185383079111905,-0.1068387919149395,-0.055013630518240556,-0.009000000000000001,-0.023691170970142214,-0.09946315341754748,-0.06455082904425709,-0.025,-0.07340246949113761,-0.05373918070340636,-0.07304230233179433,-0.02,-0.03753048201588188,0.0046740698119720585,-0.0922800953133902,-0.041,0.037878909715749316,0.0382162778629745,-0.08144755554985085,0.075,0.01192219821139612,0.002502907302974429,-0.08234437834388514,0.031,0.0824081837097759,0.05337398456299001,-0.10058881165182104,-0.06,,,,,,,,,-0.0994556450737155,-0.0447788310002297,-0.07164796547860935,,-0.05035101243291723,-0.012700811821803479,-0.0774562129596287,-0.066,-0.11386321627321938,-0.05906533013870925,-0.09484964288558684,0.063,0.11759260774640495,-0.055488499918811565,-0.09548824524599975,,,,,,,,,,,,,,,,,,,,,,,,,,,,,,,,,,,,,,,,,,,,,,,,,,,,,,,,,,,,,,,,,,,,,,,,,,,,,,,,,,,,,,,,,,,,,,,,,,,,,,5.0,8.0,1.0,12.91,13.64,13.06,13.46,-0.10813294857016735,-0.0018099699923194643,-0.043023126829049144,0.003,97.6,103.7,103.7,101.25999999999999
1618083750.00003,16971.0,4.0,40.0,10.0,2.0,0.0,64.0,0.0,2.0,31.0,0.0,0.0,130.0,2.94,2.04,2.0,21.0,4.0,10.0,15.0,42.0,30.0,30.0,0.0,1494.0,0.0,233.29,-1.3900000000000001,0.5,35.0,11.25,51.0,0.0,95.0,0.0,1.4000000000000001,0.5,15.0,0.0,0.0,,,,0.019699105010101067,0.08152128664731781,0.0030372825299688194,0.0,0.0,0.0,0.007535786202554393,-0.04861789752852993,-0.028662030043504504,0.0226075400714785,-0.1458548633180046,-0.0859867803201217,3.0000240802764893,0.0,0.0,0.0,0.0,0.0,0.0226075400714785,-0.1458548633180046,0.0,0.0,0.0,0.0,9.0,13.51303215769771,12.758040173334718,-63.033567192057,-0.03715010942406148,-0.07862063174730163,0.019070019230075473,-0.02,-0.07430322325324079,-0.07673480085425644,0.021326072119278384,-0.003,-0.019699105010101067,-0.08152128664731781,0.0030372825299688194,-0.049,0.0034456909485445636,-0.10015896831323207,-0.0027033831241782876,-0.014,-0.04838545307185493,-0.062270006788345475,-0.016949754736005268,-0.038,-0.0013887044597802357,0.05074497456033597,-0.051546280727073235,-0.023,-0.014464188752216185,0.06316258119389631,-0.017066797610117736,0.029,0.0670464907899205,-0.04218487416173973,-0.043199588710024654,-0.015,-0.05159302418538386,-0.00020524193869688595,0.018415149501239327,0.023,,,,,,,,,0.011790212039174772,0.06738708626168356,-0.06428819102472642,,-0.00778995564809155,-0.005571623553711408,-0.02655698781820888,-0.032,-0.014690891610757175,0.07724789196817962,-0.025038787713334603,0.032,,,,,,,,,,,,,,,,,,,,,,,,,,,,,,,,,,,,,,,,,,,,,,,,,,,,,,,,,,,,,,,,,,,,,,,,,,,,,,,,,,,,,,,,,,,,,,,,,,,,,,,,,5.0,8.0,1.0,13.0,13.44,12.97,13.36,-0.007535786202554393,0.04861789752852993,-0.028662030043504504,-0.001,102.48,106.14,106.14,93.33
1618083753.000054,16971.0,4.0,40.0,10.0,2.0,0.0,64.0,0.0,2.0,31.0,0.0,0.0,130.0,2.94,2.04,3.0,21.0,4.0,10.0,15.0,42.0,33.0,54.0,0.0,1494.0,0.0,233.29,-1.3900000000000001,0.5,35.0,11.25,51.0,0.0,95.0,0.0,1.4000000000000001,0.5,15.0,0.0,0.0,,,,0.0378870140845749,0.03140704934362766,-0.005492851288917288,0.0,0.0,0.0,0.009880890117437084,-0.03763232846652069,-0.05854208626855581,0.02964290593108946,-0.11289788262419019,-0.17562765455777002,3.00002384185791,0.0,0.0,0.0,0.0,0.0,0.05225044600256796,-0.2587527459421948,0.0,0.0,-0.1458548633180046,0.0,9.0,13.458745482160007,11.599010266942084,-53.66718824801343,-0.043070603827287696,-0.04879829420712023,0.0008059580808990607,0.013000000000000001,-0.0437537798212136,-0.04456205484174608,0.002414543360135999,0.018000000000000002,-0.0378870140845749,-0.03140704934362766,-0.005492851288917288,0.019,-0.021801822417948955,-0.05459787773504361,0.0008673442715827033,-0.032,-0.0426373883663763,-0.008203510543733418,-0.028209139087424374,-0.01,0.014517864912995712,0.058420956711897246,-0.048220570457374684,0.015,0.016413530477955872,0.00558010558410097,-0.028239306629581032,0.002,-0.056669151341233084,0.03799234539216892,0.010158197569773958,-0.016,0.03401743434669222,0.05430216281378395,-0.05831028446349567,0.016,,,,,,,,,-0.02565361405107648,0.06980179653918056,-0.05795344067457299,,0.0024522724505750687,0.0401176963510865,-0.04057778701839432,0.065,0.07835064975278143,0.002261461484854503,-0.00500614375237966,0.091,,,,,,,,,,,,,,,,,,,,,,,,,,,,,,,,,,,,,,,,,,,,,,,,,,,,,,,,,,,,,,,,,,,,,,,,,,,,,,,,,,,,,,,,,,,,,,,,,,,,,,,,,5.0,8.0,1.0,13.26,13.15,13.1,13.23,-0.009880890117437084,0.03763232846652069,-0.05854208626855581,-0.001,98.21,90.28,103.09,101.87
1618083756.00008,16971.0,4.0,40.0,10.0,2.0,0.0,64.0,0.0,2.0,31.0,0.0,0.0,130.0,2.94,2.04,4.0,21.0,4.0,10.0,15.0,42.0,36.0,80.0,0.0,1494.0,0.0,233.29,-1.3900000000000001,0.5,35.0,11.23,51.0,0.0,95.0,0.0,1.4000000000000001,0.5,15.0,0.0,0.0,,,,0.016612103092318857,0.10271076522755743,0.010418096621732383,0.0,0.0,0.0,0.009186297147036563,-0.009387196411846365,-0.03546114053794332,0.027559132361340118,-0.028161835424562423,-0.10638435161925139,3.000026226043701,0.0,0.0,0.0,0.0,0.0,0.07980957836390808,-0.2869145813667572,0.0,0.0,-0.2587527459421948,0.0,9.0,13.438502261438368,11.08099885024927,-60.36227113348229,-0.026101376919950528,-0.10332994299020448,0.014235203002548656,-0.049,-0.03404615794690119,-0.13754312047756434,0.023254013381540727,-0.014,-0.016612103092318857,-0.10271076522755743,0.010418096621732383,0.004,-0.006382857185870873,-0.11128547691110852,0.005639305171021328,0.002,-0.013901515296869043,-0.02790915928104988,-0.019437764806579577,-0.041,-0.0036892189497991037,0.0012491391854221403,-0.02101973631699233,-0.028,-0.03981825950302824,0.06466162315283641,-0.03426923841275252,-0.001,0.042515749587266366,0.0019106765515928617,-0.035464917202047065,-0.001,0.03217748113189931,0.018167150034094363,-0.04909749858847159,-0.01,,,,,,,,,-0.0656049487147378,-0.026214133446893717,0.021279330623049902,,0.027920474611685342,-5.929799164963896e-05,-0.0029057840949424617,0.017,0.022854083697573684,-0.01810880228146245,-0.0016619681931965764,-0.061,,,,,,,,,,,,,,,,,,,,,,,,,,,,,,,,,,,,,,,,,,,,,,,,,,,,,,,,,,,,,,,,,,,,,,,,,,,,,,,,,,,,,,,,,,,,,,,,,,,,,,,,,5.0,8.0,1.0,13.1,13.33,13.18,13.15,-0.009186297147036563,0.009387196411846365,-0.03546114053794332,0.0,95.77,100.03999999999999,101.25999999999999,93.94
1618083760.000011,16971.0,4.0,40.0,10.0,2.0,0.0,64.0,0.0,2.0,31.0,0.0,0.0,130.0,2.94,2.04,5.0,21.0,4.0,10.0,15.0,42.0,40.0,11.0,0.0,1494.0,0.0,233.29,-1.3900000000000001,0.5,35.0,11.25,51.0,0.0,95.0,0.0,1.4000000000000001,0.5,15.0,0.0,0.0,,,,0.057977325814317124,0.09425485020276739,0.040207622469805374,0.0,0.0,0.0,0.010867947994503128,-0.020335410082291408,0.017673675429118203,0.04347104055300412,-0.08134023431068822,0.07069347973402365,3.9999308586120605,0.0,0.0,0.0,0.0,0.0,0.1232806189169122,-0.3682548156774454,0.0,0.0,-0.2869145813667572,0.0,9.0,13.405729365962127,10.661357347790501,-54.72475654591877,0.025478362124372086,-0.07915201283929209,0.017228230522833864,-0.037,-0.09186998205273997,-0.09041175517495802,0.026260634489910773,0.025,-0.057977325814317124,-0.09425485020276739,0.040207622469805374,-0.025,-0.036167929370388464,-0.12239697347076817,0.039036672120643975,-0.002,-0.03812447916008012,-0.06811022344846299,0.030141691236111184,-0.052000000000000005,-0.007029672540423009,0.01197787471282422,-0.00033796647512559385,-0.016,-0.012730017389549802,0.07594696071060597,0.0034649409927780825,0.027,-0.003464981255858632,0.03890763882933758,-0.01068595085251526,-0.013000000000000001,-0.008916083344666398,0.01431692376895455,-0.005434073203859757,-0.016,,,,,,,,,0.020008389805791615,0.09851495871735669,-0.019684187722560472,,-0.005662179058351483,0.06450624713560242,-0.007542135559094048,0.054,-0.01650699015106271,-0.041412847961271045,0.04734443261767288,0.082,-0.022502728757133467,-0.1748835618468727,0.02205372971254338,,,,,,,,,,,,,,,,,,,,,,,,,,,,,,,,,,,,,,,,,,,,,,,,,,,,,,,,,,,,,,,,,,,,,,,,,,,,,,,,,,,,,,,,,,,,,,,,,,,,,,5.0,8.0,1.0,13.21,13.15,13.23,13.11,-0.010867947994503128,0.020335410082291408,0.017673675429118203,0.0,97.6,100.03999999999999,99.42999999999999,93.94
1618083763.000042,16971.0,4.0,40.0,10.0,2.0,0.0,64.0,0.0,2.0,31.0,0.0,0.0,130.0,2.94,2.04,6.0,21.0,4.0,10.0,15.0,42.0,43.0,42.0,0.0,1494.0,0.0,233.29,-1.3900000000000001,0.5,35.0,11.19,51.0,0.0,95.0,0.0,1.4000000000000001,0.5,15.0,0.0,0.0,,,,0.08691527153568598,0.12227820248466026,0.1371523852180428,0.0,0.0,0.0,-0.006033596194314886,-0.07070107655302893,0.09301050204792304,-0.018100975590730754,-0.21210542099761445,0.2790343889498953,3.000030994415283,0.0,0.0,0.0,0.0,0.0,0.10517964332618143,-0.5803602366750599,0.0,0.0,-0.3682548156774454,0.0,9.0,13.44225011139927,11.765528436855757,-42.35039110269121,-0.05445116628255579,-0.1081516830213328,0.0957093723212237,0.008,-0.0641480311935925,-0.10592565077735386,0.09816204256931474,0.017,-0.08691527153568598,-0.12227820248466026,0.1371523852180428,0.016,-0.0633222364808341,-0.11507295244116016,0.1207373595186669,-0.019,-0.1005832313647127,-0.04450450859563804,0.10059504104523966,-0.026000000000000002,-0.031921573192128544,0.04524320730639005,0.08674137050779515,0.0,-0.04354319323036213,-0.02322030278287323,0.08866119704794785,0.01,0.00377888453423611,0.05752855691071397,0.0695498754236674,0.034,-0.016158706272908305,-0.02618796207027843,0.09443032804238018,0.001,,,,,,,,,-0.07935611578364793,-0.001439594637134986,0.23553881729985188,,-0.0346042129195614,0.03297114366739448,0.10113581034174639,0.076,-0.12072672726683661,0.04840589963233193,0.07240114781012427,0.04,-0.35652752486103195,-0.20932372518975864,-0.05024641369439871,,,,,,,,,,,,,,,,,,,,,,,,,,,,,,,,,,,,,,,,,,,,,,,,,,,,,,,,,,,,,,,,,,,,,,,,,,,,,,,,,,,,,,,,,,,,,,,,,,,,,,5.0,8.0,1.0,13.56,12.84,13.1,13.22,0.006033596194314886,0.07070107655302893,0.09301050204792304,0.001,103.09,103.7,101.87,103.7
1618083766.000068,16971.0,4.0,40.0,10.0,2.0,0.0,64.0,0.0,2.0,31.0,0.0,0.0,130.0,2.94,2.04,7.0,21.0,4.0,10.0,15.0,42.0,46.0,68.0,0.0,1494.0,0.0,233.29,-1.3900000000000001,0.5,35.0,11.19,51.0,0.0,95.0,0.0,1.4000000000000001,0.5,15.0,0.0,0.0,,,,0.066501744007353,0.03651337063027031,0.18976114409751277,0.0,0.0,0.0,-0.025159568480947227,-0.11426889899560977,0.12378455007061126,-0.07547935928027559,-0.3428096665641395,0.37135686707831694,3.000025987625122,0.0,0.0,0.0,0.0,0.0,0.029700284045905842,-0.9231699032391993,0.0,0.0,-0.5803602366750599,0.0,9.0,13.33092484002244,10.555601180430346,-62.205817829109016,-0.08666831540778934,-0.08660276287307443,0.14774493076625672,0.015,-0.09154965514027394,-0.03302298688563175,0.1568762027231929,0.032,-0.066501744007353,-0.03651337063027031,0.18976114409751277,-0.017,-0.0850372822004708,-0.0764213967859916,0.20244117849201415,-0.038,-0.03971785110667553,-0.004165807707979176,0.1725199650753735,-0.018000000000000002,0.011113624060155564,0.06821723486277195,0.15082074203479753,-0.015,0.029111975345325586,0.06723341124234652,0.12624247028718452,-0.077,-0.019794557264459074,0.03333791655054381,0.08718806582768669,0.043000000000000003,-0.07851906322154448,0.07130639259427704,0.07415628824315529,0.14,,,,,,,,,-0.19102744469696314,-0.05975544160808197,0.33174056515712963,,-0.012189955746837202,0.045516979627564264,0.11802376686275545,0.14200000000000002,-0.05565560924426099,-0.0433389371051221,0.1364997790849802,-0.014,,,,,,,,,,,,,,,,,,,,,,,,,,,,,,,,,,,,,,,,,,,,,,,,,,,,,,,,,,,,,,,,,,,,,,,,,,,,,,,,,,,,,,,,,,,,,,,,,,,,,,,,,5.0,8.0,1.0,12.97,13.27,13.19,13.01,0.025159568480947227,0.11426889899560977,0.12378455007061126,0.0,96.99,102.48,101.87,99.42999999999999
1618083769.000093,16971.0,4.0,40.0,10.0,2.0,0.0,64.0,0.0,2.0,31.0,0.0,0.0,130.0,2.94,2.04,8.0,21.0,4.0,10.0,15.0,42.0,49.0,93.0,0.0,1494.0,0.0,233.29,-1.3900000000000001,0.5,35.0,11.19,51.0,0.0,95.0,0.0,1.4000000000000001,0.5,15.0,0.0,0.0,,,,0.03462494766993786,0.011044317169462,0.10389964416259756,0.0,0.0,0.0,-0.009407048954838397,-0.11452305542142854,0.03436534892739606,-0.028221382360115954,-0.3435720332288212,0.10309690708264264,3.0000250339508057,0.0,0.0,0.0,0.0,0.0,0.001478901685789888,-1.2667419364680206,0.0,0.0,-0.9231699032391993,0.0,9.0,13.387495724487117,12.474398195465136,-52.56446415161885,-0.031215375815403824,-0.039212811891878224,0.07322537604024493,-0.009000000000000001,-0.04804973656206632,0.020656345344266448,0.07750185941856125,-0.001,-0.03462494766993786,-0.011044317169462,0.10389964416259756,0.026000000000000002,0.0035267565317752027,-0.06567684771384882,0.09923766252153207,-0.003,0.019253625129666534,0.03039124942498577,0.06117736409616367,-0.033,0.004833486561796857,0.08380621652812553,0.08534140541904538,-0.04,-0.07988397076633388,0.06254300267798729,0.061220291004084444,0.026000000000000002,0.04338114563619104,0.08075809208441487,0.027680440136976715,-0.013000000000000001,0.05225383355602134,0.0013914048377980694,0.0601797380459318,-0.019,,,,,,,,,-0.04107301715603884,0.07236722902601044,0.10218606277177282,0.295,0.09597282320729375,0.14674278996959272,-0.035479160045885284,0.13,-0.025685774675599002,0.1544886530974699,-0.011810886649357187,-0.092,,,,,,,,,,,,,,,,,,,,,,,,,,,,,,,,,,,,,,,,,,,,,,,,,,,,,,,,,,,,,,,,,,,,,,,,,,,,,,,,,,,,,,,,,,,,,,,,,,,,,,,,,5.0,8.0,1.0,13.22,13.05,12.84,13.200000000000001,0.009407048954838397,0.11452305542142854,0.03436534892739606,0.0,99.42999999999999,100.03999999999999,105.53,95.16
1618083773.000019,16971.0,4.0,40.0,10.0,2.0,0.0,64.0,0.0,2.0,31.0,0.0,0.0,130.0,2.94,2.04,9.0,21.0,4.0,10.0,15.0,42.0,53.0,19.0,0.0,1494.0,0.0,233.29,-1.3900000000000001,0.5,35.0,11.19,51.0,0.0,95.0,0.0,1.4000000000000001,0.5,15.0,0.0,0.0,,,,0.05363684630576851,0.07027272932270351,0.06903500729274542,0.0,0.0,0.0,0.018027141542546962,-0.045453653335626024,0.033030100911891125,0.07210723378849158,-0.1818112538739167,0.13211796240074913,3.9999260902404785,0.0,0.0,0.0,0.0,0.0,0.07358613547428147,-1.4485531903419373,0.0,0.0,-1.2667419364680206,0.0,9.0,13.14300409958013,5.546870997482893,-58.83602492404991,-0.009658044360751,-0.0720341841866192,0.05940369085918809,0.019,-0.06681533908319927,-0.0696427678999284,0.051832377356569356,0.013000000000000001,-0.05363684630576851,-0.07027272932270351,0.06903500729274542,0.009000000000000001,-0.00960798011248027,-0.10125120528711136,0.06736378957619157,0.003,-0.06422501753465354,-0.03220259548457642,0.05255606498521541,-0.064,-0.020929694532404564,0.048508908817446565,0.05669950310294517,-0.005,-0.05554224811246622,0.0388152134257714,0.03955297563174051,0.0,0.0012421761332848218,0.02314576680333292,0.04587734165728906,-0.043000000000000003,-0.041335593919244226,0.10322365626368046,0.029516867430350452,-0.023,,,,,,,,,-0.04098081974983335,-0.04830967267503321,0.10484630627095462,0.123,-0.01773841296505474,0.0909232948203603,0.02592880954635255,-0.002,-0.03586453786594055,0.009574898533693553,0.037882136182269203,0.035,,,,,,,,,,,,,,,,,,,,,,,,,,,,,,,,,,,,,,,,,,,,,,,,,,,,,,,,,,,,,,,,,,,,,,,,,,,,,,,,,,,,,,,,,,,,,,,,,,,,,,,,,5.0,8.0,1.0,13.15,13.16,13.92,12.43,-0.018027141542546962,0.045453653335626024,0.033030100911891125,-0.001,99.42999999999999,104.31,107.97,93.33
1618083776.000045,16971.0,4.0,40.0,10.0,2.0,0.0,64.0,0.0,2.0,31.0,0.0,0.0,130.0,2.94,2.04,10.0,21.0,4.0,10.0,15.0,42.0,56.0,45.0,0.0,1494.0,0.0,233.29,-1.3900000000000001,0.5,35.0,11.19,51.0,0.0,95.0,0.0,1.4000000000000001,0.5,15.0,0.0,0.0,,,,0.06264235894319725,0.0652594340714686,0.04641272595639348,0.0,0.0,0.0,0.024554480358148455,-0.08058655251682291,-0.006315461012043799,0.07366407918707599,-0.24176175180358542,-0.01894654715996465,3.000025987625122,0.0,0.0,0.0,0.0,0.0,0.14725021466135746,-1.6903149421455228,0.0,0.0,-1.4485531903419373,0.0,9.0,13.165120929477904,6.747790604321061,-62.3694778967065,-0.006928523322343408,-0.08096410925932085,0.02937360339516587,-0.002,-0.026526719050022452,-0.05866450448039661,0.03195010313771619,0.007,-0.06264235894319725,-0.0652594340714686,0.04641272595639348,0.002,-0.0006501820777148476,-0.08275656450978212,0.030543874898317815,-0.025,-0.02209139318480116,0.0069318528029347,0.000959043207038657,0.004,0.016890796123213758,0.036427275156731234,-0.01602356486490501,0.035,-0.0241558870423772,0.011375060179894203,0.012004212889635822,0.033,0.006940421779838828,0.051209927021008,-0.010068461651164677,-0.004,-0.034926229464435896,0.048037601152535386,0.02339973014604016,0.02,,,,,,,,,0.012097807202456803,0.15683598410618962,-0.028055608179742206,,-0.019378527654600415,0.062191642785537266,0.030027857625478653,-0.005,0.00223511840392205,0.03015790995898498,0.02223746191961222,0.002,0.028887391094405898,0.16767908763724332,-0.031452220985178574,,,,,,,,,,,,,,,,,,,,,,,,,,,,,,,,,,,,,,,,,,,,,,,,,,,,,,,,,,,,,,,,,,,,,,,,,,,,,,,,,,,,,,,,,,,,,,,,,,,,,,5.0,8.0,1.0,13.040000000000001,13.19,13.73,12.55,-0.024554480358148455,0.08058655251682291,-0.006315461012043799,0.0,97.6,99.42999999999999,106.14,98.21
1618083779.000078,16971.0,4.0,40.0,10.0,2.0,0.0,64.0,0.0,2.0,31.0,0.0,0.0,130.0,2.94,2.04,11.0,21.0,4.0,10.0,15.0,42.0,59.0,78.0,0.0,1493.0,0.1,233.29,-1.3900000000000001,0.5,35.0,11.17,51.0,0.0,95.0,0.0,1.4000000000000001,0.5,15.0,0.0,0.0,-1.1012678271167498,-0.8211587745790311,0.033332967762188026,0.11335073673649601,0.11173541773200482,-0.019334086623059,0.0,0.0,0.0,0.07280265986422473,0.005072393563525512,-0.03248143377732437,0.2184103749286015,0.015217347581272054,-0.09744537002843891,3.000032901763916,0.1,0.0,0.0,0.0,0.0,0.36566058958995895,-1.6750975945642508,0.1,0.0,-1.6903149421455228,0.0,9.0,13.451437778848492,9.508948074632912,-61.31376031816093,-0.08177463934492504,-0.1158145544095949,-0.006992663792462665,0.012,-0.12674499687701396,-0.11528374867523396,-0.014434786386754238,0.001,-0.11335073673649601,-0.11173541773200482,-0.019334086623059,0.03,-0.06311318680300665,-0.0983039375297118,-0.029018296258107767,-0.006,-0.09531620334413039,-0.06618355934542351,-0.05827999530225776,-0.035,-0.05316058723068877,0.03193247558619983,-0.06750754749081826,-0.012,-0.07607669664721368,-0.009513674391355299,-0.05077229782886625,0.016,-0.01611223453209784,-0.02781193034098601,-0.026227703465816744,-0.025,-0.008552222439339813,0.022877399048939033,-0.055798603065880206,-0.129,,,,,,,,,-0.01801673113625049,0.09280279598259891,-0.09103866462649914,,-0.0695096268250929,0.03416351184291769,-0.056703317691252864,0.029,0.013920396034018838,0.10873850920593403,-0.0721952850948528,,,,,,,,,,,,,,,,,,,,,,,,,,,,,,,,,,,,,,,,,,,,,,,,,,,,,,,,,,,,,,,,,,,,,,,,,,,,,,,,,,,,,,,,,,,,,,,,,,,,,,,,,,5.0,8.0,1.0,13.09,13.31,13.38,12.93,-0.07280265986422473,-0.005072393563525512,-0.03248143377732437,0.0,106.14,100.03999999999999,104.92,98.21
1618083783.000002,16971.0,4.0,40.0,10.0,2.0,0.0,64.0,0.0,2.0,31.0,0.0,0.0,130.0,2.94,2.04,12.0,21.0,4.0,10.0,15.0,43.0,3.0,2.0,0.0,1493.0,0.1,233.29,-1.3900000000000001,0.5,35.0,11.13,51.0,0.0,95.0,0.0,1.4000000000000001,0.5,15.0,0.0,0.0,,,,0.16378079635859905,0.16009090255477976,0.03188657497034022,0.0,0.0,0.0,0.08772050477655755,6.335196459139603e-05,0.03813278154389642,0.3508753474770341,0.0002534030400985475,0.15252822596679955,3.9999239444732666,0.0,0.0,0.0,0.0,0.0,0.716535937066993,-1.6748441915241523,0.1,0.0,-1.6750975945642508,0.0,9.0,13.358619617639787,7.2495705204507015,-70.86068605494268,-0.08771827590363171,-0.10128122996120661,0.004429055208453304,-0.02,-0.13137342943086275,-0.16402409568376367,0.014356812832159973,0.035,-0.16378079635859905,-0.16009090255477976,0.03188657497034022,-0.003,-0.06172454010272292,-0.1260315494169124,-0.002032166499015539,0.004,-0.12391805769601148,-0.07568454840329202,0.010543439184521827,-0.001,-0.08794798316729054,-0.006689456546576496,-0.020356901235636125,0.019,-0.12238215964284835,0.007969394646200237,0.0022573768239918038,0.066,0.0018537198368749758,0.0064170350184614144,-0.03600535216239686,0.035,-0.09764875768599018,0.0645162547626392,0.0006107321712598467,0.002,,,,,,,,,-0.11718889141789454,-0.007869089437850453,-0.019100815680594296,-0.139,-0.05873177703422246,0.042471757246213084,-0.02489434077900285,0.0,-0.012066131702937981,0.010459391861337312,-0.011532978263152404,0.023,,,,,,,,,,,,,,,,,,,,,,,,,,,,,,,,,,,,,,,,,,,,,,,,,,,,,,,,,,,,,,,,,,,,,,,,,,,,,,,,,,,,,,,,,,,,,,,,,,,,,,,,,5.0,8.0,1.0,13.0,13.450000000000001,13.75,12.63,-0.08772050477655755,-6.335196459139603e-05,0.03813278154389642,0.0,90.89,97.6,100.03999999999999,101.25999999999999
1618083786.000029,16971.0,4.0,40.0,10.0,2.0,0.0,64.0,0.0,2.0,31.0,0.0,0.0,130.0,2.94,2.04,13.0,21.0,4.0,10.0,15.0,43.0,6.0,29.0,0.0,1493.0,0.1,233.29,-1.3900000000000001,0.5,35.0,11.13,51.0,0.0,95.0,0.0,1.4000000000000001,0.5,15.0,0.0,0.0,,,,0.09675066702571418,0.11162935675593415,0.10368797008494171,0.0,0.0,0.0,0.05386992393657293,-0.06453607093501533,0.08193977570959367,0.16161123597906102,-0.19360996687725596,0.24582155422877922,3.0000271797180176,0.0,0.0,0.0,0.0,0.0,0.878147173046054,-1.8684541584014083,0.1,0.0,-1.6748441915241523,0.0,9.0,13.492812649795166,10.019065454066443,-53.09395462819692,-0.054766816952838304,-0.10911529031378178,0.06516478481966641,-0.006,-0.08645332357689416,-0.10313588586333865,0.07512530791746022,0.028,-0.09675066702571418,-0.11162935675593415,0.10368797008494171,0.009000000000000001,-0.09348179686360092,-0.05317452267012332,0.09536049388482107,-0.008,-0.062436693783875355,-0.04512348588204385,0.06931471915251168,-0.056,-0.05583338409506243,0.02207201968610051,0.0735762133265203,-0.055,-0.10232521304503346,-0.024022954687719804,0.04902497754573963,-0.043000000000000003,-0.013598244565102734,0.008553919798724633,-0.002813929783175249,0.068,-0.1184036498260083,-0.04441608641736897,-0.16768359184859088,-0.017,,,,,,,,,-0.07541516950388075,0.035401266537149687,0.053780131426639545,-0.038,-0.04931902221799103,0.07421860718751257,0.055265110102188486,0.048,-0.050020044076168606,-3.235157804580904e-05,0.02733119360718716,0.015,-0.07027693056686382,0.10744145592239075,-0.19840989536657988,,,,,,,,,,,,,,,,,,,,,,,,,,,,,,,,,,,,,,,,,,,,,,,,,,,,,,,,,,,,,,,,,,,,,,,,,,,,,,,,,,,,,,,,,,,,,,,,,,,,,,5.0,8.0,1.0,13.26,13.120000000000001,13.34,13.05,-0.05386992393657293,0.06453607093501533,0.08193977570959367,0.001,103.09,96.99,105.53,92.72
1618083789.000054,16971.0,4.0,40.0,10.0,2.0,0.0,64.0,0.0,2.0,31.0,0.0,0.0,130.0,2.94,2.04,14.0,21.0,4.0,10.0,15.0,43.0,9.0,54.0,0.0,1493.0,0.2,233.29,-1.3900000000000001,0.5,35.0,11.13,51.0,0.0,95.0,0.0,1.4000000000000001,0.5,15.0,0.0,0.0,-1.1012708028028746,-0.8211609933951188,0.03333305782969679,0.006440861422149016,0.03961789060483002,0.0524875037334068,0.0,0.0,0.0,0.013383743112899818,-0.1024595110633187,-0.001980912151909431,0.04015156119573312,-0.3073810737280646,-0.005942785573499393,3.0000247955322266,0.1,0.0,0.0,0.0,0.0,0.9182987342417872,-2.1758352321294727,0.2,0.0,-1.8684541584014083,0.0,9.0,13.408111941098884,7.010055366319062,-65.14916509037711,0.015295752339552719,-0.036559932740009043,0.04309769458350507,0.008,-0.0070404347573872345,-0.0388106101662944,0.04326856615311975,0.014,-0.006440861422149016,-0.03961789060483002,0.0524875037334068,-0.007,-0.01081103639061961,-0.030656965344803336,0.06744087757442237,-0.015,-0.0074658346469557175,0.02887219101664883,0.03642331532030628,-0.036000000000000004,-0.040466524554331314,0.06361732515284921,0.0428053306363864,0.003,-0.0483084703747768,0.11024388089568067,0.02982580116456702,0.0,0.015534898149795006,0.03238144029620471,0.02265191523511479,-0.007,0.021738352255935338,0.012278794123064065,0.030359104994717466,0.098,,,,,,,,,0.10081906456730598,0.13064554580180518,-0.05878994456471125,0.02,0.018213873458911067,0.058413825873007905,-0.009953881680062665,0.029,-0.04748964379031277,0.027363140633789758,0.028372385647397583,-0.159,,,,,,,,,,,,,,,,,,,,,,,,,,,,,,,,,,,,,,,,,,,,,,,,,,,,,,,,,,,,,,,,,,,,,,,,,,,,,,,,,,,,,,,,,,,,,,,,,,,,,,,,,5.0,8.0,1.0,13.05,13.3,13.71,12.58,-0.013383743112899818,0.1024595110633187,-0.001980912151909431,0.0,98.82,101.87,103.09,98.21
1618083792.000079,16971.0,4.0,40.0,10.0,2.0,0.0,64.0,0.0,2.0,31.0,0.0,0.0,130.0,2.94,2.04,15.0,21.0,4.0,10.0,15.0,43.0,12.0,79.0,0.0,1493.0,0.2,233.29,-1.3900000000000001,0.5,35.0,11.13,51.0,0.0,95.0,0.0,1.4000000000000001,0.5,15.0,0.0,0.0,,,,0.03079664474926997,0.01262882849666704,0.0450453034509596,0.0,0.0,0.0,0.030191475817943226,-0.09136592920189698,-0.015960631848661186,0.09057518326575005,-0.2741000748558679,-0.04788229510365608,3.0000250339508057,0.0,0.0,0.0,0.0,0.0,1.0088739175075372,-2.4499353069853407,0.2,0.0,-2.1758352321294727,0.0,9.0,13.5339707017903,12.079803909614114,-61.83549188763812,0.006263433128326768,-0.0330753286427596,0.031949836316019296,-0.007,-0.010448619928355413,-0.004860621417780827,0.03322951550994664,-0.002,-0.03079664474926997,-0.01262882849666704,0.0450453034509596,0.016,0.02661872902637837,-0.029810402766353262,0.031996611569477786,-0.027,-0.052691863827140695,0.015466706988941866,0.02267925178087405,-0.011,-0.006007525188556004,0.096485685983244,0.005694035603304273,0.042,0.026500148767899905,0.10660988090482759,0.010866250905332872,-0.01,-0.019154526252334624,0.05037607485103623,0.009019712115772814,0.001,0.012113191546090868,0.04083004967851731,0.0026791106392833096,-0.158,,,,,,,,,-0.019330986330426736,0.10773579477637922,0.01578960073576132,,-0.031286887333057956,0.04380348861331163,-0.024827103461983142,0.028,0.08605688722319225,0.0572967693116752,-0.016741935010608795,0.029,,,,,,,,,,,,,,,,,,,,,,,,,,,,,,,,,,,,,,,,,,,,,,,,,,,,,,,,,,,,,,,,,,,,,,,,,,,,,,,,,,,,,,,,,,,,,,,,,,,,,,,,,5.0,8.0,1.0,12.88,13.22,12.93,13.15,-0.030191475817943226,0.09136592920189698,-0.015960631848661186,-0.001,101.87,106.14,101.87,102.48
1618083796.000014,16971.0,4.0,40.0,10.0,2.0,0.0,64.0,0.0,2.0,31.0,0.0,0.0,130.0,2.94,2.04,16.0,21.0,4.0,10.0,15.0,43.0,16.0,14.0,0.0,1493.0,0.0,233.29,-1.3900000000000001,0.5,35.0,11.11,51.0,0.0,95.0,0.0,1.4000000000000001,0.5,15.0,0.0,0.0,1.6519466396265514,1.231771640707232,-0.05000081063631136,0.06273863559157236,0.05278770826258565,-0.012582585604399385,0.0,0.0,0.0,0.03937681000293822,-0.089262546515718,-0.06219055091830098,0.15750468643139226,-0.357044397399806,-0.24875817062508682,3.9999351501464844,-0.2,0.0,0.0,0.0,0.0,1.1663786039389294,-2.8069797043851468,0.0,0.0,-2.4499353069853407,0.0,9.0,13.094792092268898,7.630502095116591,-60.48281026629232,-0.034785585531511655,-0.015568364982556282,-0.023507212744172837,-0.028,-0.08166916044164117,-0.014227201346050457,-0.024571018998332417,-0.017,-0.06273863559157236,-0.05278770826258565,-0.012582585604399385,-0.017,0.0003049603641748118,-0.03599214669469267,-0.036255653014171545,-0.044,-0.028232037142126815,0.0026074418855157235,-0.03937198655921784,-0.07,-0.024285042087970297,0.06480486451766268,-0.026806086354275914,-0.023,0.011239494800819587,0.10568728182518153,-0.018051931116282383,0.037,-0.026594445376678176,0.10610026701167286,-0.06566939024506475,-0.018000000000000002,0.09636757357257006,0.018800189318919774,-0.042152623231633796,-0.083,,,,,,,,,-0.02543880965003091,0.08547066800321011,-0.0692865923153573,0.046,0.042403241152208684,0.09584419053990273,-0.06530586711420697,0.003,-0.009798192661294466,0.022676585964572143,-0.03404067962840233,-0.006,,,,,,,,,,,,,,,,,,,,,,,,,,,,,,,,,,,,,,,,,,,,,,,,,,,,,,,,,,,,,,,,,,,,,,,,,,,,,,,,,,,,,,,,,,,,,,,,,,,,,,,,,5.0,8.0,1.0,12.96,13.08,13.47,12.540000000000001,-0.03937681000293822,0.089262546515718,-0.06219055091830098,0.0,102.48,102.48,104.92,104.31
1618083799.000038,16971.0,4.0,40.0,10.0,2.0,0.0,64.0,0.0,2.0,31.0,0.0,0.0,130.0,2.94,2.04,17.0,21.0,4.0,10.0,15.0,43.0,19.0,38.0,0.0,1493.0,0.1,233.29,-1.3900000000000001,0.5,35.0,11.06,51.0,0.0,95.0,0.0,1.4000000000000001,0.5,15.0,0.0,0.0,-1.1012711528846528,-0.8211612544330943,0.0333330684259063,0.037384810030106415,-0.0009326069059033999,0.04134617543826655,0.0,0.0,0.0,0.0014116680830825457,-0.10794739172009472,-0.015078720570778947,0.00423503790603749,-0.3238447488266593,-0.04523652121705016,3.00002384185791,0.1,0.0,0.0,0.0,0.0,1.1706136418449669,-3.130824453211806,0.1,0.0,-2.8069797043851468,0.0,9.0,13.342896690392966,11.013177723894646,-49.86564525028084,-0.049042009921833184,-0.02430308181469207,0.03447087868237767,-0.02,-0.06110399572543359,-0.03334930144017506,0.03576486823460326,-0.011,-0.037384810030106415,0.0009326069059033999,0.04134617543826655,-0.003,0.02381204311473159,-0.019648852652426017,0.009638941443198781,-0.015,-0.0534163885491379,0.0271808176052903,0.012037133740034244,-0.017,-0.04882858695066493,0.12712781389419808,-0.0030476270906220357,0.025,0.012627602260585964,0.10672232216012897,-0.010241563059322917,0.024,0.03330504437386511,0.08573615877023602,-0.018305329786151372,0.044,0.04244566836131463,0.030841014844632354,-0.014703640389864688,-0.014,,,,,,,,,-0.039999231442485655,0.10123751876774165,0.014178373593668256,,0.06527823287864841,0.052698761075890645,0.003948783775688299,0.017,0.09835957879909038,0.07201376798006315,-0.005514569772807371,,-0.3933512250418295,0.01004467821131097,-0.04306876127453835,,,,,,,,,,,,,,,,,,,,,,,,,,,,,,,,,,,,,,,,,,,,,,,,,,,,,,,,,,,,,,,,,,,,,,,,,,,,,,,,,,,,,,,,,,,,,,,,,,,,,,5.0,8.0,1.0,13.16,12.86,13.01,12.98,-0.0014116680830825457,0.10794739172009472,-0.015078720570778947,0.001,103.7,101.25999999999999,109.8,95.77
1618083802.000063,16971.0,4.0,40.0,10.0,2.0,0.0,64.0,0.0,2.0,31.0,0.0,0.0,130.0,2.94,2.04,18.0,21.0,4.0,10.0,15.0,43.0,22.0,63.0,0.0,1493.0,0.1,233.29,-1.3900000000000001,0.5,35.0,11.06,51.0,0.0,95.0,0.0,1.4000000000000001,0.5,15.0,0.0,0.0,,,,-0.018066376916685507,-0.0022516280637441813,0.06204463067959075,0.0,0.0,0.0,-0.014145172968476637,-0.11763435662770139,-0.04268573792824297,-0.042435873014994144,-0.352906014735801,-0.1280582823773923,3.0000250339508057,0.0,0.0,0.0,0.0,0.0,1.1281777688299728,-3.483730467947607,0.1,0.0,-3.130824453211806,0.0,9.0,13.376948277924521,12.441445985759403,-57.33515417016511,0.021241069632996455,-0.01885505825701888,0.04686473875922728,0.019,-0.006560043934329879,0.007038889690676288,0.05451990329688923,0.045,0.018066376916685507,0.0022516280637441813,0.06204463067959075,0.013000000000000001,0.04041338399008621,0.03227342769601278,0.04282737744971174,-0.05,0.034821286157686454,0.06784933653857571,0.014523965078435314,-0.082,0.01152833889730489,0.10512219796364505,0.023967079454141046,0.005,-0.0020032525684882674,0.14798016898555427,0.013522446751740115,-0.011,0.013676974654085912,0.06848737943769898,0.021270148614152655,-0.064,0.05438083461356939,0.05075786017084345,0.02867689762873095,-0.052000000000000005,,,,,,,,,0.007318155928569117,0.08871112389933919,0.029962995349618174,,0.027075559226119567,0.12502152914565962,0.03597959619942779,0.07,0.024526952367672848,0.1203929212765914,-0.00699807931095176,,,,,,,,,,,,,,,,,,,,,,,,,,,,,,,,,,,,,,,,,,,,,,,,,,,,,,,,,,,,,,,,,,,,,,,,,,,,,,,,,,,,,,,,,,,,,,,,,,,,,,,,,,5.0,8.0,1.0,12.94,13.040000000000001,12.780000000000001,13.120000000000001,0.014145172968476637,0.11763435662770139,-0.04268573792824297,-0.004,101.87,94.55,109.19,101.25999999999999
1618083805.000086,16971.0,4.0,40.0,10.0,2.0,0.0,64.0,0.0,2.0,31.0,0.0,0.0,130.0,2.94,2.04,19.0,21.0,4.0,10.0,15.0,43.0,25.0,86.0,0.0,1493.0,0.1,233.29,-1.3900000000000001,0.5,35.0,11.06,51.0,0.0,95.0,0.0,1.4000000000000001,0.5,15.0,0.0,0.0,,,,-0.0039673727401766876,0.03876997703410028,-0.003761493628313065,0.0,0.0,0.0,0.027050437031042294,-0.090505906053751,-0.06147320412845918,0.0811519366778227,-0.2715198112553366,-0.1844210340517137,3.000023126602173,0.0,0.0,0.0,0.0,0.0,1.2093297055077954,-3.7552502792029436,0.1,0.0,-3.483730467947607,0.0,9.0,13.625390026808045,17.213752800914857,-51.953363309455526,0.00776549871990177,-0.001666152672202069,-0.013450686410147177,-0.029,-0.005367499430120097,-0.028019673987221543,-0.005575645210868499,0.002,0.0039673727401766876,-0.03876997703410028,-0.003761493628313065,-0.006,0.024056119254174904,-0.05419510045260975,-0.015530428627711904,0.0,-0.058613615243579734,0.030322918721867497,-0.04071811277876979,-0.032,0.038181217485474025,0.08616993604077433,-0.054054941994750035,-0.017,0.054298863827793684,0.0047489559963501855,-0.03793521851730192,0.036000000000000004,-0.011527558111424325,0.05713273566358135,-0.04034805967556649,0.028,0.06536394889126887,-0.005913350501292349,-0.08970276735524081,-0.033,,,,,,,,,-0.08079252069473146,0.10966340951687749,-0.010416583553402213,,-0.04040166770875185,0.11171790279092612,-0.029134437395439496,0.037,0.07780438661629503,0.08436284403192561,-0.025007758198348887,,,,,,,,,,,,,,,,,,,,,,,,,,,,,,,,,,,,,,,,,,,,,,,,,,,,,,,,,,,,,,,,,,,,,,,,,,,,,,,,,,,,,,,,,,,,,,,,,,,,,,,,,,5.0,8.0,1.0,13.13,12.9,12.22,13.83,-0.027050437031042294,0.090505906053751,-0.06147320412845918,-0.002,101.87,100.03999999999999,95.77,96.99
1618083809.000012,16971.0,4.0,40.0,10.0,2.0,0.0,64.0,0.0,2.0,31.0,0.0,0.0,130.0,2.94,2.04,20.0,21.0,4.0,10.0,15.0,43.0,29.0,12.0,0.0,1493.0,0.0,233.29,-1.3900000000000001,0.5,35.0,11.06,51.0,0.0,95.0,0.0,1.4000000000000001,0.5,15.0,0.0,0.0,0.8259752398908748,0.6158872520567218,-0.02500046343470384,0.08975813430083981,0.017108816106781784,0.062263679125608436,0.0,0.0,0.0,0.050587402671370664,-0.13930765260586872,-0.0023005687138617503,0.20234585972173974,-0.5572202810148387,-0.009202104272468273,3.9999258518218994,-0.1,0.0,0.0,0.0,0.0,1.4116755652295352,-4.312470560217783,0.0,0.0,-3.7552502792029436,0.0,9.0,13.963290833226642,23.180175987710076,-54.45771475377379,-0.040467666048551065,0.0026164739993227125,0.04679232916188097,-0.006,-0.039218512889300415,-0.005197745305105346,0.048630152071477556,0.0,-0.08975813430083981,-0.017108816106781784,0.062263679125608436,-0.023,-0.04142875064350842,-0.010845805914054145,0.036455824146392146,-0.038,-0.08420846367754603,0.012318450745925656,0.03996486477254259,-0.044,-0.079562903032141,0.09581721785598409,0.01475822561953198,-0.058,-0.025809941632494553,0.0814134739257055,-0.030784625647808317,0.046,-0.02782424157144679,0.04745502842101441,-0.09762597942420084,0.066,-0.13380094039469975,0.11263972563826034,0.017047010225592043,0.092,,,,,0.10158570990558358,0.3784019222675545,0.01579014778899393,,-0.07796330377897809,0.12972079382491442,0.07348631786462581,0.004,0.008671410205209215,0.0720093389265126,-0.013132469395343327,-0.016,0.012288327953802212,0.09621499132489958,-0.005715981144939576,,-0.07099307102022419,0.10195294935956112,0.06875739948546754,,,,,,,,,,,,,,,,,,,,,,,,,,,,,,,,,,,,,,,,,,,,,,,,,,,,,,,,,,,,,,,,,,,,,,,,,,,,,,,,,,,,,,,,,,,,,,,,,,,,,,5.0,8.0,1.0,13.08,13.08,11.73,15.02,-0.050587402671370664,0.13930765260586872,-0.0023005687138617503,-0.001,101.25999999999999,104.31,107.97,99.42999999999999
1618083812.000043,16971.0,4.0,40.0,10.0,2.0,0.0,64.0,0.0,2.0,31.0,0.0,0.0,130.0,2.94,2.04,21.0,21.0,4.0,10.0,15.0,43.0,32.0,43.0,0.0,1493.0,0.1,233.29,-1.3900000000000001,0.5,35.0,11.06,51.0,0.0,95.0,0.0,1.4000000000000001,0.5,15.0,0.0,0.0,-1.1012685272767442,-0.8211592966523258,0.03333298895449924,0.04335549835195643,-0.06915659732773537,0.10096863774807982,0.0,0.0,0.0,0.0019029455397686496,-0.16203755703612177,0.03622442419194896,0.0057088955999902696,-0.48611769336769955,0.10867439533069369,3.000030994415283,0.1,0.0,0.0,0.0,0.0,1.4173844608295254,-4.798588253585482,0.1,0.0,-4.312470560217783,0.0,7.0,14.547959717734868,28.29412306328868,-54.294014484266846,-0.033487821464724093,0.06932968796540713,0.07051212789418601,-0.003,-0.03530391475134109,0.09221246630691445,0.07599667532745238,0.01,-0.04335549835195643,0.06915659732773537,0.10096863774807982,0.005,0.014626334070037458,0.042651753569982555,0.0859819647895833,-0.037,0.011449960618989447,0.03152024095936717,0.08597309353330856,-0.025,-0.06823187973598631,0.11877488198342842,0.06603739847629182,-0.04,-0.024149342635607078,0.06783642565385614,0.06597748558998666,0.034,-0.11840678390147917,0.04527500800413625,-0.09865093601347032,,-0.03149904803732486,0.04888223698263521,-0.009073967176257112,0.062,,,,,0.09558269496868722,0.1078909713134747,0.04553555458713409,0.215,-0.05779234128985805,0.10508521745346908,0.0916031787712287,-0.025,-0.07379609251355418,0.09835417753568072,0.06461108644041476,-0.023,0.04136828124262975,0.1342572026385314,0.012754169777253528,,0.07588430773128163,0.07009846269556069,0.07453037882543757,,,,,,,,,,,,,,,,,,,,,,,,,,,,,,,,,,,,,,,,,,,,,,,,,,,,,,,,,,,,,,,,,,,,,,,,,,,,,,,,,,,,,,,,,,,,,,,,,,,,,,5.0,8.0,1.0,13.31,13.32,11.3,16.21,-0.0019029455397686496,0.16203755703612177,0.03622442419194896,0.0,99.42999999999999,100.64999999999999,101.87,99.42999999999999
1618083815.000068,16971.0,4.0,40.0,10.0,2.0,0.0,64.0,0.0,2.0,31.0,0.0,0.0,130.0,2.94,2.04,22.0,21.0,4.0,10.0,15.0,43.0,35.0,68.0,0.0,1493.0,0.2,233.29,-1.3900000000000001,0.5,35.0,11.06,51.0,0.0,95.0,0.0,1.4000000000000001,0.5,15.0,0.0,0.0,-1.1012707152824652,-0.8211609281356512,0.03333305518064547,-0.04683043434588442,-0.09454958921235616,0.08669651434025771,0.0,0.0,0.0,-0.07339309921142777,-0.15027570812134303,0.009036843296772842,-0.22018113495351843,-0.4508308863587135,0.027110756118209053,3.0000250339508057,0.1,0.0,0.0,0.0,0.0,1.197203325876007,-5.249419139944195,0.2,0.0,-4.798588253585482,0.0,9.0,16.25679550599964,37.792275030187085,-53.017835774440314,0.09386096130403361,0.036589757336304145,0.06348471943037225,-0.003,0.06528219134813643,0.0653951440433641,0.07806222279907846,0.042,0.04683043434588442,0.09454958921235616,0.08669651434025771,0.02,0.03602324980343117,0.017930307475451435,0.11106227778789415,-0.046,0.03589270807427221,0.06557861778712254,0.11296529730950815,-0.035,-0.02279327138369871,0.0028301724949765517,0.10098245839390987,-0.046,-0.01838835875109489,0.057640797888994635,0.08781461541885327,-0.013000000000000001,-0.028616699454997837,0.07774229314765577,0.05726447736988684,0.033,0.10430945156203598,0.050635010535243385,0.11610182609641875,-0.16,,,,,0.05998340061176216,0.03951373130211806,-0.042528304570401874,0.128,0.059278518007746785,0.11591851363450673,0.04068114427559679,0.009000000000000001,-0.001917126985703524,0.06979003696738162,0.02489327949893692,-0.037,-0.0030186103242390017,0.06471436606166729,0.024737397133629938,0.008,0.055552635469731285,0.07637726036193479,0.03941343415603847,0.035,0.12136571450839148,0.07098353158005449,0.03867430136784655,,,,,,,,,,,,,,,,,,,,,,,,,,,,,,,,,,,,,,,,,,,,,,,,,,,,,,,,,,,,,,,,,,,,,,,,,,,,,,,,,,,,,,,,,,,,,,,,,,5.0,8.0,1.0,14.33,14.15,10.97,19.97,0.07339309921142777,0.15027570812134303,0.009036843296772842,0.0,98.21,101.87,111.02,82.35
1618083818.000097,16971.0,4.0,40.0,10.0,2.0,0.0,64.0,0.0,2.0,31.0,0.0,0.0,130.0,2.94,2.04,23.0,21.0,4.0,10.0,15.0,43.0,38.0,97.0,0.0,1493.0,0.2,233.29,-1.3900000000000001,0.5,35.0,11.040000000000001,51.0,0.0,95.0,0.0,1.4000000000000001,0.5,15.0,0.0,0.0,,,,-0.06491701567010048,-0.06488590562925925,0.05873329828265045,0.0,0.0,0.0,-0.08329624043316022,-0.15325570273661776,-0.06174484519704142,-0.24989114414277788,-0.45977156596869334,-0.18523633156755182,3.0000290870666504,0.0,0.0,0.0,0.0,0.0,0.9473121817332292,-5.709190705912889,0.2,0.0,-5.249419139944195,0.0,10.0,18.01864755251892,45.54400853860677,-54.083820254094725,0.1050526784890048,0.04725881959222725,0.028329114229624277,0.005,0.0935501165462876,0.08286667925957403,0.047164490484546594,0.055,0.06491701567010048,0.06488590562925925,0.05873329828265045,0.005,0.06909925057081928,0.018767437386053132,0.06819880398153406,-0.029,0.04170195995332499,0.039962495336661165,0.07845346074277802,-0.001,-0.03258677365144971,0.11878201302153832,0.032045835385277194,-0.058,-0.06550446315384004,0.06033468485522564,0.05076308806946065,0.024,-0.03548084741278256,0.05062405107542449,0.020082701999075064,0.039,-0.03930078662391876,0.027030070320965903,-0.005815794802505176,0.026000000000000002,-0.017404483811324832,0.08295274866201888,-0.011996892625895206,-0.15,-0.10297015133732751,-0.005416823292547994,-0.07111825334599532,,,,,,-0.051594526387942784,0.040047989381476495,0.010008166330803044,0.052000000000000005,-0.0031589371569606187,0.08693370596130678,-0.07548875336016239,-0.008,0.053485146104708836,0.056633505673395444,-0.034423613716450994,0.094,0.042687939349356364,0.11478471816518654,-0.03611382435916151,0.083,0.07890803217058835,0.11593142432000572,-0.01504750192225196,-0.014,0.03784945054750198,0.12063339158148152,-0.006324865911712324,,,,,,,,,,,,,,,,,,,,,,,,,,,,,,,,,,,,,,,,,,,,,,,,,,,,,,,,,,,,,,,,,,,,,,,,,,,,,,,,,,,,,,,,,,5.0,8.0,1.0,15.09,15.17,10.84,,0.08329624043316022,0.15325570273661776,-0.06174484519704142,,96.38,98.82,106.75,0.0
1618083822.000023,16971.0,4.0,40.0,10.0,2.0,0.0,64.0,0.0,2.0,31.0,0.0,0.0,130.0,2.94,2.04,24.0,21.0,4.0,10.0,15.0,43.0,42.0,23.0,0.0,1493.0,0.2,233.29,-1.3900000000000001,0.5,35.0,11.0,51.0,0.0,95.0,0.0,1.4000000000000001,0.5,15.0,0.0,0.0,,,,-0.03920233886211434,-0.06364217081139688,0.005084360545136423,0.0,0.0,0.0,-0.059758686690489456,-0.14914403947817328,-0.11437637366677181,-0.23903031576421405,-0.5965650991538912,-0.4574970138673621,3.9999258518218994,0.0,0.0,0.0,0.0,0.0,0.7082818659690151,-6.30575580506678,0.2,0.0,-5.709190705912889,0.0,17.0,18.00024398919089,46.65904158268261,-53.946741492526485,0.048156587997556066,0.04986240818026301,-0.0008266092780015444,-0.014,0.05431412375476326,0.039471171620794235,0.01174744957997564,0.023,0.03920233886211434,0.06364217081139688,0.005084360545136423,0.012,0.06001561009810979,0.036502936776539,0.003957543586577388,-0.021,0.026611169151758658,0.0897796918018035,-0.1026667064648987,0.023,-0.02370722422464667,0.05449006501343129,-0.0286146873894222,-0.045,-0.06226798101025254,0.04930888321506368,-0.010832016293841153,-0.025,-0.07751463206357614,0.06814237395260589,-0.03520083362864627,0.022,-0.0747702659220518,-0.02803083332562004,-0.05367196397577574,-0.029,-0.09063476879406099,0.0005440913012482174,-0.01878942921706288,-0.01,0.11528553105427308,0.0479411486440039,0.01720152889215844,-0.099,0.09316294910466241,0.023375854201356936,-0.014533903621497642,0.019,-0.06429712605232152,0.10259371991589687,-0.08923232718712644,0.109,0.00040359191184589915,0.08737056069545437,-0.09564111164834199,0.033,0.07958803412488971,0.015016792637580902,-0.10832008476277742,-0.015,0.09521789415035048,0.04297774399078229,-0.09636631234531821,-0.02,0.0747857274302309,0.06740114806088265,-0.09289876324691401,-0.082,-0.004603422233781717,-0.03341512943965194,-0.04699188896255215,,-0.02407829844761375,0.0274155082627913,0.03444743024610781,,,,,,,,,,,,,,,,,,,,,,,,,,,,,,,,,,,,,,,,,,,,,,,,,,,,,,,,,,,,,,,,,,,,,,,,,,,,,,,,,,,,,,5.0,8.0,1.0,14.99,15.040000000000001,10.63,,0.059758686690489456,0.14914403947817328,-0.11437637366677181,,93.33,102.48,107.97,0.0
1618083825.00005,16971.0,4.0,40.0,10.0,2.0,0.0,64.0,0.0,2.0,31.0,0.0,0.0,130.0,2.94,2.04,25.0,21.0,4.0,10.0,15.0,43.0,45.0,50.0,0.0,1493.0,0.2,233.29,-1.3900000000000001,0.5,35.0,11.0,51.0,0.0,95.0,0.0,1.4000000000000001,0.5,15.0,0.0,0.0,,,,-0.019664064397125203,-0.09598645579383755,0.00734335587612237,0.0,0.0,0.0,-0.0542607032907069,-0.14575531312948747,-0.0934888483880453,-0.1627835846627356,-0.4372699009767728,-0.28046908616467287,3.0000271797180176,0.0,0.0,0.0,0.0,0.0,0.5454982813062795,-6.743025706043553,0.2,0.0,-6.30575580506678,0.0,9.0,16.557711129071127,42.793089123059616,-54.403077447097964,0.07382505240543785,0.034360847706516144,0.001787115615723086,-0.004,0.03481088990274996,0.05735028745671516,0.0036258065048703995,0.008,0.019664064397125203,0.09598645579383755,0.00734335587612237,0.032,0.07608944254775764,0.014303638401287861,0.010188359105208947,-0.022,-0.0019502416745962002,0.06127404791785068,0.013736360841635143,-0.019,-0.04076017456335314,0.01694187979866682,-0.013438038489768694,-0.077,-0.1147658907057172,0.08246372617744935,-0.04584238426886226,0.025,-0.1231613759934747,0.07415142739887381,-0.023787418483381218,0.021,-0.057523785173193544,0.009933414738465537,-0.09659369239749517,0.008,,,,,,,,,0.007977837956346826,0.06574652921002622,-0.022422042689671302,,-0.04796137159897869,0.12433537187139451,-0.07862837996516729,0.051000000000000004,0.05240969380777857,0.03237511056539816,-0.09657161182693981,0.02,0.032300636264928156,0.021056846271173865,-0.11198338324051904,-0.004,0.08886671246399847,0.09898764304720072,-0.1303155936171915,-0.019,-0.0457928973966948,0.01549580590134926,-0.11682846634054343,0.109,,,,,,,,,,,,,,,,,,,,,,,,,,,,,,,,,,,,,,,,,,,,,,,,,,,,,,,,,,,,,,,,,,,,,,,,,,,,,,,,,,,,,,,,,,,,,5.0,8.0,1.0,14.040000000000001,14.17,10.4,,0.0542607032907069,0.14575531312948747,-0.0934888483880453,-0.012,101.25999999999999,109.8,107.36,0.0
1618083828.000085,16971.0,4.0,40.0,10.0,2.0,0.0,64.0,0.0,2.0,31.0,0.0,0.0,130.0,2.94,2.04,26.0,21.0,4.0,10.0,15.0,43.0,48.0,85.0,0.0,1493.0,0.6000000000000001,233.29,-1.3900000000000001,0.5,35.0,11.0,51.0,0.0,95.0,0.0,1.4000000000000001,0.5,15.0,0.0,0.0,-4.405068157751281,-3.2846327489894716,0.13333177568348048,-0.06877002070830426,-0.015319813400538538,0.0031603115593374018,0.0,0.0,0.0,-0.0820035763300804,-0.14205488390965432,-0.08563774533750469,-0.24601360301313524,-0.4261696304019286,-0.2569162374040595,3.000035047531128,0.4000000000000001,0.0,0.0,0.0,0.0,0.2994846782931443,-7.1691953364454815,0.6000000000000001,0.0,-6.743025706043553,0.0,8.0,15.281779679060126,36.56039395117637,-54.36748201826525,0.05179309900230579,0.05708267026197995,0.007813043677045606,-0.002,0.0609694236159301,0.054468497892395724,0.0024314854075947606,-0.023,0.06877002070830426,0.015319813400538538,0.0031603115593374018,-0.044,0.07922086061191408,0.023655981527549764,0.0042953209281617125,-0.042,0.035965081186334846,0.05395655709529043,0.016161772232122555,-0.009000000000000001,-0.06603810116246414,0.05171723848754206,0.007955905861613231,-0.062,-0.10867897541497909,0.12976548013316813,-0.031682810300835466,0.038,-0.05139311374928013,0.021030849698146663,-0.09710536143863284,0.023,,,,,0.20381892551591546,0.1399694165193749,-0.1664193739946267,,0.0502468677073912,0.08145583372844972,-0.03713757446574939,0.11,0.016310276803614934,0.04901181750074489,-0.043195099442681434,0.094,0.03085945489808465,-0.011798228593892585,-0.07766914345761343,0.021,-0.04681162551959114,-0.027552970179448997,-0.06792279109771591,0.022,-0.05454605099367649,0.05164505508460547,-0.07089793090283603,,,,,,,,,,,,,,,,,,,,,,,,,,,,,,,,,,,,,,,,,,,,,,,,,,,,,,,,,,,,,,,,,,,,,,,,,,,,,,,,,,,,,,,,,,,,,,,,,,,,,,5.0,8.0,1.0,13.05,13.120000000000001,10.22,17.98,0.0820035763300804,0.14205488390965432,-0.08563774533750469,0.01,98.82,99.42999999999999,110.41,100.64999999999999
1618083832.000012,16971.0,4.0,40.0,10.0,2.0,0.0,64.0,0.0,2.0,31.0,0.0,0.0,130.0,2.94,2.04,27.0,21.0,4.0,10.0,15.0,43.0,52.0,12.0,0.0,1493.0,0.6000000000000001,233.29,-1.3900000000000001,0.5,35.0,11.0,51.0,0.0,95.0,0.0,1.4000000000000001,0.5,15.0,0.0,0.0,,,,-0.033684102192976184,-0.010492694076841945,0.023351330378865855,0.0,0.0,0.0,-0.08021843551659824,-0.1469607419183268,-0.0788006531577265,-0.32086787051781096,-0.5878322109547268,-0.31519684485620025,3.999926805496216,0.0,0.0,0.0,0.0,0.0,-0.02138319222466667,-7.757027547400209,0.6000000000000001,0.0,-7.1691953364454815,0.0,7.0,14.878182698871862,36.060917688178975,-54.036666573360215,0.07602176872690988,0.014507528949263975,0.00402768958815012,0.005,0.03187931036384074,0.05540130507531983,0.004405106886019654,0.01,0.033684102192976184,0.010492694076841945,0.023351330378865855,-0.058,0.09427170352033494,0.02394824390459141,-0.0025154580617192147,0.022,0.032059074151910436,0.0855353456858691,0.0034525936513265174,-0.036000000000000004,-0.08239651629026662,0.008941283891238647,0.02165334952389823,-0.035,-0.0887317113792822,0.03870875189565929,-0.004723973156576874,0.055,,,,,,,,,0.1299945908831731,0.1493373468422626,-0.14224894790201512,,0.017998953538872438,0.08877967975524913,-0.04774103197524035,0.058,0.0263872255089894,0.07857789706316916,-0.05709840998721184,0.003,0.027611979499546784,0.04050853885969224,-0.07070811033799031,-0.028,-0.04685586313378722,0.014396638365601327,-0.047867158822703225,0.026000000000000002,-0.017660391751095603,0.019542391321534458,-0.04964076454521878,,,,,,,,,,,,,,,,,,,,,,,,,,,,,,,,,,,,,,,,,,,,,,,,,,,,,,,,,,,,,,,,,,,,,,,,,,,,,,,,,,,,,,,,,,,,,,,,,,,,,,5.0,8.0,1.0,12.77,12.780000000000001,9.99,17.36,0.08021843551659824,0.1469607419183268,-0.0788006531577265,-0.004,100.64999999999999,96.38,107.36,93.94
1618083835.000037,16971.0,4.0,40.0,10.0,2.0,0.0,64.0,0.0,2.0,31.0,0.0,0.0,130.0,2.94,2.04,28.0,21.0,4.0,10.0,15.0,43.0,55.0,37.0,0.0,1493.0,0.8,233.29,-1.3900000000000001,0.5,35.0,11.0,51.0,0.0,95.0,0.0,1.4000000000000001,0.5,15.0,0.0,0.0,-2.20254143056493,-1.642321856271302,0.06666611036129093,-0.08068481817221031,-0.03151063368715125,-0.005200007803026032,0.0,0.0,0.0,-0.0840779272020756,-0.17687337783670343,-0.1049605181486697,-0.25223588640892025,-0.5306245613495498,-0.314884182022457,3.0000250339508057,0.19999999999999996,0.0,0.0,0.0,0.0,-0.2736190786335869,-8.287652108749759,0.8,0.0,-7.757027547400209,0.0,8.0,15.365580729234644,39.031449720232196,-54.66808371947699,0.07974398684660862,0.06780910415964354,-0.01291595737351779,0.012,0.09053554550006457,0.06941673447484616,-0.03245969771662155,-0.048,0.08068481817221031,0.03151063368715125,-0.005200007803026032,-0.033,0.06475817406225681,0.04656533140127266,-0.0043644935115197386,0.023,0.007837978453286033,0.04537048599554067,0.006934341662643306,-0.012,-0.10649422056418753,0.021140188016406193,-0.006408856142649522,-0.038,-0.03673612125727908,0.01924897803001329,-0.06567293384470162,-0.025,-0.0850506545578052,0.06728620390271936,-0.09520479464633369,0.11900000000000001,,,,,,,,,-0.058656408414713423,0.0550366586198798,-0.03681564830130181,0.033,0.011019532676569736,0.039338538913287396,-0.10140537094137463,0.078,0.042699307464005895,0.009099763443176112,-0.10405269553150714,0.017,-0.034065745949369376,0.020985788110063644,-0.04486782422084378,-0.076,-0.11107390364247494,-0.04876594322673608,-0.039350612585180286,,,,,,,,,,,,,,,,,,,,,,,,,,,,,,,,,,,,,,,,,,,,,,,,,,,,,,,,,,,,,,,,,,,,,,,,,,,,,,,,,,,,,,,,,,,,,,,,,,,,,,5.0,8.0,1.0,12.790000000000001,12.93,9.75,18.39,0.0840779272020756,0.17687337783670343,-0.1049605181486697,-0.002,98.21,100.64999999999999,109.8,92.72
1618083838.000063,16971.0,4.0,40.0,10.0,2.0,0.0,64.0,0.0,2.0,31.0,0.0,0.0,130.0,2.94,2.04,29.0,21.0,4.0,10.0,15.0,43.0,58.0,63.0,0.0,1493.0,1.2000000000000002,233.29,-1.3900000000000001,0.5,35.0,10.98,51.0,0.0,95.0,0.0,1.4000000000000001,0.5,15.0,0.0,0.0,-4.4050814608038635,-3.2846426683915353,0.1333321783377776,-0.09627795684995814,-0.04169855525549393,0.0019456398438861926,0.0,0.0,0.0,-0.08450350562382222,-0.18168200690531203,-0.09133348730965435,-0.2535127129168923,-0.545050742199823,-0.27400283546939236,3.000025987625122,0.40000000000000013,0.0,0.0,0.0,0.0,-0.5271317915504792,-8.832702850949582,1.2000000000000002,0.0,-8.287652108749759,0.0,8.0,16.082723312648817,42.400340563330445,-54.326407895864385,0.04553747619163339,0.05689206548011162,0.006901532257630523,-0.017,0.0654270441935833,0.10080972201927474,0.001643725794483332,-0.044,0.09627795684995814,0.04169855525549393,0.0019456398438861926,-0.047,0.0782082673256236,0.05664659136170311,0.002151884993214139,0.019,-0.03493801240293824,0.03175705804457749,0.05321489033800097,-0.034,-0.09742884442356542,0.049188935641823084,-0.008664230185842978,-0.032,-0.0669373385706484,0.02531848058163093,-0.024235660628832936,0.047,-0.07674087638499671,0.029517189552632245,-0.09167646051509967,0.005,,,,,,,,,0.06823620942119057,0.07575445505226108,-0.11332732355245304,,0.05074289331711729,0.0976235603012769,-0.09877651164072665,0.085,0.09600739123692023,0.03332948566624001,-0.10854366040034229,-0.023,0.03472399768544467,0.010135579412773758,-0.12633097013285616,0.052000000000000005,0.027709951034018944,0.09712510554730011,-0.13149095971251443,0.091,-0.11502552607698983,-0.08571246482305003,-0.05935909133965195,,,,,,,,,,,,,,,,,,,,,,,,,,,,,,,,,,,,,,,,,,,,,,,,,,,,,,,,,,,,,,,,,,,,,,,,,,,,,,,,,,,,,,,,,,,,,,,,,,5.0,8.0,1.0,12.9,13.0,9.43,19.72,0.08450350562382222,0.18168200690531203,-0.09133348730965435,-0.027,104.31,102.48,108.58,89.67
1618083841.000087,16971.0,4.0,40.0,10.0,2.0,0.0,64.0,0.0,2.0,31.0,0.0,0.0,130.0,2.94,2.04,30.0,21.0,4.0,10.0,15.0,44.0,1.0,87.0,0.0,1493.0,1.3,233.29,-1.3900000000000001,0.5,35.0,10.98,51.0,0.0,95.0,0.0,1.4000000000000001,0.5,15.0,0.0,0.0,-1.1012710653641857,-0.8211611891735837,0.03333306577685324,-0.1103027427988491,-0.026462685427352563,0.007617821934380327,0.0,0.0,0.0,-0.11145778677917104,-0.1991566195851312,-0.10663396570376713,-0.33437604427183565,-0.5974746545018579,-0.3199044648866787,3.0000240802764893,0.09999999999999987,0.0,0.0,0.0,0.0,-0.8615078358223148,-9.43017750545144,1.3,0.0,-8.832702850949582,0.0,8.0,15.787458250108987,41.931793339835934,-53.694185996357696,0.05507338614089367,0.0915286116584906,0.0241750984867744,-0.022,0.03991718510187054,0.08515778914259173,0.030785861720745985,0.002,0.1103027427988491,0.026462685427352563,0.007617821934380327,-0.018000000000000002,0.09366870205845461,0.08798991385935113,0.0013961782509504077,0.061,-0.029095106594475464,-0.014105727578500999,0.049035734130705395,-0.026000000000000002,-0.046663001634505825,0.05275998521822889,-0.008941377870908741,-0.004,-0.05922556851733417,0.06662967094772865,-0.0638578028372098,-0.023,-0.07072542010610473,-0.00472563693055246,-0.08411054218357883,0.048,,,,,,,,,-0.03862788611224777,0.10780357479841843,-0.036100909617086126,,-0.057732521394801235,0.19801471656836858,-0.09280155168825285,0.018000000000000002,0.06168939286842544,0.08183801920385725,-0.10477574824506934,0.009000000000000001,0.07414270091066005,0.0261760276948914,-0.09961262709008675,0.0,0.06284965597543109,0.03595751915956152,-0.10095037176583217,,-0.03042628829899836,-0.029283049775430853,-0.043974355892905076,,,,,,,,,,,,,,,,,,,,,,,,,,,,,,,,,,,,,,,,,,,,,,,,,,,,,,,,,,,,,,,,,,,,,,,,,,,,,,,,,,,,,,,,,,,,,,,,,,5.0,8.0,1.0,12.6,12.57,9.3,19.11,0.11145778677917104,0.1991566195851312,-0.10663396570376713,0.036000000000000004,103.09,103.09,98.21,93.33
1618083845.000016,16971.0,4.0,40.0,10.0,2.0,0.0,64.0,0.0,2.0,31.0,0.0,0.0,130.0,2.94,2.04,31.0,21.0,4.0,10.0,15.0,44.0,5.0,16.0,0.0,1493.0,1.3,233.29,-1.3900000000000001,0.5,35.0,11.0,51.0,0.0,95.0,0.0,1.4000000000000001,0.5,15.0,0.0,0.0,,,,-0.10755814036565008,-0.07316182512716203,-0.005252978692673112,0.0,0.0,0.0,-0.13878181323341762,-0.21490693231635763,-0.11972309199990319,-0.5551173926611811,-0.8596124603994089,-0.47888386182518766,3.9999289512634277,0.0,0.0,0.0,0.0,0.0,-1.416625228483496,-10.289789965850849,1.3,0.0,-9.43017750545144,0.0,7.0,14.721222552705006,40.322954569473914,-54.05011664233485,0.048070520174267876,0.1050351775253003,0.012362708942782654,-0.003,0.07817947706824664,0.1011164210769037,0.010603714157492259,-0.015,0.10755814036565008,0.07316182512716203,-0.005252978692673112,-0.028,0.09131968853590902,0.14598402386257867,-0.009968914815295972,0.075,-0.10774668633108722,0.0461540714907876,0.054004196776672585,-0.05,-0.04109836513541369,0.09045276279009927,-0.03745960606886093,-0.013000000000000001,-0.1062924561148571,0.005562390565222071,-0.033060151001940465,0.031,,,,,,,,,0.17763046005113864,0.12632018464536846,-0.15278622520757837,0.062,0.060534898635997925,0.16346846936584652,-0.10514554470027136,0.093,0.018185636593411422,0.1109710969311728,-0.11729321492560696,0.046,0.024430863149147337,0.10066265263118057,-0.12727986207975678,0.031,-0.09149842634875205,-0.0690824879733307,-0.04218587241146748,,-0.047177951589518236,0.015630364958765266,-0.01519646587443528,,,,,,,,,,,,,,,,,,,,,,,,,,,,,,,,,,,,,,,,,,,,,,,,,,,,,,,,,,,,,,,,,,,,,,,,,,,,,,,,,,,,,,,,,,,,,,,,,,,,,,5.0,8.0,1.0,11.8,11.83,8.77,17.22,0.13878181323341762,0.21490693231635763,-0.11972309199990319,0.013000000000000001,96.99,100.64999999999999,110.41,95.77
