time,system_configuration,num_beams,num_bins,pings_per_ensemble,depth_bin_length,blanking_distance,low_correlation_threshold,percent_good_minimum,error_velocity_threshold,coordinate_transformation,heading_alignment,heading_bias,sensor_source,bin0_distance,transmit_pulse_length,ensemble_number,rtc_year,rtc_month,rtc_day,rtc_hour,rtc_minute,rtc_second,rtc_hundredths,bit_result,speed_of_sound,depth,heading,pitch,roll,salinity,temperature,min_ping_wait_minutes,min_ping_wait_seconds,min_ping_wait_hundredths,heading_standard_deviation,pitch_standard_deviation,roll_standard_deviation,adc_rounded_voltage,pressure,pressure_variance,rel_vel_pressure_u,rel_vel_pressure_v,rel_vel_pressure_w,rel_vel_dvl_u,rel_vel_dvl_v,rel_vel_dvl_w,ocn_vel_u,ocn_vel_v,ocn_vel_w,abs_vel_btm_u,abs_vel_btm_v,abs_vel_btm_w,delta_x,delta_y,delta_z,delta_t,delta_z_pressure,delta_pitch,rel_pos_x,rel_pos_y,rel_pos_z,rel_pos_x_dvl_dr,rel_pos_y_dvl_dr,rel_pos_z_dvl_dr,origin_x,origin_y,angle_of_attack,num_good_vel_bins,bathy_factor_depth,bathy_factor_slope,bathy_factor_orient,vel_bin0_beam0,vel_bin0_beam1,vel_bin0_beam2,vel_bin0_beam3,vel_bin1_beam0,vel_bin1_beam1,vel_bin1_beam2,vel_bin1_beam3,vel_bin2_beam0,vel_bin2_beam1,vel_bin2_beam2,vel_bin2_beam3,vel_bin3_beam0,vel_bin3_beam1,vel_bin3_beam2,vel_bin3_beam3,vel_bin4_beam0,vel_bin4_beam1,vel_bin4_beam2,vel_bin4_beam3,vel_bin5_beam0,vel_bin5_beam1,vel_bin5_beam2,vel_bin5_beam3,vel_bin6_beam0,vel_bin6_beam1,vel_bin6_beam2,vel_bin6_beam3,vel_bin7_beam0,vel_bin7_beam1,vel_bin7_beam2,vel_bin7_beam3,vel_bin8_beam0,vel_bin8_beam1,vel_bin8_beam2,vel_bin8_beam3,vel_bin9_beam0,vel_bin9_beam1,vel_bin9_beam2,vel_bin9_beam3,vel_bin10_beam0,vel_bin10_beam1,vel_bin10_beam2,vel_bin10_beam3,vel_bin11_beam0,vel_bin11_beam1,vel_bin11_beam2,vel_bin11_beam3,vel_bin12_beam0,vel_bin12_beam1,vel_bin12_beam2,vel_bin12_beam3,vel_bin13_beam0,vel_bin13_beam1,vel_bin13_beam2,vel_bin13_beam3,vel_bin14_beam0,vel_bin14_beam1,vel_bin14_beam2,vel_bin14_beam3,vel_bin15_beam0,vel_bin15_beam1,vel_bin15_beam2,vel_bin15_beam3,vel_bin16_beam0,vel_bin16_beam1,vel_bin16_beam2,vel_bin16_beam3,vel_bin17_beam0,vel_bin17_beam1,vel_bin17_beam2,vel_bin17_beam3,vel_bin18_beam0,vel_bin18_beam1,vel_bin18_beam2,vel_bin18_beam3,vel_bin19_beam0,vel_bin19_beam1,vel_bin19_beam2,vel_bin19_beam3,btm_pings_per_ensemble,btm_bottom_track_mode,btm_max_error_velocity,btm_beam0_range,btm_beam1_range,btm_beam2_range,btm_beam3_range,btm_beam0_velocity,btm_beam1_velocity,btm_beam2_velocity,btm_beam3_velocity,btm_beam0_rssi,btm_beam1_rssi,btm_beam2_rssi,btm_beam3_rssi
1628271219.000033,16971.0,4.0,20.0,10.0,2.0,0.0,64.0,0.0,2.0,11.0,0.0,0.0,2.0,2.94,2.05,1.0,21.0,8.0,6.0,13.0,33.0,39.0,33.0,337.0,1500.0,0.2,248.39000000000001,-1.49,2.39,35.0,22.25,0.0,0.0,8.0,0.0,1.5,2.4000000000000004,14.0,0.0,0.0,0.0,0.0,0.0,0.0,0.0,0.0,0.0,0.0,0.0,0.0,0.0,0.0,0.0,0.0,0.0,0.0,0.0,0.0,0.0,0.0,0.0,0.0,0.0,0.0,0.0,0.0,0.0,9.0,0.0,0.0,0.0,-0.07900000000000001,0.064,0.0,0.004,-0.035,0.069,-0.02,-0.01,-0.031,0.065,-0.018000000000000002,-0.006,-0.026000000000000002,0.15699999999999997,-0.029,0.003,0.03900000000000001,0.043000000000000003,-0.035,0.008,-0.06,0.11700000000000002,-0.024,0.022,0.0049999999999999906,0.159,0.007,0.043000000000000003,0.004,0.08299999999999999,0.01,-0.032,-0.07900000000000001,0.083,0.029,-0.042,,,,,-0.249,0.07499999999999998,-0.07200000000000001,-0.006,-0.039,0.035,-0.027,0.044,-0.034,-0.002,-0.035,0.006,-0.092,-0.015000000000000003,-0.065,0.021,-0.022,-0.028999999999999998,-0.074,-0.065,0.123,0.222,-0.017,,,,,,-0.08799999999999997,-0.181,0.009000000000000001,0.182,0.079,0.033,-0.019,0.079,-0.017,0.007000000000000002,-0.101,-0.28,10.0,8.0,1.0,11.950000000000001,14.67,12.73,13.58,-0.023000000000000003,0.13600000000000004,-0.003,0.0,101.25999999999999,105.53,98.21,93.33
1628271224.000008,16971.0,4.0,20.0,10.0,2.0,0.0,64.0,0.0,2.0,11.0,0.0,0.0,2.0,2.94,2.05,2.0,21.0,8.0,6.0,13.0,33.0,44.0,8.0,0.0,1500.0,0.2,248.39000000000001,-1.49,2.39,35.0,22.5,0.0,0.0,8.0,0.0,1.5,2.4000000000000004,14.0,0.0,0.0,,,,-0.018999999999999996,-0.10400000000000001,-0.039,0.0,0.0,0.0,0.017,-0.09700000000000002,-0.016,0.08499957847595216,-0.4849975948333741,-0.07999960327148438,4.999975204467773,0.0,0.0,0.0,0.0,0.0,0.08499957847595216,-0.4849975948333741,0.0,0.0,0.0,0.0,9.0,13.258354088639017,8.871297769564382,-155.69434334195594,-0.051000000000000004,0.053000000000000005,-0.038,-0.027,-0.073,0.036000000000000004,-0.028,-0.041,0.018999999999999996,0.10400000000000001,-0.039,0.004,-0.012,0.11099999999999999,-0.039,-0.008,-0.02,0.097,-0.063,0.014,-0.029000000000000005,0.08400000000000002,-0.041,-0.013000000000000001,0.0040000000000000036,0.089,-0.032,0.003,-0.061,0.09799999999999999,0.002,0.036000000000000004,-0.051000000000000004,0.036000000000000004,-0.003,-0.034,-0.22299999999999998,-0.28500000000000003,-0.04,,-0.026000000000000013,0.126,-0.03,-0.073,-0.05900000000000001,0.09300000000000001,0.011,0.011,0.001999999999999999,0.023,0.017,0.021,-0.0010000000000000009,-0.051000000000000004,-0.023,0.037,0.039,-0.056,-0.049,0.026000000000000002,,,,,,,,,0.047,0.066,-0.07200000000000001,-0.128,-0.023999999999999997,0.122,-0.02,0.07200000000000001,-0.1,0.08700000000000002,-0.059000000000000004,0.088,10.0,8.0,1.0,12.22,13.93,12.72,13.22,-0.017,0.09700000000000002,-0.016,0.003,103.09,97.6,98.21,100.64999999999999
1628271228.000081,16971.0,4.0,20.0,10.0,2.0,0.0,64.0,0.0,2.0,11.0,0.0,0.0,2.0,2.94,2.05,3.0,21.0,8.0,6.0,13.0,33.0,48.0,81.0,0.0,1500.0,0.1,248.39000000000001,-1.49,2.39,35.0,22.5,0.0,0.0,8.0,0.0,1.5,2.4000000000000004,13.0,0.0,0.0,0.8935504433460614,0.3539620614228342,-0.024999544032783864,-0.027000000000000003,0.016,-0.027,0.0,0.0,0.0,0.008,-0.034999999999999996,-0.049,0.03200058364868164,-0.14000255346298215,-0.19600357484817504,4.000072956085205,-0.1,0.0,0.0,0.0,0.0,0.1170001621246338,-0.6250001482963563,-0.1,0.0,-0.4849975948333741,0.0,9.0,13.073393382847762,4.929531131324449,175.3474177263897,-0.052000000000000005,-0.036000000000000004,-0.04,-0.054,-0.07,-0.066,-0.024,0.008,0.027000000000000003,-0.016,-0.027,-0.012,0.015,0.018000000000000002,-0.035,0.006,0.01,0.014000000000000002,-0.076,0.03,-0.013000000000000001,0.018000000000000006,-0.048,-0.002,0.036000000000000004,-0.026000000000000006,-0.032,-0.024,-0.03500000000000001,-0.035,-0.022,-0.036000000000000004,-0.057999999999999996,-0.048,-0.018000000000000002,-0.054,,,,,0.18000000000000002,0.132,-0.067,-0.14400000000000002,0.01,-0.021,-0.032,-0.012,-0.064,-0.03300000000000001,-0.053,-0.018000000000000002,0.002999999999999999,0.065,-0.083,0.051000000000000004,-0.069,0.14,-0.099,-0.024,,,,,,,,,0.047,0.07,-0.133,0.016,-1.734723475976807e-18,0.023,-0.057,-0.022,-0.32499999999999996,0.05600000000000002,-0.613,,10.0,8.0,1.0,12.68,13.21,13.02,12.84,-0.008,0.034999999999999996,-0.049,0.0,100.64999999999999,102.48,106.14,100.03999999999999
1628271233.000062,16971.0,4.0,20.0,10.0,2.0,0.0,64.0,0.0,2.0,11.0,0.0,0.0,2.0,2.94,2.05,4.0,21.0,8.0,6.0,13.0,33.0,53.0,62.0,0.0,1500.0,0.0,248.39000000000001,-1.49,2.39,35.0,22.5,0.0,0.0,8.0,0.0,1.5,2.4000000000000004,14.0,0.0,0.0,0.71485611962499,0.2831758941058388,-0.020000076294236353,-0.006,-0.034,0.015,0.0,0.0,0.0,-0.009,-0.047,0.003,-0.044999828338623045,-0.2349991035461426,0.014999942779541016,4.999980926513672,-0.1,0.0,0.0,0.0,0.0,0.07200033378601076,-0.8599992518424989,-0.2,0.0,-0.6250001482963563,0.0,9.0,12.978482274598072,6.805874450210593,178.42471322871862,0.006999999999999999,0.008,0.014,-0.001,-0.028,-0.023,0.007,0.013000000000000001,0.006,0.034,0.015,-0.027,0.05200000000000002,0.062,0.009000000000000001,-0.033,0.025,0.029999999999999992,-0.01,-0.011,0.004,0.05299999999999999,0.007,-0.001,0.028,0.002999999999999999,0.013000000000000001,-0.035,-0.018000000000000002,0.025,0.009000000000000001,-0.004,-0.048999999999999995,-0.036000000000000004,0.022,0.022,,,,,0.026000000000000002,0.018000000000000002,0.005,-0.002,0.06,-0.012000000000000004,-0.013000000000000001,-0.015,0.05500000000000001,-0.035,0.025,-0.051000000000000004,-0.04300000000000001,-0.055,-0.028,0.074,0.05299999999999999,0.048,-0.024,-0.021,,,,,,,,,0.07700000000000001,-0.06,0.046,0.018000000000000002,-0.03500000000000001,-0.019000000000000003,0.004,0.01,,,,,10.0,8.0,1.0,12.43,13.44,13.08,12.77,0.009,0.047,0.003,0.0,103.09,100.03999999999999,101.25999999999999,101.87
1628271238.000035,16971.0,4.0,20.0,10.0,2.0,0.0,64.0,0.0,2.0,11.0,0.0,0.0,2.0,2.94,2.05,5.0,21.0,8.0,6.0,13.0,33.0,58.0,35.0,0.0,1500.0,0.1,248.39000000000001,-1.49,2.39,35.0,22.5,0.0,0.0,8.0,0.0,1.5,2.4000000000000004,14.0,0.0,0.0,-0.7148572445019211,-0.2831763397032423,0.020000107765778426,-0.079,-0.054000000000000006,-0.006,0.0,0.0,0.0,-0.044,-0.08700000000000001,0.005,-0.2199988145828247,-0.4349976561069489,0.02499986529350281,4.9999730587005615,0.1,0.0,0.0,0.0,0.0,-0.14799848079681394,-1.2949969079494479,-0.1,0.0,-0.8599992518424989,0.0,9.0,13.044693778624154,4.428318712485214,154.9743629753873,-0.018000000000000002,0.019,-0.017,-0.009000000000000001,0.011000000000000003,0.083,0.0,0.005,0.079,0.054000000000000006,-0.006,-0.05,0.08900000000000001,0.11900000000000002,0.004,-0.022,0.014,0.043,-0.032,-0.009000000000000001,0.024000000000000004,0.05600000000000001,-0.003,-0.043000000000000003,0.047,0.006000000000000002,0.024,0.08,-0.014000000000000002,0.089,0.018000000000000002,0.0,0.004,0.066,0.013000000000000001,0.038,,,,,0.07200000000000001,0.08099999999999999,0.033,0.068,0.08099999999999999,0.048999999999999995,0.02,-0.045,-0.0019999999999999983,0.045,0.026000000000000002,-0.036000000000000004,-0.040999999999999995,0.019999999999999997,-0.019,-0.024,0.03900000000000001,0.021,-0.026000000000000002,-0.095,,,,,,,,,-0.07,-0.031,0.046,0.007,-0.026999999999999996,0.081,0.04,-0.057,-0.10700000000000001,-0.10200000000000001,0.039,,10.0,8.0,1.0,12.86,13.030000000000001,13.11,12.66,0.044,0.08700000000000001,0.005,0.0,100.64999999999999,100.03999999999999,103.09,103.09
1628271243.000007,16971.0,4.0,20.0,10.0,2.0,0.0,64.0,0.0,2.0,11.0,0.0,0.0,2.0,2.94,2.05,6.0,21.0,8.0,6.0,13.0,34.0,3.0,7.0,0.0,1500.0,0.2,248.39000000000001,-1.49,2.39,35.0,22.52,0.0,0.0,8.0,0.0,1.5,2.4000000000000004,14.0,0.0,0.0,-0.7148574149381285,-0.2831764072181227,0.02000011253420253,-0.034,-0.041999999999999996,0.013000000000000001,0.0,0.0,0.0,-0.033,-0.038000000000000006,-0.023,-0.164999071598053,-0.18999893093109133,-0.11499935293197631,4.999971866607666,0.1,0.0,0.0,0.0,0.0,-0.31299755239486693,-1.4849958388805393,0.0,0.0,-1.2949969079494479,0.0,9.0,13.248220617002312,9.043022418583712,-176.07159731688665,-0.001,0.013000000000000001,0.004,0.052000000000000005,0.028999999999999998,0.0,0.006,0.038,0.034,0.041999999999999996,0.013000000000000001,0.006,0.08700000000000001,0.08099999999999999,-0.007,-0.033,0.0009999999999999974,0.063,-0.01,-0.003,0.04499999999999999,0.04,0.003,0.027,-0.008000000000000002,0.024,-0.01,-0.014,-0.018000000000000002,0.026000000000000002,-0.003,-0.027,0.089,0.041,-0.021,-0.061,,,,,-0.136,-0.077,0.02,-0.116,0.08199999999999999,-0.021,-0.017,-0.014,0.077,-0.011,-0.037,0.039,0.015000000000000001,-0.012000000000000002,-0.056,0.011,0.015,-0.008,0.0,-0.003,,,,,,,,,0.06299999999999999,0.075,-0.018000000000000002,-0.126,-0.0020000000000000018,-0.029,-0.034,0.063,,,,,10.0,8.0,1.0,12.200000000000001,13.84,13.13,12.8,0.033,0.038000000000000006,-0.023,0.0,97.6,98.82,104.92,95.77
1628271247.000093,16971.0,4.0,20.0,10.0,2.0,0.0,64.0,0.0,2.0,11.0,0.0,0.0,2.0,2.94,2.05,7.0,21.0,8.0,6.0,13.0,34.0,7.0,93.0,0.0,1500.0,0.2,248.39000000000001,-1.49,2.39,35.0,22.5,0.0,0.0,8.0,0.0,1.5,2.4000000000000004,14.0,0.0,0.0,,,,-0.048999999999999995,-0.017,0.01,0.0,0.0,0.0,-0.05500000000000001,-0.05600000000000001,-0.013000000000000001,-0.22000473380088809,-0.22400481986999515,-0.05200111889839173,4.000086069107056,0.0,0.0,0.0,0.0,0.0,-0.5330022861957551,-1.7090006587505344,0.0,0.0,-1.4849958388805393,0.0,9.0,13.339992628215754,10.385292075203594,-178.93312675779953,0.004,0.002,0.005,-0.024,0.046,-0.0019999999999999966,-0.002,0.022,0.048999999999999995,0.017,0.01,0.016,0.059,0.033,-0.001,0.01,0.008,0.022,0.002,-0.023,0.05100000000000001,0.045,0.003,0.004,0.033999999999999996,0.08700000000000001,0.006,0.021,0.005999999999999998,0.05700000000000001,-0.015,0.027,-0.031,0.025000000000000005,0.012,0.056,,,,,-0.046999999999999986,-0.139,-0.07,0.097,0.036000000000000004,-0.012,-0.004,-0.03,-0.024,0.028000000000000004,-0.011,-0.039,-0.006000000000000002,-0.035,-0.029,-0.021,0.052000000000000005,-0.005999999999999998,-0.035,0.015,,,,,,,,,0.23099999999999998,-0.09500000000000001,0.209,,0.038,0.03,-0.01,0.054,-0.15899999999999997,0.18299999999999997,-0.193,0.41200000000000003,10.0,8.0,1.0,12.13,14.08,13.34,12.77,0.05500000000000001,0.05600000000000001,-0.013000000000000001,0.0,103.09,100.64999999999999,106.14,99.42999999999999
1628271252.000096,16971.0,4.0,20.0,10.0,2.0,0.0,64.0,0.0,2.0,11.0,0.0,0.0,2.0,2.94,2.05,8.0,21.0,8.0,6.0,13.0,34.0,12.0,96.0,0.0,1500.0,0.2,248.39000000000001,-1.49,2.39,35.0,22.52,0.0,0.0,8.0,0.0,1.5,2.4000000000000004,14.0,0.0,0.0,,,,-0.016,-0.017,-0.035,0.0,0.0,0.0,-0.026000000000000002,-0.045,-0.016,-0.13000008058547974,-0.22500013947486877,-0.08000004959106445,5.000003099441528,0.0,0.0,0.0,0.0,0.0,-0.6630023667812348,-1.9340007982254033,0.0,0.0,-1.7090006587505344,0.0,9.0,13.128235623158167,4.929939898140944,163.68056529176854,0.016,0.016,-0.021,-0.02,-0.003,0.007,-0.011,0.029,0.016,0.017,-0.035,0.014,0.039,0.055,-0.014,-0.039,0.013000000000000001,0.09000000000000001,-0.026000000000000002,0.023,0.008,0.066,-0.02,0.0,-0.008,0.07200000000000001,-0.011,0.005,-0.009000000000000001,-0.014,-0.018000000000000002,0.014,-0.056,0.019,-0.006,-0.07,,,,,-0.119,0.018000000000000002,-0.007,0.058,0.048999999999999995,-0.026999999999999996,-0.002,0.017,-0.038000000000000006,-0.037,0.006,-0.024,0.022,-0.017,-0.022,-0.017,0.07500000000000001,0.017,-0.04,-0.008,,,,,,,,,0.053,0.038,-0.027,-0.088,-0.052000000000000005,0.046,0.008,0.029,,,,,10.0,8.0,1.0,12.71,13.1,13.08,12.68,0.026000000000000002,0.045,-0.016,0.0,100.03999999999999,105.53,101.87,102.48
1628271257.000073,16971.0,4.0,20.0,10.0,2.0,0.0,64.0,0.0,2.0,11.0,0.0,0.0,2.0,2.94,2.05,9.0,21.0,8.0,6.0,13.0,34.0,17.0,73.0,0.0,1500.0,0.1,248.39000000000001,-1.49,2.39,35.0,22.52,0.0,0.0,8.0,0.0,1.5,2.4000000000000004,14.0,0.0,0.0,0.7148566991066032,0.2831761236558412,-0.020000092506836566,-0.049,-0.052000000000000005,-0.069,0.0,0.0,0.0,-0.024999999999999998,-0.095,-0.064,-0.12499942183494567,-0.4749978029727936,-0.3199985198974609,4.999976873397827,-0.1,0.0,0.0,0.0,0.0,-0.7880017886161805,-2.408998601198197,-0.1,0.0,-1.9340007982254033,0.0,9.0,13.174144153215604,8.798657264761916,167.05545990003395,-0.02,0.018000000000000002,-0.041,0.0,0.011,0.031,-0.059000000000000004,0.006,0.049,0.052000000000000005,-0.069,-0.009000000000000001,0.06699999999999999,0.097,-0.076,0.008,0.038000000000000006,0.07100000000000001,-0.094,0.022,-0.0010000000000000044,0.074,-0.048,-0.021,-3.469446951953614e-18,0.065,-0.048,0.002,-0.049,0.044,-0.051000000000000004,0.034,0.02600000000000001,0.040999999999999995,-0.051000000000000004,0.107,,,,,-0.128,0.15,-0.13,-0.058,0.005000000000000002,0.017,-0.047,0.035,-0.023,0.001999999999999999,-0.019,-0.006,0.006,0.018000000000000002,-0.058,0.044,0.013999999999999999,0.05700000000000001,-0.078,-0.01,-0.013000000000000012,0.539,-0.023,,,,,,-0.08499999999999999,-0.006999999999999999,0.093,-0.048,0.012,-0.0009999999999999992,-0.043000000000000003,0.014,-0.06899999999999999,-0.177,-0.214,0.219,10.0,8.0,1.0,12.39,13.67,13.46,12.540000000000001,0.024999999999999998,0.095,-0.064,0.0,95.77,105.53,106.75,98.82
1628271262.000046,16971.0,4.0,20.0,10.0,2.0,0.0,64.0,0.0,2.0,11.0,0.0,0.0,2.0,2.94,2.05,10.0,21.0,8.0,6.0,13.0,34.0,22.0,46.0,0.0,1500.0,0.2,248.39000000000001,-1.49,2.39,35.0,22.52,0.0,0.0,8.0,0.0,1.5,2.4000000000000004,14.0,0.0,0.0,-0.7148572445019211,-0.2831763397032423,0.020000107765778426,0.004,-0.020999999999999998,0.019,0.0,0.0,0.0,0.018000000000000002,-0.006,-0.024,0.08999951505661012,-0.029999838352203368,-0.11999935340881347,4.9999730587005615,0.1,0.0,0.0,0.0,0.0,-0.6980022735595705,-2.4389984395504003,0.0,0.0,-2.408998601198197,0.0,9.0,13.103363676260255,2.855614278692318,174.57644476363527,-0.064,-0.063,0.009000000000000001,-0.038,-0.026000000000000002,-0.016,0.012,-0.001,-0.004,0.020999999999999998,0.019,-0.004,0.0049999999999999975,0.04,0.01,-0.043000000000000003,0.022,0.026000000000000002,-0.004,-0.011,-0.036000000000000004,-0.025,0.001,0.025,-0.023,0.019,0.009000000000000001,-0.061,-0.013000000000000003,0.075,0.025,-0.006,-0.029,0.008,0.109,0.012,,,,,-0.154,0.058,0.037,0.055,-0.016999999999999998,0.053,0.002,-0.025,-0.033,-0.049,-0.002,0.03,0.092,0.012,0.017,-0.005,-0.045,-0.09,-0.018000000000000002,0.014,-0.10099999999999999,-0.08299999999999999,0.2,,,,,,-0.063,-0.063,-0.031,0.19,0.052,0.025,0.024,0.068,-0.34900000000000003,-0.054000000000000006,-0.34800000000000003,0.113,10.0,8.0,1.0,12.870000000000001,12.91,12.86,12.91,-0.018000000000000002,0.006,-0.024,0.0,99.42999999999999,106.14,102.48,102.48
1628271267.00003,16971.0,4.0,20.0,10.0,2.0,0.0,64.0,0.0,2.0,11.0,0.0,0.0,2.0,2.94,2.05,11.0,21.0,8.0,6.0,13.0,34.0,27.0,30.0,0.0,1500.0,0.2,248.39000000000001,-1.49,2.39,35.0,22.54,0.0,0.0,8.0,0.0,1.5,2.4000000000000004,14.0,0.0,0.0,,,,-0.008999999999999998,-0.074,0.054,0.0,0.0,0.0,0.013,-0.044,0.046,0.0649997923374176,-0.2199992971420288,0.2299992651939392,4.9999840259552,0.0,0.0,0.0,0.0,0.0,-0.6330024812221529,-2.658997736692429,0.0,0.0,-2.4389984395504003,0.0,9.0,13.055820110681939,4.470764550087549,-115.44756726511322,-0.034,-0.013,0.063,0.005,0.001999999999999999,-0.011,0.08600000000000001,0.006,0.008999999999999998,0.074,0.054,-0.002,-0.0020000000000000018,0.118,0.059000000000000004,-0.01,0.04599999999999999,0.095,0.049,0.03,-0.027,0.039,0.047,0.024,0.037,-0.007000000000000001,0.078,-0.10400000000000001,-0.009000000000000001,0.022999999999999996,0.078,0.002,-0.023,-0.008000000000000002,0.031,-0.016,,,,,-0.03900000000000001,-0.010000000000000002,0.092,0.03,0.061000000000000006,0.036000000000000004,0.052000000000000005,0.035,-0.013000000000000001,-0.001,0.061,0.039,0.006999999999999999,-0.030999999999999996,0.016,-0.004,-0.025,-0.036000000000000004,0.038,0.031,,,,,,,,,-0.052000000000000005,-0.07,0.047,0.042,0.026000000000000006,-0.04700000000000001,0.046,0.033,0.019000000000000003,0.002000000000000001,0.094,0.049,10.0,8.0,1.0,12.76,12.99,12.280000000000001,13.46,-0.013,0.044,0.046,0.0,99.42999999999999,102.48,107.36,96.99
1628271272.000005,16971.0,4.0,20.0,10.0,2.0,0.0,64.0,0.0,2.0,11.0,0.0,0.0,2.0,2.94,2.05,12.0,21.0,8.0,6.0,13.0,34.0,32.0,5.0,0.0,1500.0,0.2,248.39000000000001,-1.49,2.39,35.0,22.56,0.0,0.0,8.0,0.0,1.5,2.4000000000000004,14.0,0.0,0.0,,,,-0.047,-0.07100000000000001,0.012,0.0,0.0,0.0,-0.0,-0.10400000000000001,0.024,-0.0,-0.5199973964691162,0.11999939918518067,4.999974966049194,0.0,0.0,0.0,0.0,0.0,-0.6330024812221529,-3.1789951331615454,0.0,0.0,-2.658997736692429,0.0,9.0,12.94142771060402,6.431427906512682,-112.01420195175041,-0.006,0.017,0.02,-0.041,0.039,0.05600000000000001,0.007,0.013000000000000001,0.047,0.07100000000000001,0.012,0.001,0.13300000000000003,0.138,0.055,0.08700000000000001,0.18400000000000002,0.056000000000000015,0.035,0.09,-0.017,0.06899999999999999,0.013000000000000001,0.029,0.08199999999999999,0.029999999999999995,0.023,0.023,0.020000000000000004,0.082,0.059000000000000004,0.028,-0.026000000000000002,0.021000000000000005,0.022,-0.036000000000000004,,,,,0.004,0.091,0.004,-0.011,0.006,0.023,0.048,0.01,0.026000000000000002,-0.04000000000000001,0.044,-0.036000000000000004,-0.039,-0.03,0.03,-0.062,-0.062,0.049,-0.024,0.003,,,,,,,,,-0.047,-0.045,0.04,0.033,-0.10200000000000001,0.025,0.092,0.046,,,,,10.0,8.0,1.0,12.48,13.01,12.0,13.59,0.0,0.10400000000000001,0.024,0.0,102.48,106.14,108.58,95.77
1628271276.000079,16971.0,4.0,20.0,10.0,2.0,0.0,64.0,0.0,2.0,11.0,0.0,0.0,2.0,2.94,2.05,13.0,21.0,8.0,6.0,13.0,34.0,36.0,79.0,0.0,1500.0,0.2,248.39000000000001,-1.49,2.39,35.0,22.56,0.0,0.0,8.0,0.0,1.5,2.4000000000000004,14.0,0.0,0.0,,,,-0.028999999999999998,0.05,0.043000000000000003,0.0,0.0,0.0,-0.004,-0.009000000000000001,0.053,-0.016000295639038088,-0.0360006651878357,0.21200391721725464,4.0000739097595215,0.0,0.0,0.0,0.0,0.0,-0.6490027768611909,-3.214995798349381,0.0,0.0,-3.1789951331615454,0.0,17.0,13.581142262863223,21.00236556001364,-79.44297978176067,0.03900000000000001,-0.066,0.031,-0.018000000000000002,0.036000000000000004,-0.08900000000000001,0.016,0.01,0.028999999999999998,-0.05,0.043000000000000003,-0.002,0.026000000000000002,0.011,0.057,0.024,-0.035,-0.005000000000000001,0.032,-0.056,0.020000000000000004,-0.009,0.058,0.017,-0.004,0.005,0.051000000000000004,0.046,-0.013000000000000001,0.033,0.077,0.008,-0.099,0.0010000000000000078,-0.068,-0.022,-0.185,-0.054000000000000006,0.005,0.191,0.008,0.036000000000000004,0.033,0.004,0.01,0.020000000000000004,0.076,-0.047,-0.030000000000000002,-0.06,0.08600000000000001,-0.017,-0.018000000000000002,-0.04800000000000001,0.077,-0.045,-0.04000000000000001,-0.026000000000000002,0.044,-0.015,-0.026000000000000002,0.03600000000000001,0.077,-0.092,-0.02199999999999999,-0.094,0.101,0.088,0.118,0.05899999999999999,0.065,,-0.014999999999999998,-0.012,0.013000000000000001,-0.07100000000000001,0.09500000000000001,0.22900000000000004,-0.20600000000000002,,10.0,8.0,1.0,13.26,13.76,10.91,17.6,0.004,0.009000000000000001,0.053,-0.004,103.09,106.75,104.92,95.77
1628271281.000065,16971.0,4.0,20.0,10.0,2.0,0.0,64.0,0.0,2.0,11.0,0.0,0.0,2.0,2.94,2.05,14.0,21.0,8.0,6.0,13.0,34.0,41.0,65.0,0.0,1500.0,0.2,248.39000000000001,-1.49,2.39,35.0,22.56,0.0,0.0,8.0,0.0,1.5,2.4000000000000004,14.0,0.0,0.0,,,,-0.017,0.054,0.065,0.0,0.0,0.0,-0.005000000000000003,0.03200000000000001,0.069,-0.024999930858612074,0.1599995574951172,0.34499904584884644,4.999986171722412,0.0,0.0,0.0,0.0,0.0,-0.674002707719803,-3.0549962408542637,0.0,0.0,-3.214995798349381,0.0,8.0,13.672921822998328,27.405431211061295,-75.9359539330243,-0.012,-0.082,0.049,0.002,0.016,-0.061,0.055,0.044,0.017,-0.054,0.065,0.008,0.052000000000000005,0.063,0.049,0.021,-0.026000000000000002,0.006,0.109,-0.047,0.018000000000000002,-0.025,0.077,-0.018000000000000002,-8.673617379884035e-19,0.02,0.077,0.021,0.001,0.003,0.06,0.027,,,,,,,,,0.069,-0.09,0.096,0.053,0.0050000000000000044,-0.07700000000000001,0.055,0.001,-0.020999999999999998,-0.035,0.062,-0.026000000000000002,-0.0010000000000000009,0.04,0.06,0.011,0.040999999999999995,-0.019,0.045,0.007,0.041,0.041999999999999996,0.026000000000000002,-0.05,0.016,-0.162,0.059000000000000004,0.079,-0.147,-0.102,0.054,0.008,0.046,-0.062000000000000006,0.006,,,,,,10.0,8.0,1.0,13.58,14.0,10.21,19.76,0.005000000000000003,-0.03200000000000001,0.069,0.003,98.21,106.75,106.75,90.28
1628271286.00004,16971.0,4.0,20.0,10.0,2.0,0.0,64.0,0.0,2.0,11.0,0.0,0.0,2.0,2.94,2.05,15.0,21.0,8.0,6.0,13.0,34.0,46.0,40.0,0.0,1500.0,0.2,248.39000000000001,-1.49,2.39,35.0,22.56,0.0,0.0,8.0,0.0,1.5,2.4000000000000004,14.0,0.0,0.0,,,,-0.033999999999999996,0.088,0.085,0.0,0.0,0.0,-0.010000000000000005,0.10400000000000001,0.07200000000000001,-0.04999974966049197,0.5199973964691162,0.359998197555542,4.999974966049194,0.0,0.0,0.0,0.0,0.0,-0.7240024573802949,-2.5349988443851474,0.0,0.0,-3.0549962408542637,0.0,8.0,13.441644865669156,26.783952740226542,-75.09941971201096,0.0030000000000000027,-0.163,0.043000000000000003,0.022,0.04,-0.161,0.053,0.014,0.033999999999999996,-0.088,0.085,0.015,0.033,-0.055,0.108,-0.018000000000000002,0.006000000000000002,-0.032,0.123,-0.016,-0.034,0.031,0.083,0.018000000000000002,-0.036000000000000004,-0.0009999999999999992,0.066,0.016,-0.027000000000000003,0.014000000000000002,0.046,0.045,0.16000000000000003,0.04800000000000001,0.114,,,,,,-0.014000000000000005,-0.127,0.043000000000000003,0.066,0.032,-0.08899999999999998,0.10400000000000001,-0.026000000000000002,0.041999999999999996,-0.026000000000000002,0.058,-0.032,-0.015,-0.019000000000000003,0.07,0.015,0.05399999999999999,-0.077,0.047,-0.023,0.038,-0.039,0.055,0.033,-0.037000000000000005,-0.201,0.084,0.077,0.03300000000000001,-0.064,0.092,0.036000000000000004,-0.07200000000000001,-0.026,0.078,,,,,,10.0,8.0,1.0,13.38,13.65,10.13,19.25,0.010000000000000005,-0.10400000000000001,0.07200000000000001,0.019,100.03999999999999,106.75,102.48,98.21
1628271291.000014,16971.0,4.0,20.0,10.0,2.0,0.0,64.0,0.0,2.0,11.0,0.0,0.0,2.0,2.94,2.05,16.0,21.0,8.0,6.0,13.0,34.0,51.0,14.0,0.0,1500.0,0.6000000000000001,248.39000000000001,-1.49,2.39,35.0,22.580000000000002,0.0,0.0,8.0,0.0,1.5,2.4000000000000004,14.0,0.0,0.0,-2.8594284326120545,-1.1327051427654444,0.08000041580416312,-0.06,0.068,0.084,0.0,0.0,0.0,-0.011999999999999997,0.08600000000000001,0.088,-0.05999968814849852,0.42999776506423953,0.4399977130889892,4.999974012374878,0.4000000000000001,0.0,0.0,0.0,0.0,-0.7840021455287934,-2.1050010793209077,0.4000000000000001,0.0,-2.5349988443851474,0.0,8.0,12.99054106537908,24.796664008936524,-78.2053391857489,-0.013999999999999992,-0.152,0.062,0.05,0.062,-0.152,0.074,0.024,0.06,-0.068,0.084,0.002,0.01,-0.021,0.10300000000000001,-0.008,-0.04000000000000001,0.0029999999999999957,0.092,-0.044,0.042,-0.028000000000000004,0.073,0.044,0.025,-0.006000000000000003,0.073,0.061,-0.07900000000000001,0.04599999999999999,0.211,-0.053,-0.199,-0.042000000000000016,-0.162,,-0.040999999999999995,-0.08,-0.011,0.009000000000000001,0.041,-0.07900000000000001,0.051000000000000004,-0.005,0.048,-0.056999999999999995,0.053,-0.042,0.06500000000000002,0.010000000000000004,0.095,-0.049,0.05999999999999999,-0.06,0.112,0.025,-0.013000000000000001,-0.07100000000000001,0.078,0.027,-0.02399999999999998,-0.21100000000000002,0.123,-0.08600000000000001,0.265,0.03699999999999999,-0.004,,0.039,-0.10899999999999999,0.091,0.095,-0.128,-0.006000000000000005,0.088,,,,,,10.0,8.0,1.0,12.200000000000001,12.74,9.82,17.44,0.011999999999999997,-0.08600000000000001,0.088,0.001,100.64999999999999,104.31,107.36,96.38
1628271295.000095,16971.0,4.0,20.0,10.0,2.0,0.0,64.0,0.0,2.0,11.0,0.0,0.0,2.0,2.94,2.05,17.0,21.0,8.0,6.0,13.0,34.0,55.0,95.0,0.0,1500.0,0.8,248.39000000000001,-1.49,2.39,35.0,22.580000000000002,0.0,0.0,8.0,0.0,1.5,2.4000000000000004,14.0,0.0,0.0,-1.7870973716192013,-0.70792273042013,0.049998989721684706,-0.04200000000000001,0.091,0.024,0.0,0.0,0.0,-0.013999999999999999,0.119,0.014,-0.056001131534576414,0.4760096180438995,0.05600113153457642,4.000080823898315,0.19999999999999996,0.0,0.0,0.0,0.0,-0.8400032770633699,-1.6289914612770082,0.6000000000000001,0.0,-2.1050010793209077,0.0,7.0,12.382876188830583,21.646336306786658,-80.89314825429857,0.057999999999999996,-0.13399999999999998,0.022,-0.033,0.013999999999999999,-0.165,0.007,0.015,0.04200000000000001,-0.091,0.024,0.019,0.011,-0.016000000000000004,0.077,-0.038,0.0019999999999999996,0.008,0.024,-0.023,-0.063,-0.046,-0.009000000000000001,0.024,-0.07,0.015,-0.056,0.037,,,,,-0.06899999999999999,-0.011999999999999997,-0.053,0.015,-0.008000000000000007,-0.116,-0.002,0.055,-0.05399999999999999,-0.133,0.052000000000000005,-0.049,0.038,-0.05499999999999999,0.011,-0.022,0.036000000000000004,-0.12199999999999998,-0.009000000000000001,-0.015,0.014000000000000002,-0.089,-0.032,-0.018000000000000002,0.039,-0.20400000000000001,0.043000000000000003,,,,,,0.088,-0.04100000000000001,-0.021,,0.008,-0.039,0.01,-0.042,-0.015999999999999993,-0.121,-0.031,-0.011,,,,,10.0,8.0,1.0,11.36,11.96,9.43,15.39,0.013999999999999999,-0.119,0.014,0.0,97.6,100.64999999999999,101.25999999999999,101.87
1628271300.000091,16971.0,4.0,20.0,10.0,2.0,0.0,64.0,0.0,2.0,11.0,0.0,0.0,2.0,2.94,2.05,18.0,21.0,8.0,6.0,13.0,35.0,0.0,91.0,0.0,1500.0,1.8,248.39000000000001,-1.49,2.39,35.0,22.580000000000002,0.0,0.0,8.0,0.0,1.5,2.4000000000000004,14.0,0.0,0.0,-7.148539380555777,-2.8317502992093235,0.20000015258800705,-0.044,0.177,0.07,0.0,0.0,0.0,-0.021999999999999992,0.17,0.051000000000000004,-0.10999991607666011,0.8499993515014649,0.2549998054504395,4.999996185302734,1.0,0.0,0.0,0.0,0.0,-0.95000319314003,-0.7789921097755433,1.6,0.0,-1.6289914612770082,0.0,7.0,13.441123563595639,27.55866925630262,-76.10836407931798,0.040999999999999995,-0.185,0.04,-0.004,0.03300000000000001,-0.192,0.044,-0.007,0.044,-0.177,0.07,0.023,0.013000000000000001,-0.0010000000000000009,0.13,0.001,0.012000000000000002,-0.038,0.053,-0.021,0.051000000000000004,-0.022,0.047,0.01,-0.012,0.010999999999999998,0.008,0.044,,,,,,,,,0.111,-0.124,0.088,0.019,-0.05100000000000002,-0.147,0.075,0.013000000000000001,0.017,-0.08399999999999999,0.037,0.013000000000000001,0.025,-0.03,0.008,-0.066,-0.018,-0.094,0.027,0.014,-0.020999999999999998,-0.12199999999999998,-0.046,0.021,0.08000000000000002,-0.156,-0.02,-0.037,-0.13300000000000003,-0.123,0.043000000000000003,0.059000000000000004,0.069,0.042,0.096,,-0.168,-0.041999999999999996,0.10400000000000001,-0.093,0.32300000000000006,-0.362,0.131,,10.0,8.0,1.0,11.620000000000001,12.01,8.91,17.22,0.021999999999999992,-0.17,0.051000000000000004,0.013000000000000001,103.09,104.92,107.97,101.25999999999999
1628271305.000065,16971.0,4.0,20.0,10.0,2.0,0.0,64.0,0.0,2.0,11.0,0.0,0.0,2.0,2.94,2.05,19.0,21.0,8.0,6.0,13.0,35.0,5.0,65.0,0.0,1500.0,2.3000000000000003,248.39000000000001,-1.49,2.39,35.0,22.61,0.0,0.0,8.0,0.0,1.5,2.4000000000000004,14.0,0.0,0.0,-3.5742855407650693,-1.4158814284568062,0.10000051975520392,-0.037,0.093,0.068,0.0,0.0,0.0,-0.03,0.168,0.056,-0.14999922037124633,0.8399956340789796,0.2799985446929932,4.999974012374878,0.5000000000000002,0.0,0.0,0.0,0.0,-1.1000024135112763,0.06100352430343625,2.1000000000000005,0.0,-0.7789921097755433,0.0,7.0,13.523307573685392,28.435535602925924,-76.25773132535043,0.05499999999999999,-0.21699999999999997,0.028,0.017,0.042,-0.17,0.052000000000000005,0.012,0.037,-0.093,0.068,0.011,0.002000000000000001,-0.023,0.108,-0.055,0.031,-0.043000000000000003,0.056,-0.025,0.038000000000000006,-0.02,0.049,0.067,0.032,0.010000000000000002,-0.022,0.033,-0.066,0.03,-0.046,,,,,,0.06,-0.17500000000000004,0.047,0.044,0.05299999999999999,-0.10599999999999998,0.034,0.035,0.059,-0.10700000000000001,0.033,-0.002,0.047,-0.061000000000000006,0.032,-0.055,0.015,-0.127,-0.006,0.019,-0.024999999999999988,-0.168,0.024,-0.009000000000000001,-0.060000000000000005,-0.178,-0.008,-0.002,0.15299999999999997,-0.19,0.019,0.014,-0.028000000000000004,-0.10999999999999999,0.05,-0.009000000000000001,0.134,-0.10300000000000004,-0.038,-0.184,,,,,10.0,8.0,1.0,11.23,11.66,8.47,16.84,0.03,-0.168,0.056,-0.004,104.31,103.7,104.31,92.72
1628271310.000041,16971.0,4.0,20.0,10.0,2.0,0.0,64.0,0.0,2.0,11.0,0.0,0.0,2.0,2.94,2.05,20.0,21.0,8.0,6.0,13.0,35.0,10.0,41.0,0.0,1500.0,2.6,248.39000000000001,-1.49,2.39,35.0,22.63,0.0,0.0,8.0,0.0,1.5,2.4000000000000004,14.0,0.0,0.0,-2.1445705063660627,-0.8495285330029811,0.060000288964709506,-0.033999999999999996,0.09899999999999999,0.1,0.0,0.0,0.0,-0.033,0.20500000000000002,0.044,-0.16499920535087587,1.0249950635433198,0.21999894046783447,4.999975919723511,0.2999999999999998,0.0,0.0,0.0,0.0,-1.265001618862152,1.0859985878467562,2.4000000000000004,0.0,0.06100352430343625,0.0,6.0,12.533049389730197,23.701716828035522,-79.83922342850161,0.063,-0.228,0.019,-0.006,0.07200000000000002,-0.17300000000000004,0.044,-0.013000000000000001,0.033999999999999996,-0.09899999999999999,0.1,0.003,0.027,-0.002999999999999999,0.08600000000000001,-0.018000000000000002,0.029,-0.06800000000000002,0.024,0.092,-0.05299999999999999,-0.0030000000000000027,-0.016,0.033,0.27099999999999996,-0.004000000000000017,0.039,,0.0019999999999999983,-0.07399999999999998,-0.022,0.007,0.036000000000000004,-0.133,0.022,0.038,0.0019999999999999983,-0.06699999999999999,0.097,0.013000000000000001,0.014999999999999998,-0.062,0.085,-0.021,-0.005000000000000001,-0.062,0.022,-0.015,0.029000000000000005,-0.148,-0.007,-0.012,0.021999999999999995,-0.07100000000000001,-0.057,-0.061,0.089,0.0010000000000000044,-0.076,,-0.037000000000000005,-0.306,0.132,,0.032,-0.014,0.109,0.067,0.002999999999999999,-0.08199999999999999,0.068,0.061,-0.10599999999999998,0.075,0.024,0.265,,,,,10.0,8.0,1.0,9.72,10.25,7.96,13.69,0.033,-0.20500000000000002,0.044,0.007,104.92,105.53,107.36,99.42999999999999
1628271315.000021,16971.0,4.0,20.0,10.0,2.0,0.0,64.0,0.0,2.0,11.0,0.0,0.0,2.0,2.94,2.05,21.0,21.0,8.0,6.0,13.0,35.0,15.0,21.0,0.0,1500.0,3.5,248.39000000000001,-1.49,2.39,35.0,22.63,0.0,0.0,8.0,0.0,1.5,2.4000000000000004,14.0,0.0,0.0,-6.4337063037616815,-2.5485835330581352,0.18000072098067102,-0.04,0.052,0.10400000000000001,0.0,0.0,0.0,-0.04300000000000001,0.19400000000000003,0.034,-0.21499913883209235,0.9699961147308351,0.1699993190765381,4.9999799728393555,0.8999999999999999,0.0,0.0,0.0,0.0,-1.4800007576942444,2.0559947025775913,3.3000000000000003,0.0,1.0859985878467562,0.0,5.0,12.710571779831076,21.927340123685852,-79.13244387884669,0.046000000000000006,-0.179,0.032,-0.005,0.07700000000000001,-0.16500000000000004,0.045,0.012,0.04,-0.052,0.10400000000000001,-0.025,0.047,-0.049,0.051000000000000004,-0.032,-0.026000000000000002,0.004,-0.021,0.08700000000000001,,,,,-0.011,-0.053,-0.084,0.08,0.047,-0.009999999999999998,-0.032,0.068,6.938893903907228e-18,-0.14100000000000001,0.06,-0.015,0.021,-0.04000000000000001,0.044,-0.023,-0.0029999999999999957,-0.11200000000000002,-0.009000000000000001,0.024,-0.022,-0.14400000000000002,-0.101,0.019,0.015999999999999997,-0.10599999999999998,-0.056,0.08,0.22399999999999998,-0.2,-0.133,,,,,,0.044,-0.132,0.018000000000000002,,-0.024999999999999998,-0.095,0.01,0.069,0.006999999999999999,-0.11200000000000002,0.002,-0.10300000000000001,,,,,,,,,10.0,8.0,1.0,9.07,9.43,7.5,12.35,0.04300000000000001,-0.19400000000000003,0.034,0.0,104.92,107.36,112.24,101.87
1628271319.000098,16971.0,4.0,20.0,10.0,2.0,0.0,64.0,0.0,2.0,11.0,0.0,0.0,2.0,2.94,2.05,22.0,21.0,8.0,6.0,13.0,35.0,19.0,98.0,0.0,1500.0,4.0,248.39000000000001,-1.49,2.39,35.0,22.63,0.0,0.0,8.0,0.0,1.5,2.4000000000000004,14.0,0.0,0.0,-4.467747689738137,-1.7698085138371464,0.12499759350879769,0.031,0.006,0.117,0.0,0.0,0.0,-0.026999999999999996,0.22,0.028,-0.10800207924842833,0.880016942024231,0.1120021562576294,4.00007700920105,0.5,0.0,0.0,0.0,0.0,-1.5880028369426729,2.9360116446018223,3.8000000000000003,0.0,2.0559947025775913,0.0,5.0,12.785367463558622,25.625636321072502,-77.68544111659864,0.047000000000000014,-0.184,0.018000000000000002,-0.043000000000000003,0.09,-0.19000000000000003,0.024,-0.023,-0.031,-0.006,0.117,-0.035,0.0029999999999999975,-0.021999999999999995,0.027,0.021,0.019,-0.049,-0.036000000000000004,0.092,,,,,0.018000000000000002,-0.044,-0.107,0.042,0.044,-0.057000000000000016,-0.017,0.112,0.07,-0.121,0.065,0.045,0.05500000000000001,-0.028,0.038,-0.063,0.004,-0.041,-0.025,-0.035,-0.024999999999999994,-0.139,-0.035,0.011,-0.10199999999999998,-0.201,-0.077,0.044,-0.017000000000000008,-0.105,-0.135,,0.261,-0.42600000000000005,-0.10200000000000001,,0.001999999999999995,-0.07,0.037,0.105,0.029000000000000005,-0.08600000000000001,0.006,0.005,0.09,-0.057999999999999996,-0.006,-0.093,,,,,,,,,10.0,8.0,1.0,8.68,9.05,6.890000000000001,12.540000000000001,0.026999999999999996,-0.22,0.028,-0.004,98.21,103.09,108.58,95.77
1628271324.000072,16971.0,4.0,20.0,10.0,2.0,0.0,64.0,0.0,2.0,11.0,0.0,0.0,2.0,2.94,2.05,23.0,21.0,8.0,6.0,13.0,35.0,24.0,72.0,0.0,1500.0,4.5,248.39000000000001,-1.49,2.39,35.0,22.650000000000002,0.0,0.0,8.0,0.0,1.5,2.4000000000000004,14.0,0.0,0.0,-3.5742855407650675,-1.4158814284568055,0.10000051975520388,0.020000000000000004,0.0020000000000000018,0.11,0.0,0.0,0.0,-0.02100000000000002,0.261,0.034,-0.10499945425987253,1.3049932172298433,0.16999911642074586,4.999974012374878,0.5,0.0,0.0,0.0,0.0,-1.6930022912025453,4.241004861831666,4.300000000000001,0.0,2.9360116446018223,0.0,5.0,12.713871816777374,28.710017373912667,-77.09892390503857,0.03600000000000001,-0.243,0.044,0.014,0.030999999999999993,-0.17,0.1,0.025,-0.020000000000000004,-0.0020000000000000018,0.11,-0.052000000000000005,0.037,-0.028000000000000004,0.007,0.05,0.011,-0.063,-0.059000000000000004,0.1,,,,,0.022,0.007,-0.08700000000000001,0.096,0.054,-0.135,0.012,0.123,-0.07200000000000001,-0.225,0.048,0.012,-0.0050000000000000044,-0.123,0.023,-0.008,0.042,-0.11000000000000001,-0.025,-0.038,0.033,-0.123,-0.065,-0.073,0.013999999999999999,-0.308,-0.097,0.051000000000000004,-0.08800000000000001,-0.2,0.01,0.085,0.023999999999999994,-0.19599999999999998,0.057,-0.035,-0.02099999999999999,-0.16000000000000003,0.024,0.013000000000000001,0.048,-0.105,0.016,-0.029,0.0050000000000000044,-0.24900000000000003,0.047,,,,,,,,,,10.0,8.0,1.0,8.120000000000001,8.52,6.24,12.43,0.02100000000000002,-0.261,0.034,0.002,103.7,107.97,112.85,103.09
1628271329.000051,16971.0,4.0,20.0,10.0,2.0,0.0,64.0,0.0,2.0,11.0,0.0,0.0,2.0,2.94,2.05,24.0,21.0,8.0,6.0,13.0,35.0,29.0,51.0,0.0,1500.0,5.1000000000000005,248.39000000000001,-1.49,2.39,35.0,22.67,0.0,0.0,8.0,0.0,1.5,2.4000000000000004,14.0,0.0,0.0,-4.2891383539326196,-1.6990560127759393,0.12000050354215211,0.006,0.045000000000000005,0.061,0.0,0.0,0.0,0.007000000000000006,0.261,0.048,0.0349998531341553,1.3049945240020753,0.23999899291992188,4.999979019165039,0.6000000000000005,0.0,0.0,0.0,0.0,-1.65800243806839,5.545999385833741,4.900000000000001,0.0,4.241004861831666,0.0,13.0,12.270980837280316,25.15078780938886,-79.77745263021303,0.014000000000000012,-0.249,0.052000000000000005,-0.001,0.013000000000000001,-0.08899999999999998,0.132,-0.031,-0.006,-0.045000000000000005,0.061,-0.063,0.0,-0.026000000000000002,-0.018000000000000002,0.11900000000000001,-0.05999999999999999,-0.0009999999999999974,-0.081,-0.027,-0.06999999999999999,-0.032,-0.016,0.131,0.011000000000000001,-0.064,0.012,0.151,0.08900000000000001,-0.184,0.067,0.057,0.027000000000000007,-0.13200000000000003,0.053,-0.036000000000000004,0.069,-0.055,0.031,-0.016,-0.008000000000000007,-0.158,-0.023,0.031,-0.016000000000000014,-0.225,-0.038,0.033,-0.09500000000000001,0.16000000000000003,-0.121,0.312,,,,,-0.015,-0.11599999999999999,0.08700000000000001,0.12,0.014000000000000002,-0.10300000000000001,0.082,0.055,-0.058,-0.122,0.07200000000000001,-0.048,-0.02600000000000001,-0.17100000000000004,0.067,0.146,,,,,,,,,10.0,8.0,1.0,7.01,7.44,5.66,10.120000000000001,-0.007000000000000006,-0.261,0.048,-0.002,105.53,107.36,109.19,106.14
1628271334.000023,16971.0,4.0,20.0,10.0,2.0,0.0,64.0,0.0,2.0,11.0,0.0,0.0,2.0,2.94,2.05,25.0,21.0,8.0,6.0,13.0,35.0,34.0,23.0,0.0,1500.0,5.5,248.39000000000001,-1.49,2.39,35.0,22.69,0.0,0.0,8.0,0.0,1.5,2.4000000000000004,14.0,0.0,0.0,-2.8594296597525104,-1.1327056288724893,0.08000045013681001,0.0020000000000000018,0.11200000000000002,-0.016,0.0,0.0,0.0,0.014000000000000012,0.279,0.014,0.06999960613250739,1.394992150783539,0.06999960613250733,4.999971866607666,0.39999999999999947,0.0,0.0,0.0,0.0,-1.5880028319358825,6.94099153661728,5.300000000000001,0.0,5.545999385833741,0.0,12.0,11.672590668401185,20.30776650698668,-75.5109693914941,-0.02100000000000001,-0.186,0.057,-0.033,0.040999999999999995,-0.03,0.113,-0.107,-0.0020000000000000018,-0.11200000000000002,-0.016,0.111,-0.061,-0.011999999999999999,-0.156,-0.032,-0.009000000000000001,-0.134,-0.05,0.032,-0.013000000000000005,-0.07200000000000001,-0.006,0.061,-0.025999999999999995,-0.122,-0.029,0.018000000000000002,-0.010000000000000002,-0.049,0.068,0.013000000000000001,0.008000000000000004,-0.078,0.035,-0.004,-0.051,-0.125,-0.081,0.079,0.026999999999999996,-0.09,-0.097,0.021,-0.068,-0.189,-0.07200000000000001,-0.002,,,,,-0.017,-0.28600000000000003,0.14400000000000002,,-0.005000000000000001,-0.093,0.047,-0.004,-0.024000000000000007,-0.16900000000000004,0.001,-0.027,0.035,-0.15600000000000003,-0.009000000000000001,0.089,,,,,,,,,,,,,10.0,8.0,1.0,6.2,6.23,5.08,8.09,-0.014000000000000012,-0.279,0.014,-0.001,103.09,106.75,109.8,100.64999999999999
1628271338.000096,16971.0,4.0,20.0,10.0,2.0,0.0,64.0,0.0,2.0,11.0,0.0,0.0,2.0,2.94,2.05,26.0,21.0,8.0,6.0,13.0,35.0,38.0,96.0,0.0,1500.0,6.4,248.39000000000001,-1.49,2.39,35.0,22.650000000000002,0.0,0.0,8.0,0.0,1.5,2.4000000000000004,14.0,0.0,0.0,-8.041953510785515,-3.1856583629289372,0.2249958828844998,0.03300000000000001,0.06,-0.06,0.0,0.0,0.0,0.053000000000000005,0.301,0.006,0.21200387930870057,1.204022031545639,0.024000439167022707,4.000073194503784,0.9000000000000004,0.0,0.0,0.0,0.0,-1.375998952627182,8.145013568162918,6.200000000000001,0.0,6.94099153661728,0.0,3.0,12.058646963498681,22.948803723695317,-73.02842347945267,-0.08900000000000002,-0.18,0.092,0.059000000000000004,0.012,-0.014999999999999998,0.077,-0.11900000000000001,-0.03300000000000001,-0.06,-0.06,0.107,,,,,-0.03,-0.13,-0.054,0.105,-0.034999999999999996,-0.123,-0.029,0.041,0.039,-0.134,-0.001,-0.033,-0.031,-0.089,0.051000000000000004,-0.07100000000000001,0.0050000000000000044,-0.11100000000000002,-0.069,-0.03,0.018999999999999993,-0.122,-0.101,-0.013000000000000001,-0.010999999999999996,-0.134,-0.115,0.042,0.054,0.101,-0.10200000000000001,,,,,,0.048999999999999995,-0.225,0.047,-0.133,-0.04000000000000001,-0.08600000000000001,0.004,0.047,-0.054,-0.15099999999999997,0.001,-0.044,0.026000000000000002,-0.19899999999999998,0.038,-0.158,,,,,,,,,,,,,10.0,8.0,1.0,5.73,5.68,4.55,7.76,-0.053000000000000005,-0.301,0.006,0.032,107.36,107.36,112.24,102.48
1628271343.000079,16971.0,4.0,20.0,10.0,2.0,0.0,64.0,0.0,2.0,11.0,0.0,0.0,2.0,2.94,2.05,27.0,21.0,8.0,6.0,13.0,35.0,43.0,79.0,0.0,1500.0,7.1000000000000005,248.39000000000001,-1.49,2.39,35.0,22.69,0.0,0.0,8.0,0.0,1.5,2.4000000000000004,14.0,0.0,0.0,-5.003990928496598,-1.9822305025770601,0.1400004806535057,0.009999999999999998,0.047,-0.098,0.0,0.0,0.0,0.020000000000000018,0.31,-0.014,0.09999965667724618,1.5499946784973144,-0.06999975967407226,4.999982833862305,0.7000000000000002,0.0,0.0,0.0,0.0,-1.275999295949936,9.695008246660233,6.900000000000001,0.0,8.145013568162918,0.0,3.0,12.371831958422586,28.280420064693686,-76.96921957080563,-0.013000000000000005,-0.122,0.084,-0.03,-0.029999999999999992,-0.044,0.026000000000000002,-0.10300000000000001,-0.009999999999999998,-0.047,-0.098,0.093,0.123,-0.034999999999999996,-0.14400000000000002,,-0.01699999999999999,-0.08,-0.09,0.122,-0.0029999999999999957,-0.14100000000000001,-0.10300000000000001,0.061,0.064,-0.18099999999999997,0.007,0.029,0.043,-0.088,0.056,-0.079,-0.018000000000000002,-0.14,-0.016,-0.055,-0.008000000000000007,-0.186,-0.09,-0.024,0.015999999999999997,-0.095,-0.128,-0.055,0.165,-0.027000000000000003,-0.229,,-0.316,-0.22099999999999997,0.046,,-0.002999999999999999,-0.077,0.07200000000000001,0.197,0.055,-0.09500000000000001,0.037,-0.018000000000000002,0.016,-0.15800000000000003,-0.008,0.004,-0.011999999999999997,-0.303,-0.015,-0.221,,,,,,,,,,,,,10.0,8.0,1.0,5.2,5.44,4.04,7.930000000000001,-0.020000000000000018,-0.31,-0.014,0.011,105.53,105.53,112.24,104.92
1628271348.000053,16971.0,4.0,20.0,10.0,2.0,0.0,64.0,0.0,2.0,11.0,0.0,0.0,2.0,2.94,2.05,28.0,21.0,8.0,6.0,13.0,35.0,48.0,53.0,0.0,1500.0,8.200000000000001,276.09000000000003,-24.09,1.8900000000000001,35.0,22.69,0.0,0.0,8.0,0.0,24.6,1.9000000000000001,14.0,0.0,0.0,-0.4892722068615393,0.05220174713341066,0.22000114346144864,0.05,0.024,-0.163,0.0,0.0,0.0,0.008,0.37900000000000006,-0.028,0.039999792098999024,1.894990150690079,-0.1399992723464966,4.999974012374878,1.1000000000000005,-22.6,0.0,0.0,0.0,-1.235999503850937,11.589998397350312,8.000000000000002,0.0,9.695008246660233,0.0,11.0,12.109571927360111,4.649366079897194,171.38054908192476,-0.012,-0.08200000000000002,0.096,-0.106,-0.031,-0.08200000000000002,-0.021,0.042,-0.05,-0.024,-0.163,0.097,-0.007,-0.107,-0.108,0.114,0.011999999999999997,-0.168,-0.128,-0.023,0.012000000000000004,-0.10300000000000001,-0.159,0.033,0.061000000000000006,-0.13700000000000004,0.061,0.0,-0.065,-0.09200000000000001,-0.06,0.002,0.024,-0.10699999999999998,-0.201,-0.10300000000000001,0.020999999999999994,-0.18500000000000003,-0.166,0.029,-0.08000000000000002,-0.24899999999999997,-0.093,-0.044,,,,,0.067,-0.214,0.016,,-0.006000000000000002,-0.18300000000000002,-0.017,-0.016,0.08700000000000001,-0.16500000000000004,-0.05,-0.018000000000000002,0.017,-0.15300000000000002,-0.01,-0.007,0.166,-0.36100000000000004,0.074,-0.004,,,,,,,,,,,,,10.0,8.0,1.0,4.23,4.49,3.31,5.64,-0.008,-0.37900000000000006,-0.028,0.035,104.31,107.97,111.02,103.7
1628271353.000027,16971.0,4.0,20.0,10.0,2.0,0.0,64.0,0.0,2.0,11.0,0.0,0.0,2.0,2.94,2.05,29.0,21.0,8.0,6.0,13.0,35.0,53.0,27.0,0.0,1500.0,9.0,280.1,-28.29,-1.49,35.0,22.69,0.0,0.0,8.0,0.0,3.3000000000000003,1.5,14.0,0.0,0.0,-0.2926712125002087,0.052132683166007304,0.160000831608326,0.018000000000000002,0.148,-0.035,0.0,0.0,0.0,0.010999999999999989,0.40700000000000003,-0.011,0.054999714136123604,2.0349894230365755,-0.05499971413612365,4.999974012374878,0.7999999999999989,-4.199999999999999,0.0,0.0,0.0,-1.1809997897148135,13.624987820386888,8.8,0.0,11.589998397350312,0.0,10.0,12.075151918284563,6.045623824744477,88.23096981257869,-0.007000000000000006,-0.242,0.04,-0.09,-0.013000000000000001,-0.08600000000000001,-0.126,0.17500000000000002,-0.018000000000000002,-0.148,-0.035,0.053,-0.10500000000000001,-0.10999999999999999,-0.202,0.07100000000000001,-0.098,-0.12000000000000001,-0.186,0.089,0.057000000000000016,-0.257,0.045,0.088,0.024000000000000004,-0.17100000000000004,0.036000000000000004,0.017,0.01200000000000001,-0.221,-0.042,-0.018000000000000002,0.05300000000000001,-0.254,-0.137,0.042,0.08500000000000002,-0.441,-0.303,0.179,,,,,,,,,0.064,-0.252,0.078,0.076,0.05600000000000001,-0.23800000000000002,0.069,0.041,0.009999999999999995,-0.2830000000000001,0.008,0.08600000000000001,-0.08500000000000002,-0.278,-0.02,-0.005,,,,,,,,,,,,,,,,,10.0,8.0,1.0,3.23,3.4,2.67,4.33,-0.010999999999999989,-0.40700000000000003,-0.011,-0.018000000000000002,104.92,109.8,107.36,105.53
1628271358.00001,16971.0,4.0,20.0,10.0,2.0,0.0,64.0,0.0,2.0,11.0,0.0,0.0,2.0,2.94,2.05,30.0,21.0,8.0,6.0,13.0,35.0,58.0,10.0,0.0,1500.0,9.0,284.79,-32.29,-2.39,35.0,22.69,0.0,0.0,6.0,0.0,7.4,2.4000000000000004,14.0,0.0,0.0,,,,-0.03900000000000001,0.136,-0.218,0.0,0.0,0.0,0.0010000000000000009,0.499,-0.014,0.004999983072280888,2.4949915530681612,-0.06999976301193238,4.999983072280884,0.0,-4.0,0.0,0.0,0.0,-1.1759998066425326,16.11997937345505,8.8,0.0,13.624987820386888,0.0,3.0,11.322020296610557,13.90640156626126,80.33613324476879,-0.03800000000000001,-0.30300000000000005,-0.06,0.099,-0.0040000000000000036,-0.17300000000000001,-0.084,0.062,0.03900000000000001,-0.136,-0.218,0.129,-0.336,-0.07800000000000003,-0.325,,,,,,0.062,-0.24900000000000003,0.053,-0.067,0.054000000000000006,-0.252,-0.114,-0.005,0.081,-0.10400000000000001,-0.323,-0.014,0.023999999999999994,-0.295,-0.218,0.029,0.015,-0.42000000000000004,0.022,,,,,,-0.04599999999999999,-0.246,0.051000000000000004,,0.06499999999999999,-0.244,-0.09,-0.05,0.009000000000000008,-0.255,-0.065,0.052000000000000005,0.11000000000000004,-0.215,-0.045,0.015,0.008000000000000007,-0.37800000000000006,0.017,0.23900000000000002,,,,,,,,,,,,,,,,,10.0,8.0,1.0,2.3000000000000003,2.48,1.99,2.94,-0.0010000000000000009,-0.499,-0.014,-0.002,67.71,68.92999999999999,71.98,62.83
1628271363.000013,16971.0,4.0,20.0,10.0,2.0,0.0,64.0,0.0,2.0,11.0,0.0,0.0,2.0,2.94,2.05,31.0,21.0,8.0,6.0,13.0,36.0,3.0,13.0,0.0,1500.0,10.5,274.69,-21.7,-2.3000000000000003,35.0,22.69,0.0,0.0,8.0,0.0,22.200000000000003,2.3000000000000003,14.0,0.0,0.0,-0.7513420517519375,0.061639542650347864,0.2999998140336236,-0.09199999999999998,0.191,-0.34,0.0,0.0,0.0,-0.006999999999999992,0.554,-0.035,-0.03500002169609066,2.770001717090607,-0.1750001084804535,5.000003099441528,1.5,10.59,0.0,0.0,0.0,-1.2109998283386232,18.889981090545657,10.3,0.0,16.11997937345505,0.0,3.0,11.88226154446959,4.23030140019392,-107.01979722481522,0.013000000000000001,-0.25,-0.11800000000000001,0.088,0.017,-0.14400000000000002,-0.234,0.096,0.09199999999999998,-0.191,-0.34,0.126,,,,,,,,,0.0029999999999999957,-0.267,0.037,0.012,0.05299999999999999,-0.311,-0.027,-0.012,-0.02,-0.262,-0.153,0.077,-0.11399999999999999,-0.8260000000000001,-0.297,0.196,,,,,,,,,0.015999999999999997,-0.21100000000000002,0.041,0.048,-0.018999999999999996,-0.29499999999999993,-0.033,-0.045,-0.005000000000000001,-0.29800000000000004,-0.027,0.016,-0.020000000000000004,-0.29600000000000004,0.002,0.002,-0.04300000000000001,-0.468,-0.015,,,,,,,,,,,,,,,,,,10.0,8.0,1.0,1.46,1.57,1.22,2.15,0.006999999999999992,-0.554,-0.035,0.002,70.14999999999999,71.37,76.86,68.92999999999999
1628271368.00001,16971.0,4.0,20.0,10.0,2.0,0.0,64.0,0.0,2.0,11.0,0.0,0.0,2.0,2.94,2.05,32.0,21.0,8.0,6.0,13.0,36.0,8.0,10.0,0.0,1500.0,10.700000000000001,273.79,-21.7,-2.3000000000000003,35.0,22.69,0.0,0.0,6.0,0.0,22.0,2.3000000000000003,14.0,0.0,0.0,-0.10029579799803513,0.006644057612656496,0.04000002479554781,-0.08100000000000002,0.07600000000000001,-0.14300000000000002,0.0,0.0,0.0,-0.016,0.5730000000000003,-0.051000000000000004,-0.07999995040893555,2.8649982240200056,-0.2549998419284821,4.999996900558472,0.20000000000000107,0.0,0.0,0.0,0.0,-1.2909997787475587,21.754979314565663,10.500000000000002,0.0,18.889981090545657,0.0,2.0,11.358412964463175,4.858089984900553,-102.3931211514113,0.012000000000000002,-0.129,-0.115,0.09,0.08100000000000002,-0.07600000000000001,-0.14300000000000002,0.034,,,,,,,,,0.052000000000000005,-0.395,-0.107,0.203,0.16900000000000004,-0.19300000000000006,-0.14,0.164,0.162,-0.24800000000000003,-0.362,0.013000000000000001,0.053000000000000005,-0.18500000000000003,-0.28300000000000003,0.043000000000000003,,,,,,,,,,,,,0.060000000000000005,-0.194,-0.081,0.044,-0.014000000000000002,-0.22,-0.097,0.073,-0.018000000000000006,-0.296,-0.079,0.051000000000000004,-0.095,-0.31200000000000006,-0.106,0.052000000000000005,0.16000000000000006,-0.24300000000000005,-0.165,-0.022,,,,,,,,,,,,,,,,,10.0,8.0,1.0,0.71,0.76,0.5700000000000001,,0.016,-0.5730000000000003,-0.051000000000000004,,76.86,75.64,84.17999999999999,0.0
1628271373.000017,16971.0,4.0,20.0,10.0,2.0,0.0,64.0,0.0,2.0,11.0,0.0,0.0,2.0,2.94,2.05,33.0,21.0,8.0,6.0,13.0,36.0,13.0,17.0,0.0,1500.0,12.100000000000001,277.3,-25.2,-2.9,35.0,22.69,0.0,0.0,0.0,0.0,0.0,2.9000000000000004,13.0,0.0,0.0,-0.5902064201662174,0.07560718616045442,0.279999612808763,0.11300000000000002,-0.17500000000000004,-0.084,0.0,0.0,0.0,,,,0.5650007812976838,-0.8750012099742892,-0.42000058078765873,5.000006914138794,1.4000000000000004,-3.5,0.0,0.0,0.0,-0.7259989974498748,20.879978104591373,11.900000000000002,0.0,21.754979314565663,0.0,3.0,,,,0.037,-0.08600000000000002,-0.011,0.015,0.011000000000000003,-0.041999999999999996,-0.027,-0.008,-0.11300000000000002,0.17500000000000004,-0.084,0.094,,,,,0.11299999999999999,-0.297,0.088,,0.44300000000000006,-0.19099999999999998,-0.166,0.129,0.34600000000000003,-0.10300000000000001,-0.23900000000000002,0.065,0.173,-0.683,-0.446,,,,,,,,,,,,,,,,,,,,,,,,,,,,,,,,,,,,,,,,,,,,,,,,,,10.0,8.0,1.0,,,,,,,,,0.0,0.0,0.0,0.0
1628271380.000043,16971.0,4.0,20.0,10.0,2.0,0.0,64.0,0.0,2.0,11.0,0.0,0.0,2.0,2.94,2.05,34.0,21.0,8.0,6.0,13.0,36.0,20.0,43.0,0.0,1500.0,13.0,266.39,-21.89,-2.0,35.0,22.75,0.0,0.0,0.0,0.0,22.200000000000003,2.0,13.0,0.0,0.0,-0.3193567143069431,-0.020148180918684377,0.1285709512494737,0.083,-0.012,-0.002,0.0,0.0,0.0,,,,0.5810021569728852,-0.08400031185150146,-0.014000051975250245,7.000025987625122,0.8999999999999986,3.3099999999999987,0.0,0.0,0.0,-0.14499684047698969,20.795977792739873,12.8,0.0,20.879978104591373,0.0,3.0,,,,0.012000000000000004,-0.032,-0.013000000000000001,-0.026000000000000002,0.023,-0.047,-0.039,-0.043000000000000003,-0.083,0.012,-0.002,0.092,,,,,,,,,,,,,,,,,,,,,,,,,,,,,,,,,,,,,,,,,,,,,,,,,,,,,,,,,,,,,,,,,,,,,10.0,8.0,1.0,,,,,,,,,0.0,0.0,0.0,0.0
1628271387.000065,16971.0,4.0,20.0,10.0,2.0,0.0,64.0,0.0,2.0,11.0,0.0,0.0,2.0,2.94,2.05,35.0,21.0,8.0,6.0,13.0,36.0,27.0,65.0,0.0,1500.0,13.3,261.4,-1.2,-1.0,35.0,22.75,0.0,0.0,0.0,0.0,1.2000000000000002,1.0,13.0,0.0,0.0,-2.022968019706987,-0.3059451482701938,0.04285700710495343,0.039,0.108,-0.058,0.0,0.0,0.0,,,,0.2730008647441864,0.7560023946762084,-0.40600128602981567,7.0000221729278564,0.3000000000000007,20.69,0.0,0.0,0.0,0.1280040242671967,21.55198018741608,13.100000000000001,0.0,20.795977792739873,0.0,3.0,,,,-0.008,-0.015999999999999997,0.013000000000000001,-0.028,-0.02,-0.031000000000000003,-0.03,0.069,-0.039,-0.108,-0.058,-0.023,,,,,,,,,,,,,,,,,,,,,,,,,,,,,,,,,,,,,,,,,,,,,,,,,,,,,,,,,,,,,,,,,,,,,10.0,8.0,1.0,,,,,,,,,0.0,0.0,0.0,0.0
1628271394.000095,16971.0,4.0,20.0,10.0,2.0,0.0,64.0,0.0,2.0,11.0,0.0,0.0,2.0,2.94,2.05,36.0,21.0,8.0,6.0,13.0,36.0,34.0,95.0,0.0,1500.0,13.100000000000001,264.59000000000003,-2.19,-1.2,35.0,22.75,0.0,0.0,0.0,0.0,2.2,1.2000000000000002,13.0,0.0,0.0,0.7438034330181669,0.07044110568995984,-0.02857130692981416,0.002,-0.01,-0.077,0.0,0.0,0.0,,,,0.014000059604644776,-0.07000029802322388,-0.5390022947788239,7.000029802322388,-0.1999999999999993,-0.99,0.0,0.0,0.0,0.1420040838718415,21.481979889392857,12.900000000000002,0.0,21.55198018741608,0.0,4.0,,,,-0.019,-0.017,-0.024,-0.01,0.03799999999999999,0.002,-0.032,0.03,-0.002,0.01,-0.077,-0.022,0.12099999999999998,0.134,-0.226,-0.026000000000000002,0.049999999999999996,0.008,-0.268,,,,,,,,,,,,,,,,,,,,,,,,,,,,,,,,,,,,,,,,,,,,,,,,,,,,,,,,,,,,,,10.0,8.0,1.0,,,,,,,,,0.0,0.0,0.0,0.0
1628271402.000007,16971.0,4.0,20.0,10.0,2.0,0.0,64.0,0.0,2.0,11.0,0.0,0.0,2.0,2.94,2.05,37.0,21.0,8.0,6.0,13.0,36.0,42.0,7.0,0.0,1500.0,13.3,265.19,0.1,-0.9,35.0,22.75,0.0,0.0,0.0,0.0,0.1,0.9,13.0,0.0,0.0,14.27364185033283,1.2011000182950655,0.025000274929447352,-0.063,0.007,-0.084,0.0,0.0,0.0,,,,-0.5039944574832916,0.05599938416481018,-0.6719926099777223,7.9999120235443115,0.1999999999999993,2.29,0.0,0.0,0.0,-0.36199037361145014,21.537979273557667,13.100000000000001,0.0,21.481979889392857,0.0,3.0,,,,-0.018000000000000002,-0.042,-0.009000000000000001,-0.038,0.005,-0.040999999999999995,-0.048,-0.045,0.063,-0.007,-0.084,-0.048,,,,,,,,,,,,,,,,,,,,,,,,,,,,,,,,,,,,,,,,,,,,,,,,,,,,,,,,,,,,,,,,,,,,,10.0,8.0,1.0,,,,,,,,,0.0,0.0,0.0,0.0
1628271409.000016,16971.0,4.0,20.0,10.0,2.0,0.0,64.0,0.0,2.0,11.0,0.0,0.0,2.0,2.94,2.05,38.0,21.0,8.0,6.0,13.0,36.0,49.0,16.0,0.0,1500.0,13.3,266.0,0.4,-0.9,35.0,22.75,0.0,0.0,0.0,0.0,0.4,0.9,13.0,0.0,0.0,,,,-0.069,0.026,-0.056,0.0,0.0,0.0,,,,-0.48300062513351444,0.18200023555755615,-0.39200050735473635,7.000009059906006,0.0,0.30000000000000004,0.0,0.0,0.0,-0.8449909987449646,21.719979509115223,13.100000000000001,0.0,21.537979273557667,0.0,2.0,,,,0.052000000000000005,-0.04599999999999999,-0.024,-0.019,0.069,-0.026,-0.056,-0.01,,,,,,,,,0.13399999999999998,-0.13899999999999998,0.012,-0.001,0.39199999999999996,-0.06900000000000002,-0.012,0.095,0.435,-0.041999999999999996,-0.09,0.264,,,,,,,,,,,,,,,,,-0.184,-0.11599999999999999,-0.002,0.26,0.031,0.030999999999999996,-0.029,-0.233,,,,,,,,,,,,,,,,,,,,,,,,,,,,,10.0,8.0,1.0,,,,,,,,,0.0,0.0,0.0,0.0
1628271415.00008,16971.0,4.0,20.0,10.0,2.0,0.0,64.0,0.0,2.0,11.0,0.0,0.0,2.0,2.94,2.05,39.0,21.0,8.0,6.0,13.0,36.0,55.0,80.0,0.0,1500.0,13.3,263.7,6.49,-1.2,35.0,22.75,0.0,0.0,6.0,0.0,6.5,1.2000000000000002,13.0,0.0,0.0,,,,0.011999999999999999,0.016999999999999998,-0.001,0.0,0.0,0.0,,,,0.07200076961517334,0.10200109028816222,-0.0060000641345977785,6.000064134597778,0.0,6.09,0.0,0.0,0.0,-0.7729902291297913,21.821980599403386,13.100000000000001,0.0,21.719979509115223,0.0,2.0,,,,-0.004,-0.09299999999999999,0.004,-0.019,-0.011999999999999999,-0.016999999999999998,-0.001,0.02,,,,,,,,,0.05999999999999999,-0.013000000000000001,0.024,-0.032,0.26499999999999996,-0.045999999999999985,0.053,0.053,0.41400000000000003,-0.06899999999999999,0.009000000000000001,0.014,0.055999999999999994,-0.095,-0.291,,,,,,,,,,,,,,0.168,0.051000000000000004,0.08700000000000001,0.001,0.143,-0.019999999999999997,0.044,0.01,-0.034,-0.261,-0.042,0.081,0.09799999999999998,-0.15399999999999997,-0.029,,,,,,,,,,,,,,,,,,,,,,10.0,8.0,1.0,,,,,,,,,0.0,0.0,0.0,0.0
1628271420.000059,16971.0,4.0,20.0,10.0,2.0,0.0,64.0,0.0,2.0,11.0,0.0,0.0,2.0,2.94,2.05,40.0,21.0,8.0,6.0,13.0,37.0,0.0,59.0,0.0,1500.0,13.3,260.09000000000003,11.59,-0.79,35.0,22.77,0.0,0.0,8.0,0.0,11.8,0.8,13.0,0.0,0.0,,,,-0.003999999999999998,0.092,0.021,0.0,0.0,0.0,-0.11699999999999999,0.137,0.017,-0.5849975173473357,0.6849970929622651,0.08499963927268983,4.99997878074646,0.0,5.1,0.0,0.0,0.0,-1.357987746477127,22.506977692365652,13.100000000000001,0.0,21.821980599403386,0.0,2.0,25.856532299864966,11.48853582442118,-76.40435504941166,-0.020999999999999998,-0.032,0.056,-0.04,0.003999999999999998,-0.092,0.021,-0.004,,,,,,,,,0.136,-0.12399999999999999,-0.008,0.068,0.068,-0.06999999999999999,0.019,0.018000000000000002,0.238,-0.182,-0.022,-0.028,-0.30799999999999994,-0.313,-0.203,,,,,,,,,,,,,,0.049,-0.06699999999999999,0.01,-0.007,0.030999999999999993,-0.001,-0.008,-0.01,0.06599999999999999,-0.05,-0.002,0.033,0.278,-0.15400000000000003,-0.041,,,,,,,,,,,,,,,,,,,,,,10.0,8.0,1.0,12.200000000000001,12.21,12.42,12.39,0.11699999999999999,-0.137,0.017,-0.17300000000000001,65.88,64.66,61.0,52.46
1628271425.000037,16971.0,4.0,20.0,10.0,2.0,0.0,64.0,0.0,2.0,11.0,0.0,0.0,2.0,2.94,2.05,41.0,21.0,8.0,6.0,13.0,37.0,5.0,37.0,0.0,1500.0,13.3,254.9,19.400000000000002,-1.3,35.0,22.75,0.0,0.0,8.0,0.0,19.8,1.3,13.0,0.0,0.0,,,,0.025,0.023,0.004,0.0,0.0,0.0,-0.03799999999999999,0.37599999999999995,-0.001,-0.18999916648864743,1.8799917526245113,-0.004999978065490723,4.999978065490723,0.0,7.810000000000002,0.0,0.0,0.0,-1.5479869129657744,24.386969444990164,13.100000000000001,0.0,22.506977692365652,0.0,2.0,26.469445053652066,19.261776628614058,-72.02580612554476,-0.026999999999999996,-0.06099999999999999,0.025,-0.029,-0.025,-0.023,0.004,-0.061,,,,,,,,,0.027000000000000003,0.136,-0.021,-0.11,0.027,-0.16699999999999998,-0.017,0.055,0.161,-0.21499999999999997,-0.084,0.077,-0.033,-0.21999999999999997,-0.333,-0.185,,,,,,,,,,,,,-0.007999999999999993,-0.132,-0.015,0.031,0.095,-0.105,-0.027,-0.033,-0.028999999999999998,-0.045,0.036000000000000004,-0.02,-0.023999999999999997,0.014999999999999996,0.014,-0.031,,,,,,,,,,,,,,,,,,,,,10.0,8.0,1.0,12.33,12.4,12.52,12.48,0.03799999999999999,-0.37599999999999995,-0.001,-0.018000000000000002,62.22,67.1,64.05,60.39
1628271430.000019,16971.0,4.0,20.0,10.0,2.0,0.0,64.0,0.0,2.0,11.0,0.0,0.0,2.0,2.94,2.05,42.0,21.0,8.0,6.0,13.0,37.0,10.0,19.0,0.0,1500.0,13.100000000000001,251.3,23.3,-1.2,35.0,22.77,0.0,0.0,8.0,0.0,23.8,1.2000000000000002,13.0,0.0,0.0,-0.0879762209472209,-0.0297783079016353,-0.04000014305165891,0.046000000000000006,0.062,0.007,0.0,0.0,0.0,-0.101,0.073,-0.06,-0.5049981939792634,0.3649986946582794,-0.29999892711639403,4.999982118606567,-0.1999999999999993,3.8999999999999986,0.0,0.0,0.0,-2.0529851069450378,24.751968139648444,12.900000000000002,0.0,24.386969444990164,0.0,2.0,26.775959464615134,23.04372017132737,-68.98166450541805,0.038000000000000006,-0.117,0.006,-0.008,-0.046000000000000006,-0.062,0.007,0.003,,,,,,,,,,,,,0.064,-0.176,-0.049,0.09,0.05100000000000002,-0.17200000000000004,-0.085,-0.019,0.058,-0.171,-0.082,-0.002,,,,,,,,,,,,,0.023000000000000003,-0.114,-0.033,0.073,-0.002999999999999999,-0.05499999999999999,-0.027,-0.014,0.051000000000000004,-0.062,-0.008,-0.07100000000000001,0.128,-0.0010000000000000009,-0.029,0.127,,,,,,,,,,,,,,,,,,,,,10.0,8.0,1.0,12.55,12.6,12.63,12.56,0.101,-0.073,-0.06,0.032,64.66,64.66,64.66,64.05
