time,m_filename_hash,m_mission_hash,m_present_time,m_speed,m_pitch,m_roll,m_heading,m_fin,m_depth,m_depth_rate,m_water_depth,m_pressure,m_altitude,m_battery,m_vacuum,m_ballast_pumped,m_de_oil_vol,m_battpos,m_thruster_power,m_thruster_current,c_pitch,c_roll,c_heading,c_fin,m_gps_x_lmc,m_gps_y_lmc,m_gps_fix_x_lmc,m_gps_fix_y_lmc,m_gps_status,m_gps_full_status,m_x_lmc,m_y_lmc,m_dr_time,m_dr_surf_x_lmc,m_dr_surf_y_lmc,m_ext_x_lmc,m_ext_y_lmc,m_ext_z_lmc,x_lmc_xy_source,c_wpt_x_lmc,c_wpt_y_lmc,m_lat,m_lon,m_gps_lat,m_gps_lon,c_wpt_lat,c_wpt_lon,m_water_vx,m_water_vy,m_vx_lmc,m_vy_lmc,m_coulomb_amphr,m_thruster_watthr,m_appear_to_be_at_surface,m_science_clothesline_lag,sci_m_present_time,x_software_ver
1628280345.05032,-6.217680175238119e+18,-6.4513722909956e+17,1628262345.05032,0.0,0.020944,-0.0314159,0.666716,0.00289484,0.0,0.0,-1.0,-0.0184157,0.0,14.9408,9.22866,0.0,418.921,1.22886,0.0,0.0,0.1745,0.0,3.28085,0.0,15.2957,-8.2102,0.0,0.0,0.0,0.0,15.2957,-8.2102,-1.0,0.0,0.0,0.0,0.0,0.0,3.0,-32.8021,-94.7652,4133.25210006656,-7040.73380000617,4133.2521,-7040.7338,4133.2,-7040.75,-0.0302102,0.10391,0.0,-0.0,1.92875,1.59471,1.0,80.8599,1628262286.08752,8.2
1628280369.17892,-6.217680175238119e+18,-6.4513722909956e+17,1628262369.17892,,0.020944,-0.0314159,0.666716,0.0636865,0.0,0.0,,-0.0321587,,,,,418.785,1.22886,,,,,3.38904,0.0,16.3467,-9.08722,0.0,0.0,0.0,0.0,16.3467,-9.08722,-1.0,0.0,0.0,,,,3.0,,,4133.25180006656,-7040.73290000618,4133.2518,-7040.7329,,,,,0.0,-0.0,1.92999,,1.0,51.4148,1628262326.07996,
1628280379.61902,-6.217680175238119e+18,-6.4513722909956e+17,1628262379.61902,,0.020944,-0.0314159,0.666716,-0.00289484,0.0,0.0,,-0.0321587,,,8.33879,,418.758,0.104271,,,,,3.39842,0.0,16.6463,-9.55755,0.0,0.0,0.0,7.0,16.6463,-9.55755,-1.0,0.0,0.0,,,,3.0,,,4133.25160006656,-7040.73260000617,4133.2516,-7040.7326,,,,,0.20433,0.0243649,1.92999,,1.0,0.189423,1628262382.09875,
1628280384.01718,-6.217680175238119e+18,-6.4513722909956e+17,1628262384.01718,,0.020944,-0.0314159,0.666716,-0.00289484,0.0,0.0,,-0.0266615,,,,,,-0.00568864,,,,,3.40187,0.0,17.2133,-10.1041,0.0,0.0,0.0,0.0,17.2133,-10.1041,-1.0,0.0,0.0,,,,3.0,,,4133.25140006656,-7040.73210000617,4133.2514,-7040.7321,,,,,0.0,0.0,1.93124,,1.0,,1628262382.09875,
1628280388.44901,-6.217680175238119e+18,-6.4513722909956e+17,1628262388.44901,,0.020944,-0.0314159,0.666716,0.0,0.0,0.0,,-0.015667,,,,,419.953,-0.00568864,,,,,3.40724,0.0,18.0155,-10.3328,0.0,0.0,0.0,7.0,18.0155,-10.3328,-1.0,0.0,0.0,,,,3.0,,,4133.25140006656,-7040.73150000618,4133.2514,-7040.7315,,,,,0.346676,0.0974462,1.93251,,1.0,1.04233,1628262390.07791,
1628280392.79611,-6.217680175238119e+18,-6.4513722909956e+17,1628262392.79611,,0.020944,-0.0314159,0.666716,0.0,0.0,0.0,,-0.00742123,,,,,419.193,-0.00568864,,,,,3.41289,0.0,18.7669,-10.7395,0.0,0.0,0.0,7.0,18.7669,-10.7395,-1.0,0.0,0.0,,,,3.0,,,4133.25130006656,-7040.73090000617,4133.2513,-7040.7309,,,,,0.0,-0.0,1.93251,,1.0,1.38321,1628262394.08136,
1628280397.2243,-6.217680175238119e+18,-6.4513722909956e+17,1628262397.2243,,0.020944,-0.0314159,0.666716,0.0,0.0,0.0,,-0.0184157,,,,,316.425,-0.00568864,,,,,3.41887,0.0,19.2002,-11.248,0.0,0.0,0.0,0.0,19.2002,-11.248,-1.0,0.0,0.0,,,,3.0,,,4133.25110006656,-7040.73050000617,4133.2511,-7040.7305,,,,,0.212996,-0.144209,1.93251,,1.0,1.79568,1628262398.10129,
1628280401.65506,-6.217680175238119e+18,-6.4513722909956e+17,1628262401.65506,,0.020944,-0.0314159,0.666716,-0.00289484,0.00824581,0.00185133,,0.000824581,,,,,219.931,-0.00568864,,,,,3.42334,0.0,19.6842,-11.5784,0.0,0.0,0.0,0.0,19.6842,-11.5784,-1.0,0.0,0.0,,,,3.0,,,4133.25100006656,-7040.73010000617,4133.251,-7040.7301,,,,,0.0,-0.0,1.93375,,1.0,2.23901,1628262402.08539,
1628280406.12512,-6.217680175238119e+18,-6.4513722909956e+17,1628262406.12512,,0.020944,-0.0314159,0.666716,0.0636865,0.0,-0.00177025,,-0.0101698,,,,,120.558,-0.00568864,,,,,3.42745,0.0,20.1682,-11.9089,0.0,0.0,0.0,0.0,20.1682,-11.9089,-1.0,0.0,0.0,,,,3.0,,,4133.25090006656,-7040.72970000617,4133.2509,-7040.7297,,,,,0.0,-0.0,1.935,,1.0,2.69553,1628262406.09738,
1628280410.55219,-6.217680175238119e+18,-6.4513722909956e+17,1628262410.55219,0.0,0.020944,-0.0314159,0.666716,0.0144742,0.0,0.0,,-0.015667,,,,,19.9354,-0.00568864,,,,,3.43158,0.0,,,0.0,0.0,,7.0,20.034,-11.4472,-1.0,0.0,0.0,,,,1.0,,,4133.25112006935,-7040.72988390973,,,,,,,-0.0302102,0.10391,1.935,,1.0,3.13974,1628262410.0827,
1628280414.99081,-6.217680175238119e+18,-6.4513722909956e+17,1628262414.99081,,0.020944,-0.0314159,0.666716,0.00289484,0.0357319,0.00775431,,0.00357319,,,,,-76.8304,-0.00568864,,,,,3.42884,0.0,20.6015,-12.4173,0.0,0.0,0.0,7.0,20.6015,-12.4173,-1.0,0.0,0.0,,,,3.0,,,4133.25070006656,-7040.72930000617,4133.2507,-7040.7293,,,,,0.0,-0.0,1.935,,1.0,3.54324,1628262414.1171,
1628280419.43768,-6.217680175238119e+18,-6.4513722909956e+17,1628262419.43768,,0.020944,-0.0314159,0.666716,0.0144742,0.0357319,0.0,,0.00357319,,,,,-169.577,-0.00568864,,,,,3.43589,0.0,21.0348,-12.9258,0.0,0.0,0.0,7.0,21.0348,-12.9258,-1.0,0.0,0.0,,,,3.0,,,4133.25050006656,-7040.72890000617,4133.2505,-7040.7289,,,,,0.10351,-0.177849,1.93625,,1.0,4.00854,1628262418.09772,
1628280423.88614,-6.217680175238119e+18,-6.4513722909956e+17,1628262423.88614,,0.020944,-0.0314159,0.666716,0.0636865,0.0357319,0.0,,0.00357319,,,,,-250.753,-0.00568864,,,,,3.44042,0.0,21.4681,-13.4342,0.0,0.0,0.0,7.0,21.4681,-13.4342,-1.0,0.0,0.0,,,,3.0,,,4133.25030006656,-7040.72850000617,4133.2503,-7040.7285,,,,,0.167109,-0.12008,1.93625,,1.0,0.465088,1628262426.08945,
1628280428.24783,-6.217680175238119e+18,-6.4513722909956e+17,1628262428.24783,,0.020944,-0.0314159,0.666716,-0.0665814,0.0,-0.00825788,,-0.015667,,14.9384,,,-258.005,-0.00568864,,,,,3.44497,0.0,21.8506,-14.1207,0.0,0.0,0.0,7.0,21.8506,-14.1207,-1.0,0.0,0.0,,,,3.0,,,4133.25000006656,-7040.72810000617,4133.25,-7040.7281,,,,,-0.0,-0.0,1.9375,,1.0,0.834991,1628262430.08456,
1628280432.64157,-6.217680175238119e+18,-6.4513722909956e+17,1628262432.64157,,0.020944,-0.0314159,0.666716,0.0694762,0.0357319,0.00818787,,0.00357319,,,,,-258.005,-0.00568864,,,,,3.44995,0.0,21.9336,-14.3368,0.0,0.0,0.0,0.0,21.9336,-14.3368,-1.0,0.0,0.0,,,,3.0,,,4133.24990006656,-7040.72800000617,4133.2499,-7040.728,,,,,-0.0,-0.0,1.93876,,1.0,1.23285,1628262434.07721,
1628280436.9743,-6.217680175238119e+18,-6.4513722909956e+17,1628262436.9743,,0.020944,-0.0314159,0.666716,-0.00868453,0.0357319,0.0,,0.00357319,,,,,-258.005,-0.00402259,,,,,3.45131,0.0,22.3161,-15.0232,0.0,0.0,0.0,0.0,22.3161,-15.0232,-1.0,0.0,0.0,,,,3.0,,,4133.24960006656,-7040.72760000617,4133.2496,-7040.7276,,,,,-0.0,-0.0,1.93876,,1.0,1.55469,1628262438.08972,
1628280441.30481,-6.217680175238119e+18,-6.4513722909956e+17,1628262441.30481,,0.020944,-0.0314159,0.666716,-0.00868453,0.11819,0.0189952,,0.011819,,,,,-257.95,-0.00402259,,,,,3.45634,0.0,22.482,-15.4554,0.0,0.0,0.0,0.0,22.482,-15.4554,-1.0,0.0,0.0,,,,3.0,,,4133.24940006656,-7040.72740000617,4133.2494,-7040.7274,,,,,-0.0,-0.0,1.93876,,1.0,1.89011,1628262442.08386,
1628280445.63791,-6.217680175238119e+18,-6.4513722909956e+17,1628262445.63791,,0.020944,-0.0314159,0.666716,0.00289484,0.502995,0.0887669,,0.0502995,,,,,-257.842,-0.00402259,,,,,3.45909,0.0,22.5649,-15.6715,0.0,0.0,0.0,0.0,22.5649,-15.6715,-1.0,0.0,0.0,,,,3.0,,,4133.24930006656,-7040.72730000618,4133.2493,-7040.7273,,,,,-0.0,-0.0,1.94001,,1.0,2.37469,1628262446.09296,
1628280450.1315,-6.217680175238119e+18,-6.4513722909956e+17,1628262450.1315,,0.020944,-0.0314159,0.666716,0.0144742,1.10769,0.134078,,0.110769,,,,,-258.005,-0.00402259,,,,,3.46047,0.0,22.5971,-16.0656,0.0,0.0,0.0,0.0,22.5971,-16.0656,-1.0,0.0,0.0,,,,3.0,,,4133.24910006656,-7040.72720000617,4133.2491,-7040.7272,,,,,-0.0,-0.0,1.94001,,1.0,2.82303,1628262450.09653,
1628280454.58789,-6.217680175238119e+18,-6.4513722909956e+17,1628262454.58789,0.0,0.020944,-0.0314159,0.666716,0.0144742,1.62992,0.117093,,0.162992,,,,,-257.978,-0.00402259,,,,,3.4623,0.0,,,0.0,0.0,,7.0,22.4658,-15.6138,-1.0,0.0,0.0,,,,1.0,,,4133.24931536533,-7040.72737997729,,,,,,,-0.0302102,0.10391,1.94126,,1.0,3.16272,1628262454.09195,
1628280458.99402,-6.217680175238119e+18,-6.4513722909956e+17,1628262458.99402,,0.020944,-0.0314159,0.666716,0.0144742,1.90478,0.0599739,,0.190478,,,,,-257.869,-0.00402259,,,,,3.45944,0.0,22.6801,-16.2817,0.0,0.0,0.0,7.0,22.6801,-16.2817,-1.0,0.0,0.0,,,,3.0,,,4133.24900006656,-7040.72710000617,4133.249,-7040.7271,,,,,-0.0,-0.0,1.94126,,1.0,3.57605,1628262458.08685,
1628280463.35193,-6.217680175238119e+18,-6.4513722909956e+17,1628262463.35193,,0.020944,-0.0314159,0.666716,0.0144742,2.39953,0.114658,,0.239953,,,,,-257.95,-0.00402259,,,,,3.46348,0.0,22.8967,-16.5359,0.0,0.0,0.0,7.0,22.8967,-16.5359,-1.0,0.0,0.0,,,,3.0,,,4133.24890006656,-7040.72690000617,4133.2489,-7040.7269,,,,,-0.0,-0.0,1.94251,,1.0,3.94601,1628262462.07745,
1628280467.70636,-6.217680175238119e+18,-6.4513722909956e+17,1628262467.70636,,0.020944,-0.0314159,0.666716,0.0144742,3.27909,0.201686,,0.327909,,,,,-257.95,-0.00402259,,,,,3.46582,0.0,22.9289,-16.93,0.0,0.0,0.0,7.0,22.9289,-16.93,-1.0,0.0,0.0,,,,3.0,,,4133.24870006656,-7040.72680000617,4133.2487,-7040.7268,,,,,-0.0,-0.0,1.94251,,1.0,0.291107,1628262470.08377,
1628280472.04047,-6.217680175238119e+18,-6.4513722909956e+17,1628262472.04047,,0.020944,-0.0314159,0.666716,0.0144742,3.91126,0.148225,,0.391126,,,,,-258.032,-0.00402259,,,,,3.46768,0.0,23.0119,-17.1461,0.0,0.0,0.0,0.0,23.0119,-17.1461,-1.0,0.0,0.0,,,,3.0,,,4133.24860006656,-7040.72670000617,4133.2486,-7040.7267,,,,,-0.0,-0.0,1.94375,,1.0,0.62616,1628262474.08218,
1628280476.53949,-6.217680175238119e+18,-6.4513722909956e+17,1628262476.53949,,0.020944,-0.0314159,0.666716,0.0144742,4.46098,0.121432,,0.446099,,,,,-258.005,-0.00402259,,,,,3.46908,0.0,23.2285,-17.4003,0.0,0.0,0.0,0.0,23.2285,-17.4003,-1.0,0.0,0.0,,,,3.0,,,4133.24850006656,-7040.72650000617,4133.2485,-7040.7265,,,,,-0.0,-0.0,1.94375,,1.0,1.01059,1628262478.20163,
1628280481.03766,-6.217680175238119e+18,-6.4513722909956e+17,1628262481.03766,0.0,0.020944,-0.0314159,0.666716,0.0144742,4.98322,0.116104,,0.498322,,,,,-258.005,-0.00402259,,,,,3.47145,0.0,,,0.0,0.0,2.0,2.0,23.0924,-16.932,-1.0,0.0,0.0,,,,1.0,,,4133.24872323852,-7040.7266865585,,,,,,,-0.0302102,0.10391,1.94375,,1.0,1.47476,1628262482.23306,
1628280485.59036,-6.217680175238119e+18,-6.4513722909956e+17,1628262485.59036,0.0,0.020944,-0.0314159,0.666716,0.0144742,5.94523,0.213923,,0.594523,,,,,-257.978,-0.00402259,,,,,3.46844,0.0,,,0.0,0.0,,7.0,22.9549,-16.4591,-1.0,0.0,0.0,,,,1.0,,,4133.2489485892,-7040.72687493208,,,,,,,-0.0302102,0.10391,1.94502,,1.0,2.14429,1628262486.11285,
1628280489.92569,-6.217680175238119e+18,-6.4513722909956e+17,1628262489.92569,0.0,0.020944,-0.0314159,0.666716,0.0144742,6.65987,0.161172,,0.665987,,,,,-257.95,-0.00402259,,,,,3.46542,0.0,,,0.0,0.0,2.0,7.0,22.8238,-16.0082,-1.0,0.0,0.0,,,,1.0,,,4133.24916344234,-7040.72705453065,,,,,,,-0.0302102,0.10391,1.94627,,0.0,2.4986,1628262490.09622,
1628280494.45758,-6.217680175238119e+18,-6.4513722909956e+17,1628262494.45758,0.0,0.020944,-0.0314159,0.666716,0.0144742,7.53942,0.192885,,0.753942,,14.936,,,-257.95,-0.00402259,,,,,3.46256,0.0,,,0.0,0.0,2.0,7.0,22.6869,-15.5372,-1.0,0.0,0.0,,,,1.0,,,4133.24938790172,-7040.72724215923,,,,,,,-0.0302102,0.10391,1.94627,,0.0,3.03714,1628262494.09073,
1628280498.82114,-6.217680175238119e+18,-6.4513722909956e+17,1628262498.82114,0.282259,-0.445059,-0.0226893,4.96895,0.0144742,8.19909,0.149686,,0.819909,,,,,-257.815,-0.00402259,,,-0.1745,,3.45959,0.0,,,,,,,21.3633,-14.771,,,,,,,2.0,,,4133.24958994099,-7040.72830886753,,,,,,,-0.30323,0.175536,1.94748,,0.0,3.39978,1628262498.0892,
1628280503.05524,-6.217680175238119e+18,-6.4513722909956e+17,1628262503.05524,0.220593,-0.532325,-0.0244346,5.10509,0.0144742,8.80378,0.141515,,0.880378,,,7.02206,,-257.95,-0.153968,,,-0.1745,,3.44872,-0.377102,,,,,,,20.3682,-13.9702,,,,,,,2.0,,,4133.24985861414,-7040.72915509662,,,,,,,-0.234011,0.188328,1.94748,,0.0,3.64172,1628262502.08417,
1628280507.44104,-6.217680175238119e+18,-6.4513722909956e+17,1628262507.44104,0.12555,-0.506145,-0.00349066,5.11731,-0.380327,9.1611,0.0779831,,0.91611,,,,,-258.086,-0.488845,11.058,3.686,-0.1745,,3.43961,-0.315221,,,,,,,19.7306,-13.2986,,,,,,,2.0,,,4133.25011312204,-7040.72972862197,,,,,,,-0.145608,0.15337,1.94873,,0.0,0.0313416,1628262510.0777,
1628280511.89532,-6.217680175238119e+18,-6.4513722909956e+17,1628262511.89532,0.894122,-0.270526,-0.0174533,4.87296,-0.314973,10.4529,0.2989,,1.04529,,,,,-257.923,-0.488845,5.016,1.672,-0.1745,,3.43309,-0.384548,,,,,,,15.6667,-12.1996,,,,,,,2.0,,,4133.25008212228,-7040.73275656912,,,,,,,-0.91283,0.246864,1.94873,1.6007,0.0,0.481323,1628262514.08273,
1628280516.26898,-6.217680175238119e+18,-6.4513722909956e+17,1628262516.26898,1.04545,-0.141372,-0.0279253,4.73682,-0.387329,10.5904,0.0288355,,1.05904,,,,,-257.842,-0.428867,4.788,1.596,0.1745,,3.40479,-0.439022,,,,,,,10.9728,-11.6345,,,,,,,1.0,,,4133.24968033395,-7040.73611498889,,,,,,,-1.07535,0.129453,1.94998,1.60712,0.0,0.847076,1628262518.09012,
1628280520.69434,-6.217680175238119e+18,-6.4513722909956e+17,1628262520.69434,0.2591,-0.258309,-0.0244346,4.81362,-0.441013,11.0301,0.0876398,,1.10301,,,,,,-0.288918,,,0.1745,,3.37376,-0.392369,,,,,,,9.60833,-11.0181,,,,,,,2.0,,,4133.24979846609,-7040.73718041656,,,,,,,-0.287984,0.130094,1.95124,,0.0,,1628262518.09012,
1628280525.38574,-6.217680175238119e+18,-6.4513722909956e+17,1628262525.38574,0.348534,-0.446804,-0.0453786,4.9899,-0.39083,11.7173,0.184569,,1.17173,,,,,-258.005,-0.288918,4.674,1.558,0.1745,,3.36287,-0.341861,,,,,,,8.00637,-10.144,,,,,,,2.0,,,4133.25001534713,-7040.73846096456,,,,,,,-0.36541,0.199395,1.95124,1.61828,0.0,1.95758,1628262526.09766,
1628280529.75705,-6.217680175238119e+18,-6.4513722909956e+17,1628262529.75705,0.462183,-0.493928,0.0,4.95499,-0.340648,12.8992,0.269717,,1.28992,,,,,-257.978,-0.423869,0.0,0.0,0.1745,,3.34967,-0.45,,,,,,,5.90514,-9.20084,,,,,,,2.0,,,4133.25019411825,-7040.74010049364,,,,,,,-0.478859,0.21494,1.95249,1.61828,0.0,2.34628,1628262530.09277,
1628280534.18542,-6.217680175238119e+18,-6.4513722909956e+17,1628262534.18542,0.2503,-0.287979,-0.010472,4.68097,-0.45385,13.284,0.0917294,,1.3284,,,,,-238.179,,,,0.1745,,3.33308,-0.45,,,,,,,4.66919,-8.77746,,,,,,,2.0,,,4133.2502310041,-7040.74103895148,,,,,,,-0.280387,0.0960483,1.95499,,0.0,2.7551,1628262534.09967,
1628280538.50281,-6.217680175238119e+18,-6.4513722909956e+17,1628262538.50281,0.35533,-0.172788,-0.020944,4.54309,-0.45385,13.5039,0.0504215,,1.35039,,,,,-215.23,-0.697102,,,0.1745,,3.32364,-0.45,,,,,,,3.0199,-8.58654,,,,,,,1.0,,,4133.25008586335,-7040.74221749285,,,,,,,-0.38046,0.0440411,1.95623,,0.0,3.06097,1628262538.13986,
1628280542.68369,-6.217680175238119e+18,-6.4513722909956e+17,1628262542.68369,0.158572,-0.181514,-0.0261799,4.55182,-0.45385,13.5314,0.006652,,1.35314,,,,,-192.716,-0.68544,,,0.1745,,3.31213,-0.45,,,,,,,2.24454,-8.26037,,,,,,,1.0,,,4133.25014047499,-7040.7428181686,,,,,,,-0.186742,0.0785577,1.95875,,0.0,3.14755,1628262542.2056,
1628280546.98331,-6.217680175238119e+18,-6.4513722909956e+17,1628262546.98331,0.0,-0.172788,-0.0174533,4.54658,-0.45385,13.4764,-0.0125421,,1.34764,,,,,-170.283,-0.897029,,,0.1745,,3.30594,-0.45,,,,,,,2.11464,-7.81355,,,,,,,1.0,,,4133.25035339654,-7040.74299615381,,,,,,,-0.0302102,0.10391,1.96124,,0.0,3.57175,1628262546.08273,
1628280551.14145,-6.217680175238119e+18,-6.4513722909956e+17,1628262551.14145,0.0,-0.16057,-0.0174533,4.5396,-0.45385,13.5039,0.00670718,,1.35039,,,,,-148.149,-0.882034,,,0.1745,,3.30369,-0.45,,,,,,,1.98905,-7.3816,,,,,,,1.0,,,4133.25055923721,-7040.74316821999,,,,,,,-0.0302102,0.10391,1.96625,,0.0,3.73325,1628262550.07941,
1628280555.4469,-6.217680175238119e+18,-6.4513722909956e+17,1628262555.4469,0.0,-0.122173,-0.00872665,4.51168,-0.45385,13.6688,0.0379031,,1.36688,,,,,-124.494,-1.09862,,,0.1745,,3.30153,-0.45,,,,,,,1.85906,-6.93447,,,,,,,1.0,,,4133.2507723073,-7040.74334632941,,,,,,,-0.0302102,0.10391,1.9675,,0.0,0.0162659,1628262558.09937,
1628280559.75116,-6.217680175238119e+18,-6.4513722909956e+17,1628262559.75116,0.0,-0.020944,-0.0244346,4.43663,-0.45385,13.7788,0.0258085,,1.37788,,14.9143,,,-100.132,-1.08529,,,0.1745,,3.29932,-0.45,,,,,,,1.729,-6.48714,,,,,,,1.0,,,4133.25098547642,-7040.74352452163,,,,,,,-0.0302102,0.10391,1.97001,,0.0,0.325165,1628262562.0957,
1628280564.048,-6.217680175238119e+18,-6.4513722909956e+17,1628262564.048,0.0,0.0122173,-0.0244346,4.40521,-0.45385,13.7788,0.0,,1.37788,,,,,-76.1243,-1.19858,,,0.1745,,3.29712,-0.45,,,,,,,1.59874,-6.03907,,,,,,,1.0,,,4133.25119899215,-7040.74370300362,,,,,,,-0.0302102,0.10391,1.97251,,0.0,0.651001,1628262566.08243,
1628280568.21033,-6.217680175238119e+18,-6.4513722909956e+17,1628262568.21033,0.0,0.015708,-0.020944,4.40347,-0.45385,13.7788,0.0,,1.37788,,,,,-53.9901,-1.19192,,,0.1745,,3.29494,-0.45,,,,,,,1.4734,-5.60795,,,,,,,1.0,,,4133.25140443667,-7040.74387473874,,,,,,,-0.0302102,0.10391,1.975,,0.0,0.80191,1628262570.08051,
1628280572.50589,-6.217680175238119e+18,-6.4513722909956e+17,1628262572.50589,0.0,0.0191986,-0.0296706,4.39299,-0.45385,13.7788,0.0,,1.37788,,,,,-30.6066,-1.19192,,,0.1745,,3.29285,-0.45,,,,,,,1.34364,-5.16165,,,,,,,1.0,,,4133.25161711061,-7040.7440525171,,,,,,,-0.0302102,0.10391,1.97873,,0.0,1.09641,1628262574.0795,
1628280576.65076,-6.217680175238119e+18,-6.4513722909956e+17,1628262576.65076,0.0,0.0226893,-0.0226893,4.38078,-0.452683,13.7788,0.0,,1.37788,,,,,-8.11938,-1.19192,,,0.1745,,3.29071,-0.45,,,,,,,1.21848,-4.73115,,,,,,,1.0,,,4133.25182225801,-7040.74422400391,,,,,,,-0.0302102,0.10391,1.98124,,0.0,1.23132,1628262578.0892,
1628280580.94254,-6.217680175238119e+18,-6.4513722909956e+17,1628262580.94254,0.0,0.0261799,-0.0226893,4.36856,-0.452683,13.7788,0.0,,1.37788,,,,,15.6986,-1.19192,,,0.1745,,3.28866,-0.45,,,,,,,1.08891,-4.28548,,,,,,,1.0,,,4133.25203463484,-7040.74440153396,,,,,,,-0.0302102,0.10391,1.98374,,0.0,1.53171,1628262582.07843,
1628280585.08395,-6.217680175238119e+18,-6.4513722909956e+17,1628262585.08395,0.0,0.0471239,-0.015708,4.34587,-0.45385,13.7788,0.0,,1.37788,,,,,38.8105,-1.19192,,,0.1745,,3.28656,-0.45,,,,,,,0.96378,-3.85509,,,,,,,1.0,,,4133.25223973272,-7040.74457297941,,,,,,,-0.0302102,0.10391,1.98499,,0.0,1.65421,1628262586.09836,
1628280589.37491,-6.217680175238119e+18,-6.4513722909956e+17,1628262589.37491,0.0,0.0994838,-0.0174533,4.30573,-0.45385,13.7788,0.0,,1.37788,,,,,62.9273,-1.19192,,,0.1745,,3.28454,-0.45,,,,,,,0.833997,-3.40869,,,,,,,1.0,,,4133.25245245616,-7040.74475079924,,,,,,,-0.0302102,0.10391,1.9875,,0.0,1.92065,1628262590.12552,
1628280593.67017,-6.217680175238119e+18,-6.4513722909956e+17,1628262593.67017,0.0,0.172788,-0.020944,4.26558,-0.45385,13.7513,-0.00640551,,1.37513,,,,,86.6095,-1.19192,,,0.1745,,3.28246,-0.45,,,,,,,0.704395,-2.96291,,,,,,,1.0,,,4133.25266488249,-7040.74492837074,,,,,,,-0.0302102,0.10391,1.99249,,0.0,2.25446,1628262594.08362,
1628280597.96182,-6.217680175238119e+18,-6.4513722909956e+17,1628262597.96182,-0.025069,0.247837,-0.020944,4.23068,-0.45385,13.7788,0.00634342,,1.37788,,,,,111.297,-1.19192,,,0.1745,,3.28041,-0.45,,,,,,,0.669877,-2.46407,,,,,,,2.0,,,4133.25291896578,-7040.74505063397,,,,,,,-0.00799402,0.115525,1.995,,0.0,2.55972,1628262598.09265,
1628280602.13879,-6.217680175238119e+18,-6.4513722909956e+17,1628262602.13879,0.0149698,0.312414,-0.0191986,4.22544,-0.45385,13.7513,-0.00663273,,1.37513,,,,,134.436,-1.19192,,,0.1745,,3.27884,-0.45,,,,,,,0.488949,-2.06046,,,,,,,2.0,,,4133.25310187973,-7040.74525539366,,,,,,,-0.04344,0.0969056,1.99625,,0.0,2.71741,1628262602.09293,
1628280606.45483,-6.217680175238119e+18,-6.4513722909956e+17,1628262606.45483,0.100218,0.335103,-0.015708,4.25162,-0.45385,13.5589,-0.0440683,,1.35589,,,,,158.064,-1.06863,,,0.1745,,3.2766,-0.45,,,,,,,-0.0286314,-1.80443,,,,,,,2.0,,,4133.2531582371,-7040.74566392379,,,,,,,-0.119977,0.0593498,1.99875,,0.0,3.04404,1628262606.07986,
1628280610.62308,-6.217680175238119e+18,-6.4513722909956e+17,1628262610.62308,0.203957,0.305433,-0.0191986,4.29875,-0.45385,13.229,-0.0790776,,1.3229,,,,,180.958,-0.972001,,,0.1745,,3.27259,-0.45,,,,,,,-0.932946,-1.71302,,,,,,,2.0,,,4133.25307175735,-7040.74630750462,,,,,,,-0.216966,0.0219303,2.00376,,0.0,3.20139,1628262610.09134,
1628280614.93683,-6.217680175238119e+18,-6.4513722909956e+17,1628262614.93683,0.103812,0.261799,-0.0226893,4.32667,-0.45385,13.0641,-0.0384689,,1.30641,,,,,204.966,-0.990328,,,0.1745,,3.26652,-0.45,,,,,,,-1.47796,-1.43337,,,,,,,2.0,,,4133.25313632034,-7040.74673967013,,,,,,,-0.126395,0.0648538,2.00498,,0.0,3.46378,1628262614.14197,
1628280619.2554,-6.217680175238119e+18,-6.4513722909956e+17,1628262619.2554,0.247602,0.277507,-0.0226893,4.30922,-0.45385,12.6793,-0.0883593,,1.26793,,,,,228.35,-0.842604,,,0.1745,,3.26229,-0.45,,,,,,,-2.59209,-1.40415,,,,,,,2.0,,,4133.25298644797,-7040.74751612454,,,,,,,-0.25796,0.00676692,2.00748,,0.0,3.84744,1628262618.07828,
1628280623.56998,-6.217680175238119e+18,-6.4513722909956e+17,1628262623.56998,0.0296434,0.303687,-0.0261799,4.29526,-0.45385,12.6243,-0.012826,,1.26243,,14.8957,,,250.212,-0.86704,,,0.1745,,3.25499,-0.45,,,,,,,-2.83928,-1.00778,,,,,,,2.0,,,4133.25315578145,-7040.74776528916,,,,,,,-0.0573118,0.0919007,2.00998,,0.0,0.145721,1628262626.09305,
1628280627.8085,-6.217680175238119e+18,-6.4513722909956e+17,1628262627.8085,0.31939,0.275762,-0.0279253,4.2778,-0.45385,12.1571,-0.111919,,1.21571,,,7.3384,,,-0.683774,,,0.1745,,3.25243,-0.45,,,,,,,-4.23793,-1.1414,,,,,,,2.0,,,4133.2528791382,-7040.74870643913,,,,,,,-0.319911,-0.0305641,2.01249,,0.0,0.42804,1628262630.18481,
1628280632.1803,-6.217680175238119e+18,-6.4513722909956e+17,1628262632.1803,0.384206,0.223402,-0.0279253,4.28653,-0.45385,11.6623,-0.115272,,1.16623,,,,,,-0.683774,,,0.1745,,3.24361,-0.45,,,,,,,-5.84841,-1.37362,,,,,,,2.0,,,4133.25251988302,-7040.74977468009,,,,,,,-0.380101,-0.0548069,2.01377,,0.0,0.767822,1628262634.08221,
1628280636.26938,-6.217680175238119e+18,-6.4513722909956e+17,1628262636.26938,0.153172,0.18675,-0.0226893,4.27955,-0.45385,11.4699,-0.0472037,,1.14699,,,,,,-0.683774,,,0.1745,,3.23352,-0.45,,,,,,,-6.53881,-1.21184,,,,,,,1.0,,,4133.25250166313,-7040.7502841642,,,,,,,-0.169256,0.0396622,2.01377,,0.0,0.849548,1628262638.09012,
1628280640.4848,-6.217680175238119e+18,-6.4513722909956e+17,1628262640.4848,0.144343,0.200713,-0.0331613,4.21148,-0.45385,11.0301,-0.103065,,1.10301,,,,,250.946,-0.683774,,,0.1745,,3.22859,-0.45,,,,,,,-7.20043,-1.06589,,,,,,,1.0,,,4133.2524794795,-7040.75077062302,,,,,,,-0.15682,0.0345936,2.01499,,0.0,0.994659,1628262642.16116,
1628280644.68814,-6.217680175238119e+18,-6.4513722909956e+17,1628262644.68814,0.647723,0.228638,-0.0488692,4.13643,-0.45385,10.343,-0.153245,,1.0343,,,,,250.946,-0.683774,10.944,3.648,0.1745,,3.22386,-0.249285,,,,,,,-9.60887,-2.11112,,,,,,,1.0,,,4133.25157956151,-7040.75223048505,,,,,,,-0.573437,-0.248865,2.01499,,0.0,1.23953,1628262646.11618,
1628280649.04431,-6.217680175238119e+18,-6.4513722909956e+17,1628262649.04431,0.242868,0.207694,-0.0453786,4.10152,-0.248956,10.0407,-0.0718333,,1.00407,,,,,250.891,-0.683774,4.902,1.634,0.1745,,3.20971,-0.233653,,,,,,,-10.6126,-2.26614,,,,,,,2.0,,,4133.25135031274,-7040.75289421334,,,,,,,-0.229156,-0.0353929,2.01627,1.62401,0.0,1.6189,1628262650.09665,
1628280653.44165,-6.217680175238119e+18,-6.4513722909956e+17,1628262653.44165,1.06863,0.185005,-0.0279253,4.11723,-0.248956,9.90322,-0.0300788,,0.990322,,,,,250.973,-0.683774,5.244,1.748,0.1745,,3.20312,-0.21374,,,,,,,-14.6171,-4.43317,,,,,,,1.0,,,4133.24963105032,-7040.75523687861,,,,,,,-0.915102,-0.495207,2.01627,1.63066,0.0,2.01434,1628262654.09552,
1628280657.80969,-6.217680175238119e+18,-6.4513722909956e+17,1628262657.80969,0.339494,0.207694,-0.0296706,4.11898,-0.211323,9.49093,-0.0980011,,0.949093,,,,,251.027,-0.683774,4.56,1.52,0.1745,,3.1789,-0.194677,,,,,,,-15.9818,-4.80946,,,,,,,2.0,,,4133.24923333254,-7040.7561067312,,,,,,,-0.311663,-0.0859321,2.01749,1.63598,0.0,2.39523,1628262658.08231,
1628280662.1922,-6.217680175238119e+18,-6.4513722909956e+17,1628262662.1922,0.304569,0.228638,-0.0436332,4.09454,-0.211323,9.07864,-0.0940015,,0.907864,,,,,250.973,-0.683774,4.446,1.482,0.1745,,3.16971,-0.209093,,,,,,,-17.2027,-5.1274,,,,,,,2.0,,,4133.24888726733,-7040.75688852082,,,,,,,-0.278473,-0.0725209,2.01749,1.64138,0.0,2.77182,1628262662.09,
1628280666.57211,-6.217680175238119e+18,-6.4513722909956e+17,1628262666.57211,0.349585,0.228638,-0.0436332,4.07011,-0.211323,8.61138,-0.107023,,0.861138,,,,,250.891,-0.683774,4.332,1.444,0.1745,,3.16134,-0.216582,,,,,,,-18.5614,-5.58959,,,,,,,2.0,,,4133.24844581857,-7040.75773722743,,,,,,,-0.310134,-0.105499,2.01877,1.64663,0.0,3.15671,1628262666.08484,
1628280670.94907,-6.217680175238119e+18,-6.4513722909956e+17,1628262670.94907,0.41596,0.246091,-0.0314159,4.06487,-0.211323,8.03417,-0.132691,,0.803417,,,,,250.81,-0.683774,4.332,1.444,0.1745,,3.15206,-0.212786,,,,,,,-20.1453,-6.23286,,,,,,,2.0,,,4133.24787690118,-7040.75870606781,,,,,,,-0.361973,-0.147,2.01999,1.65187,0.0,3.50867,1628262670.11081,
1628280675.32968,-6.217680175238119e+18,-6.4513722909956e+17,1628262675.32968,0.360525,0.272271,-0.0628319,4.02473,-0.211323,7.48445,-0.124456,,0.748445,,,,,250.918,-0.568816,4.788,1.596,0.1745,,3.14121,-0.205514,,,,,,,-21.4991,-6.78053,,,,,,,2.0,,,4133.24739176405,-7040.75953451227,,,,,,,-0.3088,-0.124926,2.01999,1.65777,0.0,3.90277,1628262674.09668,
1628280679.71811,-6.217680175238119e+18,-6.4513722909956e+17,1628262679.71811,0.192626,0.270526,-0.0698132,3.99506,-0.211323,7.1821,-0.0686527,,0.71821,,,,,250.946,-0.588808,4.218,1.406,0.1745,,3.13175,-0.213504,,,,,,,-22.2678,-6.8801,,,,,,,2.0,,,4133.24722615377,-7040.76004656655,,,,,,,-0.175366,-0.0227172,2.02127,1.66299,0.0,0.290314,1628262682.09668,
1628280684.09912,-6.217680175238119e+18,-6.4513722909956e+17,1628262684.09912,0.966129,0.225147,-0.0593412,3.9811,-0.211323,6.65987,-0.12022,,0.665987,,,,,250.918,-0.468852,4.104,1.368,0.1745,,3.12607,-0.205379,,,,,,,-26.0548,-9.61584,,,,,,,1.0,,,4133.24524359954,-7040.76212662574,,,,,,,-0.749312,-0.541302,2.0225,1.66787,0.0,1.3681,1628262686.08966,
1628280689.14862,-6.217680175238119e+18,-6.4513722909956e+17,1628262689.14862,0.972935,0.191986,-0.0523599,3.96539,-0.211323,6.05518,-0.111464,,0.605518,,14.8945,,,251.027,-0.342232,4.14729,1.368,,,3.09948,-0.19385,,,,,,7.0,-29.3131,-12.0556,,,,,,,1.0,,,4133.24349318323,-7040.76389935283,,,,,,,-0.744081,-0.557142,2.0225,1.67433,0.0,1.74445,1628262690.08313,
1628280693.86221,-6.217680175238119e+18,-6.4513722909956e+17,1628262693.86221,0.980258,0.148353,-0.0593412,3.9619,-0.211323,5.50545,-0.100387,,0.550545,,,,,,0.0193022,,,,,3.07508,-0.197012,,,,,,,-33.0443,-14.8753,,,,,,,1.0,,,4133.24147526463,-7040.765924191,,,,,,,-0.747125,-0.564624,2.02378,,0.0,2.74054,1628262694.08459,
1628280698.53009,-6.217680175238119e+18,-6.4513722909956e+17,1628262698.53009,0.9894,-0.0593412,-0.0471239,4.0544,-0.211323,5.25808,-0.0642031,,0.525808,,,,,250.918,0.0193022,,,,,3.04512,-0.196054,,,,,2.0,7.0,-36.5997,-17.0668,,,,,,,1.0,,,4133.23980982567,-7040.76795141057,,,,,,,-0.813047,-0.501135,2.025,,0.0,3.10028,1628262698.09912,
1628280703.04761,-6.217680175238119e+18,-6.4513722909956e+17,1628262703.04761,0.0,-0.123918,-0.0418879,4.0928,-0.211323,5.67037,0.090753,,0.567037,,,,,250.973,0.0193022,0.0,0.0,,,3.01473,-0.185006,,,,,2.0,2.0,-36.7361,-16.5975,,,,,,,1.0,,,4133.24003344213,-7040.76813833734,,,,,,,-0.0302102,0.10391,2.02622,1.67433,0.0,3.58432,1628262702.1347,
1628280707.42053,-6.217680175238119e+18,-6.4513722909956e+17,1628262707.42053,0.0,-0.0436332,-0.0191986,4.05615,-0.182375,5.78031,0.0262899,,0.578031,,,,,250.918,0.0193022,,,,,3.01371,-0.45,,,,,2.0,2.0,-36.8683,-16.143,,,,,,,1.0,,,4133.24025002723,-7040.76831938644,,,,,,,-0.0302102,0.10391,2.02622,,0.0,3.80878,1628262706.28317,
1628280711.77368,-6.217680175238119e+18,-6.4513722909956e+17,1628262711.77368,0.0,0.0314159,-0.0226893,4.02647,-0.452683,5.67037,-0.0261212,,0.567037,,,,,250.864,0.0193022,,,,,3.01273,-0.45,,,,,2.0,2.0,-36.9996,-15.6914,,,,,,,1.0,,,4133.24046522588,-7040.76849927659,,,,,,,-0.0302102,0.10391,2.0275,,0.0,0.36142,1628262714.08011,
1628280715.96494,-6.217680175238119e+18,-6.4513722909956e+17,1628262715.96494,0.147273,0.0191986,-0.0279253,3.98982,-0.452683,5.56043,-0.0264162,,0.556043,,,,,250.946,0.0193022,,,,,3.01177,-0.45,,,,,,7.0,-37.59,-15.664,,,,,,,1.0,,,4133.24039196335,-7040.76891310114,,,,,,,-0.140681,0.00651713,2.0275,,0.0,0.553436,1628262718.08188,
1628280720.48053,-6.217680175238119e+18,-6.4513722909956e+17,1628262720.48053,0.813625,-0.0506145,-0.0418879,4.00902,-0.452683,5.14814,-0.0841409,,0.514814,,,,,250.946,0.0176361,10.146,3.382,,,3.0068,-0.233786,,,,,2.0,7.0,-40.5326,-17.5738,,,,,,,1.0,,,4133.23896367098,-7040.77057195771,,,,,,,-0.650736,-0.422334,2.02872,1.72342,0.0,1.05807,1628262722.09442,
1628280725.01855,-6.217680175238119e+18,-6.4513722909956e+17,1628262725.01855,0.0,-0.0610865,-0.0436332,3.9968,-0.231587,5.53294,0.0847401,,0.553294,,,,,251.0,0.0193022,0.0,0.0,,,2.98067,-0.213402,,,,,2.0,7.0,-40.6695,-17.1032,,,,,,,1.0,,,4133.23918793108,-7040.77075942267,,,,,,,-0.0302102,0.10391,2.02872,1.72342,0.0,1.59583,1628262726.09366,
1628280729.39114,-6.217680175238119e+18,-6.4513722909956e+17,1628262729.39114,0.0,-0.015708,-0.0261799,3.97935,-0.211323,5.39551,-0.0326903,,0.539551,,,,,251.0,0.0193022,,,,,2.97987,-0.45,,,,,2.0,7.0,-40.8015,-16.6489,,,,,,,1.0,,,4133.23940441708,-7040.7709403891,,,,,,,-0.0302102,0.10391,2.03,,0.0,1.95956,1628262730.09988,
1628280733.60742,-6.217680175238119e+18,-6.4513722909956e+17,1628262733.60742,0.0,0.0174533,-0.020944,3.94095,-0.45385,5.25808,-0.0338248,,0.525808,,,,,250.946,0.0193022,,,,,2.9791,-0.45,,,,,2.0,7.0,-40.9289,-16.211,,,,,,,1.0,,,4133.23961312899,-7040.77111485698,,,,,,,-0.0302102,0.10391,2.03122,,0.0,2.19016,1628262734.08597,
1628280737.95618,-6.217680175238119e+18,-6.4513722909956e+17,1628262737.95618,0.1473,0.00174533,-0.0296706,3.94095,-0.452683,5.03819,-0.0507123,,0.503819,,,,,250.973,0.0193022,,,,,2.97837,-0.45,,,,,2.0,2.0,-41.5201,-16.2057,,,,,,,1.0,,,4133.23952829863,-7040.7715248486,,,,,,,-0.135811,0.00121816,2.03122,,0.0,2.53104,1628262738.09619,
1628280742.47488,-6.217680175238119e+18,-6.4513722909956e+17,1628262742.47488,0.794562,-0.0366519,-0.0331613,3.92699,-0.45385,4.8183,-0.0461175,,0.48183,,,,,251.027,0.0193022,10.26,3.42,,,2.9734,-0.215725,,,,,2.0,2.0,-44.1949,-18.2746,,,,,,,1.0,,,4133.23805698675,-7040.77296710799,,,,,,,-0.59205,-0.45793,2.03122,1.77334,0.0,3.06564,1628262742.07788,
1628280746.99951,-6.217680175238119e+18,-6.4513722909956e+17,1628262746.99951,0.0,-0.0349066,-0.0366519,3.89034,-0.214218,4.98322,0.0375065,,0.498322,,,,,251.054,0.0193022,0.0,0.0,,,2.94862,-0.215829,,,,,2.0,2.0,-44.3316,-17.8047,,,,,,,1.0,,,4133.23828090016,-7040.7731542833,,,,,,,-0.0302102,0.10391,2.03251,1.77334,0.0,3.58987,1628262746.08069,
1628280751.35944,-6.217680175238119e+18,-6.4513722909956e+17,1628262751.35944,0.0,0.0122173,-0.0296706,3.86067,-0.214218,4.98322,0.0,,0.498322,,14.8953,7.34497,,250.918,0.0193022,,,,,2.94802,-0.45,,,,,2.0,2.0,-44.4634,-17.3512,,,,,,,1.0,,,4133.23849698997,-7040.77333491867,,,,,,,-0.0302102,0.10391,2.03373,,0.0,3.94601,1628262750.08469,
1628280755.72305,-6.217680175238119e+18,-6.4513722909956e+17,1628262755.72305,0.147243,0.0279253,-0.0226893,3.83449,-0.45385,4.8183,-0.039883,,0.48183,,,,,251.027,0.0193022,,,,,2.94745,-0.45,,,,,,7.0,-45.0054,-17.3921,,,,,,,1.0,,,4133.23839543006,-7040.77370180028,,,,,,,-0.124264,-0.00937795,2.03373,,0.0,0.289032,1628262758.10403,
1628280760.06656,-6.217680175238119e+18,-6.4513722909956e+17,1628262760.06656,0.710782,-0.00523599,-0.0279253,3.82576,-0.452683,4.18612,-0.134822,,0.418612,,,,,250.973,0.0193022,10.716,3.572,,,2.94284,-0.209532,,,,,2.0,7.0,-47.0881,-19.3335,,,,,,,1.0,,,4133.23707813393,-7040.77475958972,,,,,,,-0.479445,-0.446906,2.03501,1.81259,0.0,0.642029,1628262762.09531,
1628280764.60938,-6.217680175238119e+18,-6.4513722909956e+17,1628262764.60938,0.0,-0.0331613,-0.0383972,3.82925,-0.205534,4.4335,0.0563239,,0.44335,,,,,250.864,0.0193022,0.0,0.0,,,2.92242,-0.198616,,,,,2.0,7.0,-47.2252,-18.8619,,,,,,,1.0,,,4133.23730283956,-7040.77494742736,,,,,,,-0.0302102,0.10391,2.03623,1.81259,0.0,1.09216,1628262766.18597,
1628280768.97888,-6.217680175238119e+18,-6.4513722909956e+17,1628262768.97888,0.0,-0.020944,-0.0314159,3.81005,-0.205534,4.4335,0.0,,0.44335,,,,,250.973,0.0193022,,,,,2.922,-0.45,,,,,2.0,7.0,-47.3572,-18.4081,,,,,,,1.0,,,4133.23751912738,-7040.77512822836,,,,,,,-0.0302102,0.10391,2.03623,,0.0,1.42648,1628262770.22052,
1628280773.33856,-6.217680175238119e+18,-6.4513722909956e+17,1628262773.33856,0.0,0.00872665,-0.0174533,3.7926,-0.452683,4.4335,0.0,,0.44335,,,,,251.109,0.0193022,,,,,2.92159,-0.45,,,,,2.0,7.0,-47.489,-17.9546,,,,,,,1.0,,,4133.23773521714,-7040.7753088638,,,,,,,-0.0302102,0.10391,2.03751,,0.0,1.75986,1628262774.25021,
1628280777.52997,-6.217680175238119e+18,-6.4513722909956e+17,1628262777.52997,0.1473,-0.00174533,-0.020944,3.77689,-0.452683,4.18612,-0.0598101,,0.418612,,,,,250.81,0.0193022,,,,,2.92119,-0.45,,,,,2.0,2.0,-47.982,-18.016,,,,,,,1.0,,,4133.23763028214,-7040.77563774504,,,,,,,-0.117621,-0.0146503,2.03751,,0.0,2.1207,1628262778.07809,
1628280782.04639,-6.217680175238119e+18,-6.4513722909956e+17,1628262782.04639,0.0,-0.0226893,-0.0471239,3.77689,-0.452683,3.93875,-0.0493171,,0.393875,,,,,251.109,0.0193022,0.0,0.0,,,2.91697,-0.198047,,,,,2.0,2.0,-48.1185,-17.5464,,,,,,,1.0,,,4133.23785404693,-7040.77582479631,,,,,,,-0.0302102,0.10391,2.03873,1.81259,0.0,2.62213,1628262782.09412,
1628280786.57166,-6.217680175238119e+18,-6.4513722909956e+17,1628262786.57166,0.0,-0.0296706,-0.0261799,3.76293,-0.193954,3.93875,0.0,,0.393875,,,,,251.027,0.0176361,,,,,2.91659,-0.45,,,,,2.0,2.0,-48.2551,-17.0764,,,,,,,1.0,,,4133.23807800978,-7040.77601201316,,,,,,,-0.0302102,0.10391,2.03873,,0.0,3.15268,1628262786.08777,
1628280791.08194,-6.217680175238119e+18,-6.4513722909956e+17,1628262791.08194,0.0,-0.010472,-0.0191986,3.76468,-0.452683,3.88378,-0.0126781,,0.388378,,,,,251.054,0.0193022,,,,,2.91621,-0.45,,,,,,7.0,-48.3913,-16.608,,,,,,,1.0,,,4133.23830122987,-7040.77619860916,,,,,,,-0.0302102,0.10391,2.04001,,0.0,3.65759,1628262790.09283,
1628280795.42657,-6.217680175238119e+18,-6.4513722909956e+17,1628262795.42657,0.0,0.00872665,-0.0174533,3.7385,-0.45385,3.85629,-0.00620312,,0.385629,,,,,250.918,0.0193022,,,,,2.91584,-0.45,,,,,2.0,7.0,-48.5229,-16.1554,,,,,,,1.0,,,4133.23851692347,-7040.77637891356,,,,,,,-0.0302102,0.10391,2.04123,,0.0,4.0087,1628262794.09171,
1628280799.96161,-6.217680175238119e+18,-6.4513722909956e+17,1628262799.96161,0.1473,-0.00174533,-0.0296706,3.74722,-0.45385,3.47149,-0.0846282,,0.347149,,,,,250.973,0.0193022,,,,,2.91548,-0.45,,,,,2.0,7.0,-49.0394,-16.2332,,,,,,,1.0,,,4133.23839995759,-7040.77672083385,,,,,,,-0.114065,-0.0171912,2.04123,,0.0,0.54895,1628262802.08206,
1628280804.69098,-6.217680175238119e+18,-6.4513722909956e+17,1628262804.69098,0.0,-0.0418879,-0.0349066,3.74548,-0.45385,3.33406,-0.0271816,,0.333406,,,,,250.891,0.0193022,0.0,0.0,,,2.91116,-0.183155,,,,,2.0,7.0,-49.1821,-15.7424,,,,,,,1.0,,,4133.23863387321,-7040.77691637061,,,,,,,-0.0302102,0.10391,2.04123,1.81259,0.0,1.27084,1628262806.09006,
1628280809.22705,-6.217680175238119e+18,-6.4513722909956e+17,1628262809.22705,0.0,-0.0418879,-0.0349066,3.74548,-0.17948,3.30657,-0.00660087,,0.330657,,,,,251.0,0.0193022,,,,,2.91081,0.0,,,,,2.0,7.0,-49.3191,-15.2711,,,,,,,1.0,,,4133.23885843023,-7040.77710408428,,,,,,,-0.0302102,0.10391,2.04252,,0.0,1.80368,1628262810.09314,
1628280813.57608,-6.217680175238119e+18,-6.4513722909956e+17,1628262813.57608,0.0,-0.0418879,-0.0349066,3.74548,0.00578968,3.08668,-0.053216,,0.308668,,14.8968,,,250.973,0.0193022,,,,,2.91047,0.0,,,,,2.0,7.0,-49.4505,-14.8191,,,,,,,1.0,,,4133.2390738267,-7040.7772841404,,,,,,,-0.0302102,0.10391,2.04374,,0.0,2.13565,1628262814.11182,
1628280818.08289,-6.217680175238119e+18,-6.4513722909956e+17,1628262818.08289,0.0,-0.0418879,-0.0349066,3.74548,0.00578968,2.78434,-0.0666402,,0.278434,,,,,250.864,0.0193022,,,,,2.91016,0.0,,,,,2.0,2.0,-49.5866,-14.351,,,,,,,1.0,,,4133.23929689821,-7040.77747061235,,,,,,,-0.0302102,0.10391,2.04374,,0.0,2.66125,1628262818.09171,
1628280822.41425,-6.217680175238119e+18,-6.4513722909956e+17,1628262822.41425,0.0,-0.0418879,-0.0349066,3.74548,0.00578968,2.53696,-0.0507539,,0.253696,,,,,250.946,0.0193022,,,,,2.90984,0.0,,,,,2.0,2.0,-49.7186,-13.8971,,,,,,,1.0,,,4133.23951318596,-7040.77765141357,,,,,,,-0.0302102,0.10391,2.04502,,0.0,3.02945,1628262822.08691,
1628280826.93024,-6.217680175238119e+18,-6.4513722909956e+17,1628262826.93024,0.0,-0.0418879,-0.0349066,3.74548,0.00578968,2.23462,-0.0772277,,0.223462,,,,,108.852,0.0193022,,,,,2.90953,0.0,,,,,2.0,2.0,-49.8538,-13.432,,,,,,,1.0,,,4133.23973482149,-7040.77783668518,,,,,,,-0.0302102,0.10391,2.04502,,0.0,3.50134,1628262826.09818,
1628280831.19662,-6.217680175238119e+18,-6.4513722909956e+17,1628262831.19662,0.0,-0.0418879,-0.0349066,3.74548,0.00578968,2.09719,-0.0326826,,0.209719,,,,,-41.2528,0.0193022,,,,,2.90921,0.0,,,,,,7.0,-49.9828,-12.9882,,,,,,,1.0,,,4133.23994630614,-7040.7780134714,,,,,,,-0.0302102,0.10391,2.04624,,0.0,3.78824,1628262830.08035,
1628280835.63425,-6.217680175238119e+18,-6.4513722909956e+17,1628262835.63425,0.0,-0.0418879,-0.0349066,3.74548,0.00578968,1.84981,-0.0548137,,0.184981,,,,,-197.794,0.0292985,,,,,2.90892,0.0,,,,,2.0,7.0,-50.117,-12.5266,,,,,,,1.0,,,4133.2401662581,-7040.77819733572,,,,,,,-0.0302102,0.10391,2.04624,,0.0,0.219788,1628262838.08862,
1628280839.90594,-6.217680175238119e+18,-6.4513722909956e+17,1628262839.90594,0.0,-0.0418879,-0.0349066,3.74548,0.00578968,2.23462,0.0922129,,0.223462,,,,,,0.0292985,,,,,2.90861,0.0,,,,,2.0,7.0,-50.2457,-12.084,,,,,,,1.0,,,4133.24037719806,-7040.77837366667,,,,,,,-0.0302102,0.10391,2.04624,,0.0,0.481964,1628262842.09366,
1628280844.25504,-6.217680175238119e+18,-6.4513722909956e+17,1628262844.25504,0.0,-0.0418879,-0.0349066,3.74548,0.00578968,2.75685,0.119232,,0.275685,,,,,-263.328,0.0292985,,,,,2.90832,0.0,,,,,2.0,7.0,-50.3771,-11.6321,,,,,,,1.0,,,4133.24059254497,-7040.77855368154,,,,,,,-0.0302102,0.10391,2.04752,,0.0,0.824188,1628262846.09955,
1628280848.60843,-6.217680175238119e+18,-6.4513722909956e+17,1628262848.60843,0.0,-0.0418879,-0.0349066,3.74548,0.00578968,3.33406,0.132813,,0.333406,,,,,-263.328,0.0292985,,,,,2.90803,0.0,,,,,2.0,7.0,-50.5086,-11.1797,,,,,,,1.0,,,4133.24080808995,-7040.77873386201,,,,,,,-0.0302102,0.10391,2.04874,,0.0,1.17847,1628262850.0976,
1628280852.94186,-6.217680175238119e+18,-6.4513722909956e+17,1628262852.94186,0.0,-0.0418879,-0.0349066,3.74548,0.00578968,3.88378,0.12859,,0.388378,,,,,-263.491,0.0292985,,,,,2.90774,0.0,,,,,2.0,2.0,-50.6397,-10.729,,,,,,,1.0,,,4133.24102289218,-7040.77891342161,,,,,,,-0.0302102,0.10391,2.04874,,0.0,1.51657,1628262854.09631,
1628280857.12595,-6.217680175238119e+18,-6.4513722909956e+17,1628262857.12595,0.0,-0.0418879,-0.0349066,3.74548,0.00578968,4.4335,0.131011,,0.44335,,,,,-263.491,0.0292985,,,,,2.90746,0.0,,,,,2.0,2.0,-50.766,-10.2944,,,,,,,1.0,,,4133.24122996984,-7040.77908652404,,,,,,,-0.0302102,0.10391,2.04874,,0.0,1.7066,1628262858.08902,
1628280861.46838,-6.217680175238119e+18,-6.4513722909956e+17,1628262861.46838,0.0,-0.0418879,-0.0349066,3.74548,0.00578968,5.31305,0.203271,,0.531305,,,,,-263.328,0.0276325,,,,,2.90719,0.0,,,,,2.0,2.0,-50.8983,-9.8393,,,,,,,1.0,,,4133.24144685174,-7040.77926782215,,,,,,,-0.0302102,0.10391,2.05002,,0.0,2.08554,1628262862.08862,
1628280865.8454,-6.217680175238119e+18,-6.4513722909956e+17,1628262865.8454,0.0,-0.0418879,-0.0349066,3.74548,0.00578968,6.13763,0.188562,,0.613763,,,,,-263.382,0.0292985,,,,,2.9069,0.0,,,,,2.0,2.0,-51.0304,-9.38501,,,,,,,1.0,,,4133.24166333751,-7040.77944878915,,,,,,,-0.0302102,0.10391,2.05124,,0.0,2.46432,1628262866.0845,
1628280870.22202,-6.217680175238119e+18,-6.4513722909956e+17,1628262870.22202,0.0,-0.0418879,-0.0349066,3.74548,0.00578968,7.1821,0.237812,,0.71821,,,,,-263.409,0.0292985,,,,,2.90663,0.0,,,,,,7.0,-51.1616,-8.93362,,,,,,,1.0,,,4133.24187843681,-7040.77962859719,,,,,,,-0.0302102,0.10391,2.05124,,0.0,2.79578,1628262870.09528,
1628280874.42871,-6.217680175238119e+18,-6.4513722909956e+17,1628262874.42871,0.279422,-0.509636,-0.020944,4.47328,0.00578968,7.95171,0.170117,,0.795171,,,7.02657,,-263.491,-0.117314,,,-0.1745,,2.90635,-0.45,,,,,,,-52.4353,-8.77431,,,,,,,2.0,,,4133.2417725102,-7040.78054108685,,,,,,,-0.301682,0.0377327,2.05124,,0.0,3.01471,1628262874.08307,
1628280878.8335,-6.217680175238119e+18,-6.4513722909956e+17,1628262878.8335,0.319299,-0.535816,0.00174533,4.52564,-0.45385,8.83127,0.204595,,0.883127,,14.8988,,,-263.572,-0.490511,,,-0.1745,,2.89728,-0.45,,,,,,,-53.9477,-8.57809,,,,,,,2.0,,,4133.24165040562,-7040.78162596076,,,,,,,-0.343957,0.0446273,2.05252,,0.0,3.40671,1628262878.0946,
1628280882.92612,-6.217680175238119e+18,-6.4513722909956e+17,1628262882.92612,0.563819,-0.349066,0.00174533,4.3354,-0.452683,9.76579,0.234746,,0.976579,,,,,-263.464,-0.490511,,,-0.1745,,2.88663,-0.45,,,,,,,-56.2176,-9.00241,,,,,,,2.0,,,4133.24109363727,-7040.78311242045,,,,,,,-0.554436,-0.103645,2.05375,,0.0,3.50677,1628262882.08817,
1628280887.16721,-6.217680175238119e+18,-6.4513722909956e+17,1628262887.16721,0.364107,-0.167552,-0.020944,4.18181,-0.452683,10.1506,0.0911212,,1.01506,,,,,-263.464,-0.490511,,,-0.1745,,2.8695,-0.45,,,,,,,-57.6735,-9.34217,,,,,,,1.0,,,4133.2407014057,-7040.78405248677,,,,,,,-0.344258,-0.0803401,2.05375,,0.0,3.73734,1628262886.09772,
1628280891.24942,-6.217680175238119e+18,-6.4513722909956e+17,1628262891.24942,0.230293,-0.237365,-0.0174533,4.19228,-0.452683,10.4804,0.0742197,,1.04804,,,,,-263.518,-0.623796,,,0.1745,,2.8584,-0.45,,,,,,,-58.6176,-9.38542,,,,,,,2.0,,,4133.24053905553,-7040.78469704459,,,,,,,-0.23005,-0.0105391,2.05375,,0.0,3.8223,1628262890.09509,
1628280895.60385,-6.217680175238119e+18,-6.4513722909956e+17,1628262895.60385,0.287384,-0.3735,-0.0122173,4.297,-0.452683,11.0301,0.129377,,1.10301,,,,,-245.05,-0.683774,,,0.1745,,2.85159,-0.45,,,,,,,-59.8922,-9.43787,,,,,,,2.0,,,4133.24032296244,-7040.78556841551,,,,,,,-0.293155,-0.0120619,2.05503,,0.0,0.176849,1628262898.09808,
1628280899.7634,-6.217680175238119e+18,-6.4513722909956e+17,1628262899.7634,0.363705,-0.312414,-0.00523599,4.26035,-0.452683,11.5799,0.139594,,1.15799,,,,,-222.699,-0.673777,,,0.1745,,2.84247,-0.45,,,,,,,-61.3779,-9.66632,,,,,,,2.0,,,4133.23998415188,-7040.78655103464,,,,,,,-0.357384,-0.0549568,2.05875,,0.0,0.346588,1628262902.08652,
1628280904.07104,-6.217680175238119e+18,-6.4513722909956e+17,1628262904.07104,0.348994,-0.125664,-0.00872665,4.13294,-0.452683,12.1021,0.121253,,1.21021,,,,,-199.342,-0.673777,,,0.1745,,2.83152,-0.45,,,,,,,-62.7619,-10.0408,,,,,,,1.0,,,4133.23958453461,-7040.78743454448,,,,,,,-0.322236,-0.0871856,2.06125,,0.0,0.646454,1628262906.09274,
1628280908.2149,-6.217680175238119e+18,-6.4513722909956e+17,1628262908.2149,0.156044,-0.0610865,-0.015708,4.0736,-0.452683,12.1571,0.0132655,,1.21571,,,,,-177.1,-0.673777,,,0.1745,,2.82097,-0.45,,,,,,,-63.4064,-9.99572,,,,,,,1.0,,,4133.23951246896,-7040.78788924931,,,,,,,-0.155485,0.010873,2.06375,,0.0,0.798004,1628262910.0878,
1628280912.51968,-6.217680175238119e+18,-6.4513722909956e+17,1628262912.51968,0.0,-0.146608,-0.0279253,4.0928,-0.452683,12.3495,0.0447135,,1.23495,,,,,-154.314,-0.673777,,,0.1745,,2.81663,-0.45,,,,,,,-63.5365,-9.54817,,,,,,,1.0,,,4133.23972573594,-7040.78806752619,,,,,,,-0.0302102,0.10391,2.06498,,0.0,1.09622,1628262914.09485,
1628280916.66699,-6.217680175238119e+18,-6.4513722909956e+17,1628262916.66699,0.265127,-0.214676,-0.0174533,4.06836,-0.452683,12.6793,0.0794203,,1.26793,,,,,-131.609,-0.673777,,,0.1745,,2.81686,-0.45,,,,,,,-64.5427,-9.7778,,,,,,,2.0,,,4133.2394573484,-7040.78871827506,,,,,,,-0.242228,-0.0552773,2.06748,,0.0,1.24359,1628262918.09116,
1628280920.97299,-6.217680175238119e+18,-6.4513722909956e+17,1628262920.97299,0.343446,-0.13439,-0.020944,3.97062,-0.452683,12.8992,0.0511012,,1.28992,,,,,-107.9,-0.673777,,,0.1745,,2.80938,-0.45,,,,,,,-65.7594,-10.3278,,,,,,,1.0,,,4133.23899129484,-7040.78945146138,,,,,,,-0.283425,-0.128118,2.07248,,0.0,1.55536,1628262922.08566,
1628280925.11578,-6.217680175238119e+18,-6.4513722909956e+17,1628262925.11578,0.153543,-0.010472,-0.0296706,3.85892,-0.452683,13.1466,0.0596658,,1.31466,,,,,-84.7878,-0.675443,,,0.1745,,2.79964,-0.45,,,,,,,-66.3032,-10.3767,,,,,,,1.0,,,4133.23888533102,-7040.78981793568,,,,,,,-0.131146,-0.0117941,2.07376,,0.0,1.69757,1628262926.08923,
1628280929.41565,-6.217680175238119e+18,-6.4513722909956e+17,1628262929.41565,0.0,0.015708,-0.0331613,3.81878,-0.452683,13.2015,0.0127694,,1.32015,,,,,-61.2143,-0.673777,,,0.1745,,2.79583,-0.45,,,,,,,-66.4331,-9.92979,,,,,,,1.0,,,4133.23909830085,-7040.78999596428,,,,,,,-0.0302102,0.10391,2.07627,,0.0,1.99963,1628262930.08749,
1628280933.56326,-6.217680175238119e+18,-6.4513722909956e+17,1628262933.56326,0.0,-0.0401426,-0.0261799,3.81354,-0.452683,13.1466,-0.0132655,,1.31466,,,,,-39.0258,-0.673777,,,0.1745,,2.79617,-0.45,,,,,,,-66.5583,-9.49918,,,,,,,1.0,,,4133.2393034966,-7040.79016749429,,,,,,,-0.0302102,0.10391,2.07877,,0.0,2.13129,1628262934.09952,
1628280937.86145,-6.217680175238119e+18,-6.4513722909956e+17,1628262937.86145,0.0,-0.0663225,-0.0279253,3.78213,-0.452683,13.229,0.0191674,,1.3229,,,,,-15.3707,-0.673777,,,0.1745,,2.7965,-0.45,,,,,,,-66.6882,-9.05247,,,,,,,1.0,,,4133.23951636738,-7040.79034544014,,,,,,,-0.0302102,0.10391,2.08127,,0.0,2.35605,1628262938.17404,
1628280942.00836,-6.217680175238119e+18,-6.4513722909956e+17,1628262942.00836,0.0,0.00349066,-0.0331613,3.70882,-0.452683,13.229,0.0,,1.3229,,14.8817,,,6.79065,-0.673777,,,0.1745,,2.79683,-0.45,,,,,,,-66.8133,-8.62187,,,,,,,1.0,,,4133.23972156312,-7040.79051697018,,,,,,,-0.0302102,0.10391,2.085,,0.0,2.59778,1628262942.07794,
1628280946.30438,-6.217680175238119e+18,-6.4513722909956e+17,1628262946.30438,0.0,0.0575959,-0.0226893,3.68439,-0.452683,13.229,0.0,,1.3229,,,,,31.2605,-0.673777,,,0.1745,,2.79715,-0.45,,,,,,,-66.9432,-8.17526,,,,,,,1.0,,,4133.23993438438,-7040.79069487468,,,,,,,-0.0302102,0.10391,2.0875,,0.0,2.83203,1628262946.14154,
1628280950.44565,-6.217680175238119e+18,-6.4513722909956e+17,1628262950.44565,0.0,0.0506145,-0.0226893,3.67217,-0.452683,13.229,0.0,,1.3229,,,,,54.2366,-0.675443,,,0.1745,,2.79748,-0.45,,,,,,,-67.0683,-7.74507,,,,,,,1.0,,,4133.24013938204,-7040.79086623919,,,,,,,-0.0302102,0.10391,2.09,,0.0,2.92465,1628262950.189,
1628280954.73691,-6.217680175238119e+18,-6.4513722909956e+17,1628262954.73691,0.0,0.0663225,-0.020944,3.65297,-0.452683,13.2015,-0.00641298,,1.32015,,,,,78.2175,-0.675443,,,0.1745,,2.79779,-0.45,,,,,,,-67.1979,-7.29919,,,,,,,1.0,,,4133.24035185667,-7040.79104385398,,,,,,,-0.0302102,0.10391,2.0925,,0.0,3.29688,1628262954.10971,
1628280958.88339,-6.217680175238119e+18,-6.4513722909956e+17,1628262958.88339,0.0,0.125664,-0.0279253,3.62156,-0.45385,13.2015,0.0,,1.32015,,,,,101.655,-0.673777,,,0.1745,,2.79811,-0.45,,,,,,,-67.3235,-6.86713,,,,,,,1.0,,,4133.24055774563,-7040.7912159636,,,,,,,-0.0302102,0.10391,2.09623,,0.0,3.47537,1628262958.08997,
1628280963.19409,-6.217680175238119e+18,-6.4513722909956e+17,1628262963.19409,0.0,0.178024,-0.0279253,3.59538,-0.452683,12.9542,-0.0576496,,1.29542,,,,,126.044,-0.673777,,,0.1745,,2.79842,-0.45,,,,,,,-67.4534,-6.42053,,,,,,,1.0,,,4133.24077056686,-7040.79139386817,,,,,,,-0.0302102,0.10391,2.09873,,0.0,3.77011,1628262962.09213,
1628280967.34192,-6.217680175238119e+18,-6.4513722909956e+17,1628262967.34192,0.0,0.193732,-0.0191986,3.58491,-0.45385,12.6793,-0.0663113,,1.26793,,,,,149.047,-0.673777,,,0.1745,,2.79874,-0.45,,,,,,,-67.5787,-5.9893,,,,,,,1.0,,,4133.24097605967,-7040.79156564668,,,,,,,-0.0302102,0.10391,2.10123,,0.0,3.92062,1628262966.09152,
1628280971.63733,-6.217680175238119e+18,-6.4513722909956e+17,1628262971.63733,0.0,0.197222,-0.0191986,3.5692,-0.452683,12.6518,-0.0063921,,1.26518,,,,,172.702,-0.673777,,,0.1745,,2.79904,-0.45,,,,,,,-67.7084,-5.54321,,,,,,,1.0,,,4133.24118863331,-7040.79174334433,,,,,,,-0.0302102,0.10391,2.10251,,0.0,0.214264,1628262974.09192,
1628280975.77866,-6.217680175238119e+18,-6.4513722909956e+17,1628262975.77866,0.282019,0.225147,-0.0226893,3.54825,-0.45385,12.2945,-0.0866227,,1.22945,,,,,195.569,-0.673777,,,0.1745,,2.79935,-0.45,,,,,,,-68.2973,-6.18753,,,,,,,2.0,,,4133.2407665972,-7040.7920236099,,,,,,,-0.141761,-0.155109,2.10501,,0.0,0.364166,1628262978.08612,
1628280980.09274,-6.217680175238119e+18,-6.4513722909956e+17,1628262980.09274,0.119063,0.272271,-0.020944,3.50113,-0.45385,12.1021,-0.044517,,1.21021,,,,,219.306,-0.673777,,,0.1745,,2.79393,-0.45,,,,,,,-68.6083,-6.22005,,,,,,,2.0,,,4133.2407036275,-7040.79223230873,,,,,,,-0.0721017,-0.00753995,2.11002,,0.0,0.684845,1628262982.0788,
1628280984.2551,-6.217680175238119e+18,-6.4513722909956e+17,1628262984.2551,0.339159,0.298451,-0.0244346,3.45052,-0.45385,11.5799,-0.12587,,1.15799,,,,,241.82,-0.677109,,,0.1745,,2.79186,-0.45,,,,,,,-69.1629,-7.13189,,,,,,,2.0,,,4133.24014765938,-7040.79243612267,,,,,,,-0.133326,-0.219193,2.11124,,0.0,0.832336,1628262986.09149,
1628280988.5585,-6.217680175238119e+18,-6.4513722909956e+17,1628262988.5585,0.17296,0.289725,-0.0349066,3.40165,-0.45385,11.305,-0.0652255,,1.1305,,,,,,-0.677109,,,0.1745,,2.7859,-0.45,,,,,,,-69.4844,-7.40412,,,,,,,2.0,,,4133.23995857795,-7040.79260483428,,,,,,,-0.0746839,-0.0632341,2.11374,,0.0,1.14786,1628262990.07864,
1628280992.79422,-6.217680175238119e+18,-6.4513722909956e+17,1628262992.79422,0.18397,0.301942,-0.0244346,3.37372,-0.452683,11.0027,-0.0711906,,1.10027,,,,,,-0.677109,,,0.1745,,2.78311,-0.437093,,,,,,,-69.7915,-7.72212,,,,,,,2.0,,,4133.23974785346,-7040.79275449649,,,,,,,-0.0725325,-0.0751254,2.11502,,0.0,1.36685,1628262994.09714,
1628280997.02621,-6.217680175238119e+18,-6.4513722909956e+17,1628262997.02621,0.271239,0.336849,-0.0296706,3.34405,-0.45385,10.5079,-0.11201,,1.05079,,,7.34004,,,-0.678775,,,0.1745,,2.78028,-0.411234,,,,,,,-70.1499,-8.40633,,,,,,,2.0,,,4133.239339239,-7040.79286747229,,,,,,,-0.0847504,-0.161789,2.11502,,0.0,1.52029,1628262998.17401,
1628281001.11707,-6.217680175238119e+18,-6.4513722909956e+17,1628263001.11707,0.15957,0.345575,-0.0296706,3.33183,-0.411837,10.2331,-0.0692169,,1.02331,,,,,250.756,-0.487179,,,0.1745,,2.77608,-0.394586,,,,,,,-70.4062,-8.63044,,,,,,,2.0,,,4133.23918480588,-7040.79300062576,,,,,,,-0.0603843,-0.0527812,2.11625,,0.0,1.74786,1628263002.19043,
1628281005.50906,-6.217680175238119e+18,-6.4513722909956e+17,1628263005.50906,0.333387,0.270526,-0.0244346,3.31787,-0.411837,9.71082,-0.114954,,0.971082,,14.8851,,,250.728,-0.487179,,,0.1745,,2.77381,-0.380742,,,,,,,-70.782,-9.58084,,,,,,,2.0,,,4133.23863531007,-7040.79307306992,,,,,,,-0.0886752,-0.22431,2.11625,,0.0,1.93307,1628263006.24359,
1628281009.60367,-6.217680175238119e+18,-6.4513722909956e+17,1628263009.60367,0.226875,0.174533,-0.0296706,3.31263,-0.37916,9.38099,-0.0842054,,0.938099,,,,,250.783,-0.350562,,,0.1745,,2.76867,-0.374587,,,,,,,-71.0631,-10.0696,,,,,,,1.0,,,4133.23833968087,-7040.79317115011,,,,,,,-0.0688265,-0.119654,2.11625,,0.0,2.17026,1628263010.10165,
1628281013.82739,-6.217680175238119e+18,-6.4513722909956e+17,1628263013.82739,0.14528,0.165806,-0.0261799,3.30042,-0.37916,9.10613,-0.0649021,,0.910613,,,,,250.81,-0.35556,,,0.1745,,2.76543,-0.370213,,,,,,,-71.2879,-10.2367,,,,,,,1.0,,,4133.23821955455,-7040.79329367386,,,,,,,-0.0531874,-0.0395409,2.11753,,0.0,2.40692,1628263014.08899,
1628281018.03287,-6.217680175238119e+18,-6.4513722909956e+17,1628263018.03287,0.697968,0.190241,-0.0418879,3.27249,-0.37916,8.66635,-0.0982961,,0.866635,,,,,250.918,-0.35556,10.716,3.572,0.1745,,2.7635,-0.125195,,,,,,,-71.7983,-12.7108,,,,,,,1.0,,,4133.23685840364,-7040.79315873561,,,,,,,-0.121313,-0.588086,2.11875,,0.0,2.61771,1628263018.08636,
1628281022.39999,-6.217680175238119e+18,-6.4513722909956e+17,1628263022.39999,1.03897,0.179769,-0.0558505,3.24108,-0.118689,8.1716,-0.117713,,0.81716,,,,,250.783,-0.35556,4.788,1.596,0.1745,,2.75259,-0.124002,,,,,,,-72.3807,-16.7708,,,,,,,1.0,,,4133.2346625053,-7040.7927608364,,,,,,,-0.133401,-0.929923,2.11875,1.8182,0.0,2.9762,1628263022.09229,
1628281026.76053,-6.217680175238119e+18,-6.4513722909956e+17,1628263026.76053,1.02539,0.148353,-0.0349066,3.2498,-0.121583,7.86925,-0.0690289,,0.786925,,,,,250.674,-0.35556,4.56,1.52,0.1745,,2.73528,-0.119624,,,,,,,-72.9954,-20.7633,,,,,,,1.0,,,4133.23249696221,-7040.79239859315,,,,,,,-0.140952,-0.915484,2.11997,1.82371,0.0,3.33765,1628263026.09305,
1628281031.13077,-6.217680175238119e+18,-6.4513722909956e+17,1628263031.13077,1.01336,0.158825,-0.0453786,3.25155,-0.121583,7.73182,-0.0318938,,0.773182,,,,,250.837,-0.35556,4.446,1.482,0.1745,,2.71658,-0.108675,,,,,,,-73.6131,-24.709,,,,,,,1.0,,,4133.2303552389,-7040.79204762756,,,,,,,-0.14141,-0.903326,2.11997,1.82906,0.0,3.7063,1628263030.09308,
1628281035.48959,-6.217680175238119e+18,-6.4513722909956e+17,1628263035.48959,1.04089,0.169297,-0.0436332,3.25504,-0.121583,7.59439,-0.0312199,,0.759439,,,,,250.674,-0.35556,4.788,1.596,0.1745,,2.69652,-0.115875,,,,,,,-74.2585,-28.7651,,,,,,,1.0,,,4133.22815207019,-7040.791694121,,,,,,,-0.148042,-0.930289,2.12125,1.8349,0.0,0.0704041,1628263038.08792,
1628281039.84863,-6.217680175238119e+18,-6.4513722909956e+17,1628263039.84863,0.989982,0.164061,-0.0453786,3.25504,-0.121583,7.15462,-0.101168,,0.715462,,,,,250.756,-0.35556,4.218,1.406,0.1745,,2.67411,-0.120011,,,,,,,-74.8787,-32.5997,,,,,,,1.0,,,4133.22606769389,-7040.79136680631,,,,,,,-0.142279,-0.879707,2.12125,1.84,0.0,0.41864,1628263042.09909,
1628281044.23386,-6.217680175238119e+18,-6.4513722909956e+17,1628263044.23386,0.977265,0.167552,-0.0383972,3.24806,-0.118689,6.68735,-0.106779,,0.668735,,,,,250.783,-0.35556,4.104,1.368,0.1745,,2.65108,-0.126445,,,,,,,-75.4663,-36.4034,,,,,,,1.0,,,4133.22400424991,-7040.79102304047,,,,,,,-0.134058,-0.867821,2.12247,1.84499,0.0,0.817963,1628263046.08557,
1628281048.59335,-6.217680175238119e+18,-6.4513722909956e+17,1628263048.59335,1.03014,0.178024,-0.0453786,3.23759,-0.118689,6.27506,-0.0870179,,0.627506,,,,,250.728,-0.253931,4.674,1.558,,,2.6266,-0.132581,,,,,,7.0,-76.0294,-40.4275,,,,,,,1.0,,,4133.22182986798,-7040.79061885773,,,,,,,-0.128945,-0.921489,2.12247,1.85137,0.0,1.17111,1628263050.09073,
1628281053.24326,-6.217680175238119e+18,-6.4513722909956e+17,1628263053.24326,1.03436,0.153589,-0.0331613,3.23584,-0.121583,5.91775,-0.0659868,,0.591775,,,,,,0.0193022,,,,,2.59896,-0.137065,,,,,,,-76.6585,-44.9939,,,,,,,1.0,,,4133.21936397645,-7040.79015337774,,,,,,,-0.127552,-0.925862,2.12497,,0.0,2.05338,1628263054.14417,
1628281058.11746,-6.217680175238119e+18,-6.4513722909956e+17,1628263058.11746,0.978137,-0.0139626,-0.0261799,3.24282,-0.121583,5.53294,-0.0946163,,0.553294,,,,,250.946,0.0193022,3.99,1.33,,,2.56478,-0.13901,,,,,2.0,7.0,-77.2501,-48.9784,,,,,,,1.0,,,4133.2172059718,-7040.78977672614,,,,,,,-0.129057,-0.869219,2.12497,1.86158,0.0,2.68378,1628263058.10156,
1628281062.64566,-6.217680175238119e+18,-6.4513722909956e+17,1628263062.64566,0.0,-0.109956,-0.0471239,3.24457,-0.118689,6.02769,0.111985,,0.602769,,,,,250.81,0.0193022,0.0,0.0,,,2.53184,-0.144114,,,,,2.0,7.0,-77.3869,-48.5079,,,,,,,1.0,,,4133.21743018187,-7040.78996414972,,,,,,,-0.0302102,0.10391,2.12625,1.86158,0.0,3.22382,1628263062.09171,
1628281067.00613,-6.217680175238119e+18,-6.4513722909956e+17,1628263067.00613,0.0,-0.0453786,-0.0226893,3.23933,-0.118689,6.08266,0.0127753,,0.608266,,,,,250.783,0.0193022,,,,,2.53437,-0.45,,,,,2.0,2.0,-77.5186,-48.0547,,,,,,,1.0,,,4133.2176461227,-7040.79014466083,,,,,,,-0.0302102,0.10391,2.12747,,0.0,3.53229,1628263066.14511,
1628281071.2103,-6.217680175238119e+18,-6.4513722909956e+17,1628263071.2103,0.0,0.0645772,-0.0261799,3.20093,-0.452683,6.08266,0.0,,0.608266,,14.8876,,,250.864,0.0193022,,,,,2.53677,-0.45,,,,,2.0,2.0,-77.6456,-47.618,,,,,,,1.0,,,4133.21785423994,-7040.790318632,,,,,,,-0.0302102,0.10391,2.12747,,0.0,3.67242,1628263070.20895,
1628281075.56146,-6.217680175238119e+18,-6.4513722909956e+17,1628263075.56146,0.146904,0.0733038,-0.0314159,3.18348,-0.452683,5.64288,-0.102512,,0.564288,,,,,250.783,0.0193022,,,,,2.53906,-0.45,,,,,,7.0,-77.8038,-47.8045,,,,,,,1.0,,,4133.21773386351,-7040.79039130309,,,,,,,-0.0363619,-0.0428651,2.12747,,0.0,0.141937,1628263078.08752,
1628281079.90094,-6.217680175238119e+18,-6.4513722909956e+17,1628263079.90094,0.732551,-0.0244346,-0.020944,3.17126,-0.452683,5.34054,-0.064247,,0.534054,,,,,250.783,0.0193022,10.602,3.534,,,2.53657,-0.151745,,,,,2.0,7.0,-78.0296,-50.5352,,,,,,,1.0,,,4133.21628155454,-7040.79000887384,,,,,,,-0.0519423,-0.628318,2.12876,1.91286,0.0,0.484375,1628263082.08862,
1628281084.48804,-6.217680175238119e+18,-6.4513722909956e+17,1628263084.48804,0.0,-0.0733038,-0.0383972,3.16428,-0.150532,5.45048,0.0248237,,0.545048,,,,,250.783,0.0193022,0.0,0.0,,,2.51436,-0.143879,,,,,2.0,7.0,-78.1679,-50.0594,,,,,,,1.0,,,4133.21650828994,-7040.79019840838,,,,,,,-0.0302102,0.10391,2.12998,1.91286,0.0,1.06128,1628263086.09561,
1628281088.85925,-6.217680175238119e+18,-6.4513722909956e+17,1628263088.85925,0.0,-0.0296706,-0.0314159,3.16603,-0.150532,5.50545,0.012545,,0.550545,,,,,250.891,0.0193022,,,,,2.51707,-0.440867,,,,,2.0,7.0,-78.2999,-49.6054,,,,,,,1.0,,,4133.2167246269,-7040.79037925059,,,,,,,-0.0302102,0.10391,2.12998,,0.0,1.44037,1628263090.08688,
1628281093.2196,-6.217680175238119e+18,-6.4513722909956e+17,1628263093.2196,0.0,0.0331613,-0.00174533,3.16254,-0.44218,5.50545,0.0,,0.550545,,,,,250.891,0.0193022,,,,,2.51962,-0.436659,,,,,2.0,7.0,-78.4317,-49.1522,,,,,,,1.0,,,4133.21694056772,-7040.79055976169,,,,,,,-0.0302102,0.10391,2.13126,,0.0,1.79529,1628263094.09198,
1628281097.40985,-6.217680175238119e+18,-6.4513722909956e+17,1628263097.40985,0.147282,0.015708,-0.0244346,3.13461,-0.44218,5.03819,-0.113193,,0.503819,,,,,250.891,0.0193022,,,,,2.52213,-0.434853,,,,,2.0,2.0,-78.5542,-49.3343,,,,,,,1.0,,,4133.21682782002,-7040.79060859521,,,,,,,-0.029182,-0.0433678,2.13126,,0.0,1.99173,1628263098.09018,
1628281101.92606,-6.217680175238119e+18,-6.4513722909956e+17,1628263101.92606,0.794823,-0.0261799,-0.0366519,3.10145,-0.44218,4.76333,-0.0567425,,0.476333,,,,,250.674,0.0193022,10.26,3.42,,,2.51991,-0.148524,,,,,2.0,2.0,-78.5465,-52.4481,,,,,,,1.0,,,4133.21521099851,-7040.78998917775,,,,,,,0.00168747,-0.690273,2.13248,1.96301,0.0,2.51541,1628263102.07822,
1628281106.50754,-6.217680175238119e+18,-6.4513722909956e+17,1628263106.50754,0.0,-0.0296706,-0.0383972,3.09272,-0.141847,4.95573,0.0436089,,0.495573,,,,,250.756,0.0193022,0.0,0.0,,,2.49564,-0.139804,,,,,2.0,2.0,-78.6849,-51.9721,,,,,,,1.0,,,4133.21543783295,-7040.79017879502,,,,,,,-0.0302102,0.10391,2.13376,1.96301,0.0,3.08353,1628263106.09363,
1628281110.86847,-6.217680175238119e+18,-6.4513722909956e+17,1628263110.86847,0.0,0.0174533,-0.0174533,3.08923,-0.141847,4.92825,-0.00628971,,0.492825,,,,,250.81,0.0193022,,,,,2.49852,-0.405893,,,,,2.0,2.0,-78.8167,-51.5191,,,,,,,1.0,,,4133.21565372426,-7040.79035926465,,,,,,,-0.0302102,0.10391,2.13376,,0.0,3.42999,1628263110.10852,
1628281115.22147,-6.217680175238119e+18,-6.4513722909956e+17,1628263115.22147,0.147235,0.0296706,-0.0226893,3.08051,-0.408336,4.70836,-0.0524043,,0.470836,,,,,250.864,0.0193022,,,,,2.50123,-0.399465,,,,,,7.0,-78.9091,-51.7066,,,,,,,1.0,,,4133.2155425894,-7040.7903862232,,,,,,,-0.0212217,-0.0430501,2.13498,,0.0,3.81476,1628263114.07864,
1628281119.74088,-6.217680175238119e+18,-6.4513722909956e+17,1628263119.74088,0.73277,0.0,-0.0331613,3.03862,-0.408336,4.26858,-0.0894764,,0.426858,,,7.34169,,250.783,0.0193022,10.602,3.534,,,2.49912,-0.133441,,,,,2.0,7.0,-78.7054,-54.529,,,,,,,1.0,,,4133.21410624607,-7040.78968862221,,,,,,,0.0451131,-0.624978,2.13498,2.00267,0.0,0.318634,1628263122.09015,
