,time,system_configuration,num_beams,num_bins,pings_per_ensemble,depth_bin_length,blanking_distance,low_correlation_threshold,percent_good_minimum,error_velocity_threshold,coordinate_transformation,heading_alignment,heading_bias,sensor_source,bin0_distance,transmit_pulse_length,ensemble_number,rtc_year,rtc_month,rtc_day,rtc_hour,rtc_minute,rtc_second,rtc_hundredths,bit_result,speed_of_sound,depth,heading,pitch,roll,salinity,temperature,min_ping_wait_minutes,min_ping_wait_seconds,min_ping_wait_hundredths,heading_standard_deviation,pitch_standard_deviation,roll_standard_deviation,adc_rounded_voltage,pressure,pressure_variance,rel_vel_pressure_u,rel_vel_pressure_v,rel_vel_pressure_w,rel_vel_dvl_u,rel_vel_dvl_v,rel_vel_dvl_w,ocn_vel_u,ocn_vel_v,ocn_vel_w,abs_vel_btm_u,abs_vel_btm_v,abs_vel_btm_w,delta_x,delta_y,delta_z,delta_t,delta_z_pressure,delta_pitch,rel_pos_x,rel_pos_y,rel_pos_z,rel_pos_x_dvl_dr,rel_pos_y_dvl_dr,rel_pos_z_dvl_dr,origin_x,origin_y,angle_of_attack,num_good_vel_bins,bathy_factor_depth,bathy_factor_slope,bathy_factor_orient,vel_bin0_beam0,vel_bin0_beam1,vel_bin0_beam2,vel_bin0_beam3,vel_bin1_beam0,vel_bin1_beam1,vel_bin1_beam2,vel_bin1_beam3,vel_bin2_beam0,vel_bin2_beam1,vel_bin2_beam2,vel_bin2_beam3,vel_bin3_beam0,vel_bin3_beam1,vel_bin3_beam2,vel_bin3_beam3,vel_bin4_beam0,vel_bin4_beam1,vel_bin4_beam2,vel_bin4_beam3,vel_bin5_beam0,vel_bin5_beam1,vel_bin5_beam2,vel_bin5_beam3,vel_bin6_beam0,vel_bin6_beam1,vel_bin6_beam2,vel_bin6_beam3,vel_bin7_beam0,vel_bin7_beam1,vel_bin7_beam2,vel_bin7_beam3,vel_bin8_beam0,vel_bin8_beam1,vel_bin8_beam2,vel_bin8_beam3,vel_bin9_beam0,vel_bin9_beam1,vel_bin9_beam2,vel_bin9_beam3,vel_bin10_beam0,vel_bin10_beam1,vel_bin10_beam2,vel_bin10_beam3,vel_bin11_beam0,vel_bin11_beam1,vel_bin11_beam2,vel_bin11_beam3,vel_bin12_beam0,vel_bin12_beam1,vel_bin12_beam2,vel_bin12_beam3,vel_bin13_beam0,vel_bin13_beam1,vel_bin13_beam2,vel_bin13_beam3,vel_bin14_beam0,vel_bin14_beam1,vel_bin14_beam2,vel_bin14_beam3,vel_bin15_beam0,vel_bin15_beam1,vel_bin15_beam2,vel_bin15_beam3,vel_bin16_beam0,vel_bin16_beam1,vel_bin16_beam2,vel_bin16_beam3,vel_bin17_beam0,vel_bin17_beam1,vel_bin17_beam2,vel_bin17_beam3,vel_bin18_beam0,vel_bin18_beam1,vel_bin18_beam2,vel_bin18_beam3,vel_bin19_beam0,vel_bin19_beam1,vel_bin19_beam2,vel_bin19_beam3,vel_bin20_beam0,vel_bin20_beam1,vel_bin20_beam2,vel_bin20_beam3,vel_bin21_beam0,vel_bin21_beam1,vel_bin21_beam2,vel_bin21_beam3,vel_bin22_beam0,vel_bin22_beam1,vel_bin22_beam2,vel_bin22_beam3,vel_bin23_beam0,vel_bin23_beam1,vel_bin23_beam2,vel_bin23_beam3,vel_bin24_beam0,vel_bin24_beam1,vel_bin24_beam2,vel_bin24_beam3,vel_bin25_beam0,vel_bin25_beam1,vel_bin25_beam2,vel_bin25_beam3,vel_bin26_beam0,vel_bin26_beam1,vel_bin26_beam2,vel_bin26_beam3,vel_bin27_beam0,vel_bin27_beam1,vel_bin27_beam2,vel_bin27_beam3,vel_bin28_beam0,vel_bin28_beam1,vel_bin28_beam2,vel_bin28_beam3,vel_bin29_beam0,vel_bin29_beam1,vel_bin29_beam2,vel_bin29_beam3,vel_bin30_beam0,vel_bin30_beam1,vel_bin30_beam2,vel_bin30_beam3,vel_bin31_beam0,vel_bin31_beam1,vel_bin31_beam2,vel_bin31_beam3,vel_bin32_beam0,vel_bin32_beam1,vel_bin32_beam2,vel_bin32_beam3,vel_bin33_beam0,vel_bin33_beam1,vel_bin33_beam2,vel_bin33_beam3,vel_bin34_beam0,vel_bin34_beam1,vel_bin34_beam2,vel_bin34_beam3,vel_bin35_beam0,vel_bin35_beam1,vel_bin35_beam2,vel_bin35_beam3,vel_bin36_beam0,vel_bin36_beam1,vel_bin36_beam2,vel_bin36_beam3,vel_bin37_beam0,vel_bin37_beam1,vel_bin37_beam2,vel_bin37_beam3,vel_bin38_beam0,vel_bin38_beam1,vel_bin38_beam2,vel_bin38_beam3,vel_bin39_beam0,vel_bin39_beam1,vel_bin39_beam2,vel_bin39_beam3,btm_pings_per_ensemble,btm_bottom_track_mode,btm_max_error_velocity,btm_beam0_range,btm_beam1_range,btm_beam2_range,btm_beam3_range,btm_beam0_velocity,btm_beam1_velocity,btm_beam2_velocity,btm_beam3_velocity,btm_beam0_rssi,btm_beam1_rssi,btm_beam2_rssi,btm_beam3_rssi
2021-04-10 16:52:11.000008,1618087931.000008,16971.0,4.0,40.0,10.0,2.0,0.0,64.0,0.0,2.0,31.0,0.0,0.0,130.0,2.93,2.0300000000000002,1.0,21.0,4.0,10.0,16.0,52.0,11.0,8.0,0.0,1484.0,0.0,212.20007604685657,-6.499977002641137,-2.099999181135542,35.0,11.97,51.0,0.0,95.0,0.0,4.6000000000000005,3.1,15.0,0.0,0.0,0.0,0.0,0.0,0.0,0.0,0.0,0.0,0.0,0.0,0.0,0.0,0.0,0.0,0.0,0.0,0.0,0.0,0.0,0.0,0.0,0.0,0.0,0.0,0.0,0.0,0.0,0.0,15.0,0.0,0.0,0.0,-0.00282313712953481,0.10386916289553647,0.06369636485803842,0.011,0.0034891501741791953,0.12367271068330749,0.07229720923593767,0.038,0.06997318129569595,0.1368160272394821,0.1190425494928807,0.003,-0.010337827391994778,0.11675445981890284,0.09709544498692782,0.01,0.022904147334925337,0.10617543677467316,0.09566178265413738,0.014,0.01356594598208066,0.006326804867359743,0.0795357570516659,-0.039,0.02848434257059272,-0.016075409260773985,0.06970813041116325,-0.02,0.0014675907946711912,0.04263520262587892,0.06469223813031702,-0.028,0.013877640151931088,-0.024651411590688257,0.055178972538458805,-0.059000000000000004,0.01872426475259957,-0.09869897968235113,0.02202074746999736,-0.07,0.06243038673428605,-0.0642102556949005,0.030405425104789746,-0.019,-0.002860667208309046,-0.019456374392529598,0.043061189935033425,-0.007,-0.007030795478804328,-0.02353308839043109,0.016209924914797787,0.059000000000000004,0.0951510201277529,0.02678322638150482,0.02487854805339389,-0.14100000000000001,-0.16531689736050809,-0.009510347598406924,0.03009778622511483,-0.022,0.38174579612341,0.09568067665984423,0.14353172212447757,,,,,,-0.2242809034693613,-0.3282284593520603,-0.03153022058819101,,,,,,,,,,,,,,,,,,,,,,,,,,,,,,,,,,,,,,,,,,,,,,,,,,,,,,,,,,,,,,,,,,,,,,,,,,,,,,,,,,,,,,,,,,5.0,8.0,1.0,12.22,13.5,12.49,12.99,-0.054935052621699114,0.019194945484273362,0.07239263817065186,0.0,96.99,92.11,89.67,99.42999999999999
2021-04-10 16:52:14.000031,1618087934.000031,16971.0,4.0,40.0,10.0,2.0,0.0,64.0,0.0,2.0,31.0,0.0,0.0,130.0,2.93,2.0300000000000002,2.0,21.0,4.0,10.0,16.0,52.0,14.0,31.0,0.0,1485.0,0.0,212.29837134688816,-5.713476594660675,-2.1983141965568116,35.0,8.66,51.0,0.0,95.0,0.0,4.6000000000000005,3.1,15.0,0.0,0.0,,,,-0.03964860868833933,-0.2062513501349326,0.1269896389340343,0.0,0.0,0.0,0.0061004651841558635,-0.11546863268025873,0.14136045837322542,0.018301535181034733,-0.3464085409080403,0.42408461060380037,3.0000228881835938,0.0,0.0,0.018301535181034733,-0.3464085409080403,0.0,0.018301535181034733,-0.3464085409080403,0.0,0.0,0.0,0.0,15.0,13.591829141461313,20.05506529431886,147.8899576739545,-0.005629676305357614,0.193986469841075,0.09812011141093646,-0.022,-0.003121641865551264,0.20839081397387432,0.11345714610975084,0.027,0.03964860868833933,0.2062513501349326,0.1269896389340343,0.018000000000000002,-0.029972291955290373,0.23065064635953889,0.11272063275582586,0.008,0.03906289802220541,0.19923235655519117,0.1317215172231628,-0.001,-0.04071017137832006,0.0638464280639789,0.08459500913067494,-0.029,0.018761563707604526,0.028447864294714787,0.10791998306298509,0.039,-0.011917054308090914,0.05648650226889978,0.08738569035055793,-0.057,0.011338624085646667,0.0076710761471326695,0.07237810576817609,0.0,0.014617025386532596,0.04189518233685659,0.06395417316962984,0.064,0.003752502447720416,-0.016348632423203988,0.07511751422451901,0.052000000000000005,-0.03885802967563083,0.002068702495600837,0.06165852738845203,0.018000000000000002,-0.02545216811978626,0.04155553486455372,0.09019049096286702,0.13,-0.01246378293062382,0.022494351478767216,0.05211197814905872,-0.084,-0.14294827237145838,0.11317194634679925,0.07663486142802467,-0.10200000000000001,,,,,,,,,,,,,,,,,,,,,,,,,,,,,,,,,,,,,,,,,,,,,,,,,,,,,,,,,,,,,,,,,,,,,,,,,,,,,,,,,,,,,,,,,,,,,,,,,,,,,5.0,8.0,1.0,12.36,13.31,12.42,13.22,-0.0061004651841558635,0.11546863268025873,0.14136045837322542,-0.002,103.09,106.75,103.09,96.99
2021-04-10 16:52:17.000055,1618087937.000055,16971.0,4.0,40.0,10.0,2.0,0.0,64.0,0.0,2.0,31.0,0.0,0.0,130.0,2.93,2.0300000000000002,3.0,21.0,4.0,10.0,16.0,52.0,17.0,55.0,0.0,1485.0,0.0,212.24288866544538,-1.6778223396499423,-2.1428203867825,35.0,8.69,51.0,0.0,95.0,0.0,4.6000000000000005,3.1,15.0,0.0,0.0,,,,-0.024710379823155392,-0.09744076973090325,0.18944047488127894,0.0,0.0,0.0,0.006396894233753978,0.0235265932788619,0.14943754264860346,0.019190836740243754,0.07058034636345671,0.4483162264431552,3.0000240802764893,0.0,0.0,0.03749237192127849,-0.27582819454458357,0.0,0.03749237192127849,-0.27582819454458357,0.0,0.0,-0.3464085409080403,0.0,15.0,13.46584096413198,20.026903451142594,153.5708760940699,-0.04933188703824177,0.13132625925969366,0.15192359444833403,0.025,-0.005003599419212031,0.09615764369023605,0.15723126773257814,0.033,0.024710379823155392,0.09744076973090325,0.18944047488127894,-0.001,-0.0644861463226716,0.14583861809910276,0.18171855822506144,0.006,0.007350191153592249,0.08855388525987995,0.18171731919491238,-0.066,0.0201365883414035,0.015141292059550986,0.14033979864862367,-0.012,0.033169252860679996,0.017239096799522964,0.17803262118555957,0.047,-0.0046848698087014785,0.03345191129405982,0.13906840628140482,-0.07,-0.015727066706050098,0.010597766655778176,0.10887307617006661,-0.003,-0.015630494905833837,-0.07401495432392295,0.07213511049015109,-0.039,0.08582955160054773,-0.13243385336826285,0.0956742523047992,0.003,-0.05095922472687785,-0.04180613162777271,0.10412686864376987,0.054,-0.05615510017829646,-0.020146907097582708,0.1077158616841868,-0.031,0.013438934609301326,0.010146812534045766,0.1181542941748875,0.017,0.025067494357800972,0.06102108539479199,0.1456057961204262,0.073,,,,,,,,,,,,,,,,,,,,,,,,,,,,,,,,,,,,,,,,,,,,,,,,,,,,,,,,,,,,,,,,,,,,,,,,,,,,,,,,,,,,,,,,,,,,,,,,,,,,,5.0,8.0,1.0,12.49,12.93,12.27,13.040000000000001,-0.006396894233753978,-0.0235265932788619,0.14943754264860346,0.0,101.25999999999999,103.09,98.82,93.33
2021-04-10 16:52:20.000081,1618087940.000081,16971.0,4.0,40.0,10.0,2.0,0.0,64.0,0.0,2.0,31.0,0.0,0.0,130.0,2.93,2.0300000000000002,4.0,21.0,4.0,10.0,16.0,52.0,20.0,81.0,0.0,1485.0,0.0,212.38713161545618,-4.635360774707345,-2.287092268044054,35.0,8.69,51.0,0.0,95.0,0.0,4.6000000000000005,3.1,15.0,0.0,0.0,,,,-0.04507288847246771,-0.0452087610496028,0.08024713483426311,0.0,0.0,0.0,-0.021851573622960724,3.895800099286764e-05,-0.025248905173779035,-0.0655552887393858,0.00011687501540452823,-0.0757473716804195,3.000025987625122,0.0,0.0,-0.028062916818107318,-0.27571131952917904,0.0,-0.028062916818107318,-0.27571131952917904,0.0,0.0,-0.27582819454458357,0.0,13.0,13.234174076287198,16.856321611163878,167.32897836479628,-0.022684664191815473,0.05832933966649666,0.02919065166410343,0.012,0.00030218672234958756,0.025306463467000894,0.02743158015824434,0.001,0.04507288847246771,0.0452087610496028,0.08024713483426311,-0.002,-0.020880102069316304,0.0570303019187367,0.06806295615555256,-0.019,-0.005753673617381251,0.04572976833720511,0.048100764315447256,-0.01,0.024497566125008904,-0.04935362406693855,0.01985167613603747,0.011,-0.01517216160817598,-0.013738054496039273,0.05509148183520975,0.07200000000000001,-0.0030897787915869328,0.024665515606707787,0.06790482756678139,-0.032,-0.020160399655293933,-0.04575856801951535,0.01458464050095893,0.0,-0.030250697688475166,-0.03243615277949162,-0.0024065083058157997,-0.047,0.05874233342562277,-0.05914705637695564,0.0463353427272767,0.0,0.07212737298750718,-0.0082169374197083,0.057603159682100905,0.036000000000000004,-0.0014722770824578662,-0.03730115860958264,0.01929911828491728,0.021,-0.04359031688556446,-0.08880773961480226,-0.03315221950828565,,-0.16806090276603425,-0.026146932396019687,-0.04817541787824537,,,,,,,,,,,,,,,,,,,,,,,,,,,,,,,,,,,,,,,,,,,,,,,,,,,,,,,,,,,,,,,,,,,,,,,,,,,,,,,,,,,,,,,,,,,,,,,,,,,,,,5.0,8.0,1.0,12.950000000000001,12.450000000000001,12.77,12.540000000000001,0.021851573622960724,-3.895800099286764e-05,-0.025248905173779035,-0.001,98.82,104.92,100.64999999999999,102.48
2021-04-10 16:52:24.000023,1618087944.000023,16971.0,4.0,40.0,10.0,2.0,0.0,64.0,0.0,2.0,31.0,0.0,0.0,130.0,2.93,2.0300000000000002,5.0,21.0,4.0,10.0,16.0,52.0,24.0,23.0,0.0,1485.0,0.0,212.12992493349086,-0.351203691689985,-2.057924584390643,35.0,8.69,51.0,0.0,95.0,0.0,4.6000000000000005,3.1,15.0,0.0,0.0,,,,-0.08096001544024047,-0.089848483726251,-0.06085002770755026,0.0,0.0,0.0,-0.09609702458594122,-0.06808684619411667,-0.06336042330246626,-0.3843825079826468,-0.27234342388320015,-0.2534380072721538,3.999941825866699,0.0,0.0,-0.4124454248007541,-0.5480547434123793,0.0,-0.4124454248007541,-0.5480547434123793,0.0,0.0,-0.27571131952917904,0.0,15.0,13.075590505462225,13.858060928379325,149.6632616821529,0.040784211493854625,0.057063116000616684,-0.04598313696481244,0.0,0.05790785868035743,0.07701798780873742,-0.05357153588379677,-0.025,0.08096001544024047,0.089848483726251,-0.06085002770755026,-0.011,0.017912881347791385,0.11950623779885107,-0.07030922989895713,-0.001,0.06594110733928425,0.11081558824629215,-0.059503577745352705,-0.008,0.026102532446621127,-0.0096843038105261,-0.10242983969321891,0.032,0.0537223266950822,-0.019825280780078308,-0.07981772896078863,0.014,0.025301183959063514,0.01722276600316948,-0.04613270446732662,-0.017,0.01562952992937097,0.02253376372556562,-0.05847176486602128,-0.007,0.03345443515223502,0.03896889744362121,-0.06358636489589127,0.02,0.03708813116594286,0.08233161792687767,-0.05587463839847606,-0.03,0.06396215692415938,0.05837269761063198,-0.0462436012359216,-0.007,0.044991678044345534,0.0016433248155917832,-0.08075300855265033,-0.005,0.004965011834733308,-0.0044030678795767275,-0.08326440806688533,-0.059000000000000004,-0.0733708494168329,0.0504921273055237,-0.09775614321368874,0.045,,,,,,,,,,,,,,,,,,,,,,,,,,,,,,,,,,,,,,,,,,,,,,,,,,,,,,,,,,,,,,,,,,,,,,,,,,,,,,,,,,,,,,,,,,,,,,,,,,,,,5.0,8.0,1.0,12.34,13.14,13.15,12.35,0.09609702458594122,0.06808684619411667,-0.06336042330246626,-0.001,102.48,101.87,98.82,104.31
2021-04-10 16:52:27.000046,1618087947.000046,16971.0,4.0,40.0,10.0,2.0,0.0,64.0,0.0,2.0,31.0,0.0,0.0,130.0,2.93,2.0300000000000002,6.0,21.0,4.0,10.0,16.0,52.0,27.0,46.0,0.0,1485.0,0.0,211.48903934083748,3.2440212587434454,-1.8844015843896222,35.0,8.69,51.0,0.0,95.0,0.0,4.6000000000000005,3.1,15.0,0.0,0.0,,,,-0.13965366943728283,-0.08531551646401253,-0.05523690128148888,0.0,0.0,0.0,-0.14142172152302168,-0.086432471939723,-0.03434129403289726,-0.4242684351729573,-0.2592994147085624,-0.10302467629613699,3.000023126602173,0.0,0.0,-0.8367138599737114,-0.8073541581209416,0.0,-0.8367138599737114,-0.8073541581209416,0.0,0.0,-0.5480547434123793,0.0,14.0,12.91909810181525,12.304756530281198,168.63894979512528,0.09986039391674767,0.11171614304448928,-0.019733350198463392,-0.03,0.1392418031485595,0.10537970200105695,-0.021721847575799064,-0.041,0.13965366943728283,0.08531551646401253,-0.05523690128148888,-0.003,0.1275175815107554,0.11633900080518988,-0.04242055276982934,0.035,0.030365852460880218,0.11129429695968646,-0.07460894362322243,-0.039,0.1124710452376481,0.022477306712384272,-0.07953637322702312,-0.01,0.12860735676948806,0.05449518784011624,-0.04906548977678769,0.017,0.06599126719611702,0.02012212181484219,-0.09639114517173941,0.039,0.05912660186692065,0.07435757110514721,-0.09287085964398971,0.0,0.020937380895785805,0.009028372806588743,-0.09940379552959754,0.035,-0.00750276401236938,0.01196140754848718,-0.1429532555125405,-0.031,0.04983702673840543,-0.0001871953797929829,-0.1348563521817391,-0.016,0.06700966614493443,-0.004366356730755239,-0.11737393054696692,-0.022,-0.028209497831073904,-0.0030078926608925263,-0.12968105803801566,-0.014,-0.1573875312702129,-0.23067420980891898,-0.026899329539945824,,-0.11392546118265057,0.0009370027232042111,0.2713192055867352,,,,,,,,,,,,,,,,,,,,,,,,,,,,,,,,,,,,,,,,,,,,,,,,,,,,,,,,,,,,,,,,,,,,,,,,,,,,,,,,,,,,,,,,,,,,,,,,,,5.0,8.0,1.0,12.81,12.59,13.38,12.01,0.14142172152302168,0.086432471939723,-0.03434129403289726,0.006,98.21,98.82,96.99,98.82
2021-04-10 16:52:30.000071,1618087950.000071,16971.0,4.0,40.0,10.0,2.0,0.0,64.0,0.0,2.0,31.0,0.0,0.0,130.0,2.93,2.04,7.0,21.0,4.0,10.0,16.0,52.0,30.0,71.0,0.0,1485.0,0.0,210.4219700518643,5.107490837929512,-2.2829960856726177,35.0,8.71,51.0,0.0,95.0,0.0,4.6000000000000005,3.1,15.0,0.0,0.0,,,,-0.1543587507551192,-0.110404871076029,0.043395166873793696,0.0,0.0,0.0,-0.08481618019438833,-0.03141995429839689,4.526720336428709e-05,-0.2544506638672475,-0.09426064946078089,0.0001358027433098034,3.0000250339508057,0.0,0.0,-1.0911645238409589,-0.9016148075817225,0.0,-1.0911645238409589,-0.9016148075817225,0.0,0.0,-0.8073541581209416,0.0,15.0,13.083310457153877,14.931543930101842,155.32418510427718,0.04340432971845922,0.07396367912071794,0.014914366651613152,0.023,0.08455055857435012,0.07795783752110474,0.006912207592254749,-0.006,0.1543587507551192,0.110404871076029,0.043395166873793696,-0.022,0.08095564194389962,0.12566258369818145,0.007489932960225244,-0.007,0.04584768389543919,0.10347476304777621,0.004468030173404285,-0.007,0.10542503784284243,0.08899970620203143,0.019534935162096975,0.02,-0.012711583894592409,0.06298128539228942,-0.01593026444305711,-0.023,0.023222768675633873,0.049127319002408076,-0.005404585337806507,-0.031,0.023958553591578752,0.020147161029248205,-0.024209081194068297,0.004,-0.033573920373390125,0.03970029808866126,-0.03909831457278815,-0.014,-0.007277686531861102,-0.0058253037917307925,-0.08181748660572515,-0.036000000000000004,0.03443728717945489,-0.08580069173041802,-0.06594933320589016,-0.002,0.043196555580930995,0.019081714616570766,-0.00692428720052032,0.096,-0.0027535679185780332,-0.03461224478574307,-0.04280666273618606,-0.032,0.11448374749337228,0.02662233488731528,0.03210487260559392,-0.304,0.1905581012237922,0.1432312040024411,0.02809683715285551,,,,,,,,,,,,,,,,,,,,,,,,,,,,,,,,,,,,,,,,,,,,,,,,,,,,,,,,,,,,,,,,,,,,,,,,,,,,,,,,,,,,,,,,,,,,,,,,,,5.0,8.0,1.0,12.46,12.88,12.92,12.38,0.08481618019438833,0.03141995429839689,4.526720336428709e-05,-0.002,97.6,96.38,105.53,100.64999999999999
2021-04-10 16:52:33.000096,1618087953.000096,16971.0,4.0,40.0,10.0,2.0,0.0,64.0,0.0,2.0,31.0,0.0,0.0,130.0,2.93,2.04,8.0,21.0,4.0,10.0,16.0,52.0,33.0,96.0,0.0,1485.0,0.0,211.19177029085816,4.407722373802879,-2.0030895018972137,35.0,8.71,51.0,0.0,95.0,0.0,4.6000000000000005,3.1,15.0,0.0,0.0,,,,-0.20885830369372288,-0.15675348301692624,0.027596277651938235,0.0,0.0,0.0,-0.15735643951263273,-0.12888036185318075,0.026791850859922882,-0.4720732577912639,-0.3866443119441807,0.08037622328564506,3.0000250339508057,0.0,0.0,-1.5632377816322227,-1.2882591195259032,0.0,-1.5632377816322227,-1.2882591195259032,0.0,0.0,-0.9016148075817225,0.0,14.0,13.179581671830292,15.059634630428924,173.92621328894577,0.09872003587863434,0.08525268665902028,0.006806903373785866,0.033,0.13397457798935114,0.12443528368217792,0.0008201387145952838,0.017,0.20885830369372288,0.15675348301692624,0.027596277651938235,0.0,0.14667149388315726,0.17816823543660104,0.018696330214533166,-0.005,0.14672204819911236,0.1522561876054193,0.015770031963211573,0.001,0.15948731060151766,0.05980682503775062,-0.027220239455209103,0.007,0.102368373291003,0.05186014726410935,-0.02071813880392631,-0.059000000000000004,0.08861884436024159,0.07855614989401255,-0.011984645930719361,0.028,0.04836837657672967,0.018079420642783898,-0.05468669579114237,0.03,0.07052378068564541,0.07587027408132721,-0.03088847468923124,0.132,0.02429013324235202,0.040463784566272844,-0.03460739177752414,0.008,0.1333827133300433,0.012145339544018419,-0.013658056672747759,0.053,0.10978717054038925,0.10462972869462206,0.017899638488675446,0.007,0.10842303939180177,0.13795525293481728,-0.012719776599232645,0.006,0.15681079872052994,0.14820570959631676,-0.1703127741764594,,,,,,,,,,,,,,,,,,,,,,,,,,,,,,,,,,,,,,,,,,,,,,,,,,,,,,,,,,,,,,,,,,,,,,,,,,,,,,,,,,,,,,,,,,,,,,,,,,,,,,5.0,8.0,1.0,13.18,12.4,13.18,12.35,0.15735643951263273,0.12888036185318075,0.026791850859922882,0.006,93.94,103.09,111.02,99.42999999999999
2021-04-10 16:52:37.000021,1618087957.000021,16971.0,4.0,40.0,10.0,2.0,0.0,64.0,0.0,2.0,31.0,0.0,0.0,130.0,2.93,2.04,9.0,21.0,4.0,10.0,16.0,52.0,37.0,21.0,0.0,1485.0,0.0,210.0168488314249,5.521209475472226,-2.3848486272579805,35.0,8.75,51.0,0.0,95.0,0.0,4.6000000000000005,3.1,15.0,0.0,0.0,,,,-0.17343535122533602,-0.24718155477094558,0.1865112809627406,0.0,0.0,0.0,-0.059782506621998015,-0.10308674097895694,0.20976457216681801,-0.23912553671100262,-0.4123392219106206,0.8390425349593309,3.999924898147583,0.0,0.0,-1.8023633183432253,-1.7005983414365238,0.0,-1.8023633183432253,-1.7005983414365238,0.0,0.0,-1.2882591195259032,0.0,14.0,13.253755228234661,15.634950939929027,163.44644702944524,0.0736395577650383,0.24023560373783287,0.13215547748348738,-0.039,0.11080711886227039,0.225047607368373,0.14973094812767768,0.009000000000000001,0.17343535122533602,0.24718155477094558,0.1865112809627406,0.009000000000000001,0.1540891766999879,0.2175792956023903,0.18585417872377138,0.002,0.1144289013487528,0.12264984533506149,0.15298379644721494,-0.046,0.1468400263898896,0.14962534665841476,0.1627736535412464,-0.001,0.12054587009607899,0.10581236595161801,0.11354926866563309,-0.043000000000000003,0.051200669037328866,0.014088871026556697,-0.00699965737211217,0.037,0.05770563955523696,0.026487884683194813,0.008393517053705534,0.033,0.03781852254353295,-0.036575970585888296,-0.008997651267109852,-0.018000000000000002,0.06539031615055618,-0.011060701066545397,0.008171134905680721,0.079,0.05771301438946837,-0.014718552567844446,0.03222688598652711,0.152,-0.027994498315407006,0.04879030392584928,0.030867690339446044,-0.018000000000000002,0.04181205010175666,0.048713989508238284,0.04573510350353917,-0.091,-0.02837293943423712,-0.11664882357637162,-0.009166693302911698,,0.3851198206935146,0.1554830882806018,-0.1692977642135942,,,,,,,,,,,,,,,,,,,,,,,,,,,,,,,,,,,,,,,,,,,,,,,,,,,,,,,,,,,,,,,,,,,,,,,,,,,,,,,,,,,,,,,,,,,,,,,,,,5.0,8.0,1.0,12.85,12.700000000000001,13.0,12.540000000000001,0.059782506621998015,0.10308674097895694,0.20976457216681801,-0.004,100.03999999999999,106.75,107.97,96.38
2021-04-10 16:52:40.000052,1618087960.000052,16971.0,4.0,40.0,10.0,2.0,0.0,64.0,0.0,2.0,31.0,0.0,0.0,130.0,2.93,2.04,10.0,21.0,4.0,10.0,16.0,52.0,40.0,52.0,0.0,1485.0,0.0,208.39719866756974,7.339076408740479,-2.350700783452328,35.0,8.75,51.0,0.0,95.0,0.0,4.6000000000000005,3.1,15.0,0.0,0.0,,,,-0.036317070933555504,-0.0739757759369526,0.16367851090883276,0.0,0.0,0.0,-0.003485603059773544,0.05177199575448761,0.11129919598499809,-0.01045691721354938,0.1553175919061993,0.3339010376084953,3.000030994415283,0.0,0.0,-1.8128202355567746,-1.5452807495303245,0.0,-1.8128202355567746,-1.5452807495303245,0.0,0.0,-1.7005983414365238,0.0,14.0,13.045418561451513,15.028775269116009,158.4708583703421,-0.031092222458565882,0.1279624847855072,0.12256376377260077,-0.003,-0.01953191668942377,0.05845776827126253,0.12994303967193002,0.01,0.036317070933555504,0.0739757759369526,0.16367851090883276,-0.001,-0.017436740116929077,0.08140408461129409,0.1591676320823174,0.005,0.03307359097137555,0.07907266846440217,0.184785417937068,0.004,0.02786163301803441,0.026923181029499973,0.15370059117915308,0.014,-0.012772896823831523,0.0232577893259834,0.10138998146955117,-0.065,-0.0038572525845779687,0.005111030894585509,0.10093561792396855,-0.001,-0.00543872038374555,-0.03442106935749676,0.08394409035110112,-0.006,0.005254483388747677,-0.10773555223823304,0.05259696938265869,-0.027,-0.09037558189952112,-0.03483171203296862,0.06014154997316995,-0.004,-0.08202865591356719,-0.008967901393837657,0.06910771558664056,0.022,-0.02117267307436304,-0.03021845609722425,0.07174651786662731,-0.018000000000000002,-0.07237178001576303,-0.0460853417958797,0.05074905643366139,-0.036000000000000004,0.08322817968348493,0.08273917396079991,0.09372459228429876,,,,,,,,,,,,,,,,,,,,,,,,,,,,,,,,,,,,,,,,,,,,,,,,,,,,,,,,,,,,,,,,,,,,,,,,,,,,,,,,,,,,,,,,,,,,,,,,,,,,,,5.0,8.0,1.0,12.51,12.72,12.88,12.34,0.003485603059773544,-0.05177199575448761,0.11129919598499809,-0.001,104.92,104.92,110.41,96.99
2021-04-10 16:52:43.000076,1618087963.000076,16971.0,4.0,40.0,10.0,2.0,0.0,64.0,0.0,2.0,31.0,0.0,0.0,130.0,2.93,2.0300000000000002,11.0,21.0,4.0,10.0,16.0,52.0,43.0,76.0,0.0,1485.0,0.0,205.93520076870323,7.234141797662169,-2.666588017950471,35.0,8.73,51.0,0.0,95.0,0.0,4.6000000000000005,3.1,15.0,0.0,0.0,,,,-0.07172921158440737,0.0021698851774641648,0.052575772022823805,0.0,0.0,0.0,-0.07018578931580352,0.00593701605657046,-0.007727018730510835,-0.21055905804062292,0.017811191134699544,-0.023181242260279976,3.0000240802764893,0.0,0.0,-2.0233792935973973,-1.5274695583956248,0.0,-2.0233792935973973,-1.5274695583956248,0.0,0.0,-1.5452807495303245,0.0,15.0,13.27800051222161,18.445842957115556,156.5313347101985,-0.009292073737481414,-0.010028625229474333,-0.01729404642251081,-0.014,0.02407668123844876,-0.02060634925139018,0.007917814791459876,0.053,0.07172921158440737,-0.0021698851774641648,0.052575772022823805,-0.006,0.01752478332536768,0.04847445955531299,0.05632147672264322,-0.003,0.03063705569545168,0.029149297847037965,0.03561866439576952,-0.054,0.06595176783942643,-0.019522447509946163,0.05782074335457646,-0.039,0.008926224933019263,-0.028607862382000634,0.016997432699606678,-0.028,0.01279836391928761,-0.0075700652208513936,0.02966304086808251,0.005,0.014627837204067568,0.02761277169725398,0.016141908744836408,-0.014,-0.05562852864184146,-0.1003947069678797,-0.05309773642988364,-0.037,0.0401600874401601,-0.09046124282091408,0.0013895769479647865,-0.014,-0.0321378157954214,-0.08423976584146625,-0.00847482429755917,0.048,-0.0022113495256135714,-0.07336769658149331,-0.00512747809371257,0.094,-0.02428992872070824,-0.004326113986727513,-0.06394751051070521,-0.042,0.02087369221154776,0.03565732593065986,-0.10555967071250394,-0.098,,,,,,,,,,,,,,,,,,,,,,,,,,,,,,,,,,,,,,,,,,,,,,,,,,,,,,,,,,,,,,,,,,,,,,,,,,,,,,,,,,,,,,,,,,,,,,,,,,,,,5.0,8.0,1.0,12.49,12.72,12.43,12.77,0.07018578931580352,-0.00593701605657046,-0.007727018730510835,0.0,97.6,106.14,107.36,104.31
2021-04-10 16:52:47.000002,1618087967.000002,16971.0,4.0,40.0,10.0,2.0,0.0,64.0,0.0,2.0,31.0,0.0,0.0,130.0,2.93,2.0300000000000002,12.0,21.0,4.0,10.0,16.0,52.0,47.0,2.0,0.0,1485.0,0.0,205.05794947766503,7.112898709574565,-2.3451949383253368,35.0,8.73,51.0,0.0,95.0,0.0,4.6000000000000005,3.1,15.0,0.0,0.0,,,,-0.12599514457146477,-0.1697313086270572,0.013766132941474638,0.0,0.0,0.0,-0.10211497612833592,-0.12046027450874976,0.025216143947599266,-0.408452332873907,-0.4818321661251107,0.10086270605926463,3.9999258518218994,0.0,0.0,-2.4318316264713045,-2.0093017245207356,0.0,-2.4318316264713045,-2.0093017245207356,0.0,0.0,-1.5274695583956248,0.0,14.0,13.029189153134194,10.8859091755343,163.05284452314473,-0.0067692327023611415,0.15040147876469523,0.011771689514008058,-0.01,0.0733612355608301,0.16562846169370593,0.016381141412153678,-0.005,0.12599514457146477,0.1697313086270572,0.013766132941474638,0.03,0.09415823959178436,0.18301505414886995,0.011777770241532474,-0.01,0.031232044546617266,0.13788321264099998,-0.00589737782704363,-0.038,0.07356251631161323,0.12471839695234607,0.001370275717027799,-0.007,0.0675581201987493,0.09645050467654662,-0.010872007305497977,0.03,0.024186810329495857,0.07306476025801195,-0.0027457265931318565,-0.025,-0.00859915365051437,0.13035517778341205,-0.0752501307743042,0.045,-0.02281376699157351,0.0447625352974696,-0.05434930974167915,-0.046,-0.05655926425717735,-0.003315180297120957,-0.08165818517628445,-0.02,0.009772654391800736,-0.051477478760848475,-0.07641704264471907,-0.06,-0.04470000422734545,-0.03829978937625607,-0.0737565980493252,-0.015,0.009229975612597793,0.1490988808631711,-0.033827965879443034,0.135,0.2486139820519725,-0.019780120937428217,-0.30922618702814003,,,,,,,,,,,,,,,,,,,,,,,,,,,,,,,,,,,,,,,,,,,,,,,,,,,,,,,,,,,,,,,,,,,,,,,,,,,,,,,,,,,,,,,,,,,,,,,,,,,,,,5.0,8.0,1.0,12.76,12.92,13.8,12.13,0.10211497612833592,0.12046027450874976,0.025216143947599266,-0.003,105.53,106.14,101.25999999999999,95.77
2021-04-10 16:52:50.000027,1618087970.000027,16971.0,4.0,40.0,10.0,2.0,0.0,64.0,0.0,2.0,31.0,0.0,0.0,130.0,2.93,2.04,13.0,21.0,4.0,10.0,16.0,52.0,50.0,27.0,0.0,1485.0,0.0,205.1984155759449,6.902761426547916,-2.6954250811421163,35.0,8.75,51.0,0.0,95.0,0.0,4.6000000000000005,3.1,15.0,0.0,0.0,,,,-0.19775320516908074,-0.13591283425298245,0.1094274706400398,0.0,0.0,0.0,-0.13839764117497494,-0.06755448381343877,0.11226524232327081,-0.4151963881646656,-0.20266514259594082,0.33679853741236593,3.0000250339508057,0.0,0.0,-2.84702801463597,-2.2119668671166766,0.0,-2.84702801463597,-2.2119668671166766,0.0,0.0,-2.0093017245207356,0.0,13.0,13.846858040825646,25.395699256421082,153.81846725515896,0.10618816474161807,0.10440931361753897,0.08813494709093195,0.015,0.13478925078267023,0.12545505659631587,0.08612134838622548,0.005,0.19775320516908074,0.13591283425298245,0.1094274706400398,-0.04,0.12384920916137118,0.13655936953866207,0.08602274107063823,0.009000000000000001,0.08727215328786175,0.1477747008476559,0.06262754226285565,-0.037,0.01545863182429983,-0.08420209258350823,-0.011403433986262812,-0.039,0.04554711247326947,-0.0035276696284138147,0.01562101444657509,-0.006,0.020537452875113302,-0.01928423085861368,0.022120837904432828,-0.065,0.002537848429477853,0.03423694553454604,0.04475925475042592,-0.042,-0.004806624376353597,0.018637646942538687,0.04607097219019718,-0.018000000000000002,0.004158243206695432,-0.02746445133694206,0.005423368528388338,-0.013000000000000001,0.045641837849536605,-0.002623114709925923,0.005562545005227147,-0.032,-0.008250556846081367,0.0075640922518921926,0.002590911062627269,0.029,-0.0029179441734784872,0.06866324533241455,0.024142169376862442,,0.19473418982738266,-0.08442146836250143,0.042161724250700125,,,,,,,,,,-0.013855096449289145,-0.2283237532809761,0.13383310498553364,,,,,,,,,,,,,,,,,,,,,,,,,,,,,,,,,,,,,,,,,,,,,,,,,,,,,,,,,,,,,,,,,,,,,,,,,,,,,,,,,,,,,,,,,,5.0,8.0,1.0,12.5,12.81,11.65,13.81,0.13839764117497494,0.06755448381343877,0.11226524232327081,0.0,104.92,100.03999999999999,109.19,95.77
2021-04-10 16:52:53.000050,1618087973.00005,16971.0,4.0,40.0,10.0,2.0,0.0,64.0,0.0,2.0,31.0,0.0,0.0,130.0,2.93,2.04,14.0,21.0,4.0,10.0,16.0,52.0,53.0,50.0,0.0,1485.0,0.0,205.30095131655153,7.282166371808058,-2.172614849739991,35.0,8.75,51.0,0.0,95.0,0.0,4.6000000000000005,3.1,15.0,0.0,0.0,,,,-0.18017667142752583,-0.06569053861949378,0.1349596984628307,0.0,0.0,0.0,-0.09224081678420258,-0.004802135881423919,0.12378437385211236,-0.2767245835692816,-0.014406518701357866,0.37135598426830635,3.000023126602173,0.0,0.0,-3.1237525982052516,-2.2263733858180346,0.0,-3.1237525982052516,-2.2263733858180346,0.0,0.0,-2.2119668671166766,0.0,13.0,13.152565026800616,18.856476117020925,157.33444868158475,0.09152679223655523,0.11377917513319184,0.11289882908558849,0.025,0.1536876727041262,0.08431931198638472,0.12127387552532534,0.041,0.18017667142752583,0.06569053861949378,0.1349596984628307,0.003,0.1294455685666376,0.12241859811294113,0.14435557354851986,-0.002,0.10375224046442055,0.10795213235262062,0.13873647580623968,-0.068,0.12747388471594215,0.03442688485015291,0.09854541245000198,-0.041,0.059203641459045664,0.0356964834403644,0.0881742020546858,-0.062,0.025369178351226228,0.027203744885435838,0.05617260056283488,-0.021,0.026700915233499486,0.0042603978543256805,0.03244857679184608,-0.024,-0.010157112770577147,-0.11067089674197723,0.08310707355269101,0.02,-0.11368493880107158,0.043451791264177746,0.13406967041702958,0.165,-0.026120800766064038,0.03087178905653392,0.07679607026266684,0.17200000000000001,0.07432782902790927,0.04513180715675359,0.060930237278083,0.074,0.07672026103193731,-0.004185456953819763,0.05273977149437723,,-0.10256813313214794,0.019736957514874514,0.2055121178272513,,,,,,,,,,,,,,,,,,,,,,,,,,,,,,,,,,,,,,,,,,,,,,,,,,,,,,,,,,,,,,,,,,,,,,,,,,,,,,,,,,,,,,,,,,,,,,,,,,,,,,5.0,8.0,1.0,12.39,12.540000000000001,12.23,12.66,0.09224081678420258,0.004802135881423919,0.12378437385211236,-0.002,104.31,100.64999999999999,101.87,104.92
2021-04-10 16:52:56.000085,1618087976.000085,16971.0,4.0,40.0,10.0,2.0,0.0,64.0,0.0,2.0,31.0,0.0,0.0,130.0,2.93,2.04,15.0,21.0,4.0,10.0,16.0,52.0,56.0,85.0,0.0,1485.0,0.0,207.20501159268287,7.831551036394753,-2.4315326792678182,35.0,8.75,51.0,0.0,95.0,0.0,4.6000000000000005,3.1,15.0,0.0,0.0,,,,-0.0061100681785935355,0.030726555337771612,0.07056589731540157,0.0,0.0,0.0,0.02996462007017358,0.04097942400903774,-0.04293958956414992,0.08989491039647539,0.1229397082547518,-0.12882027361905163,3.000035047531128,0.0,0.0,-3.0338576878087764,-2.1034336775632827,0.0,-3.0338576878087764,-2.1034336775632827,0.0,0.0,-2.2263733858180346,0.0,14.0,13.502071139265245,22.648613438911063,159.2030045824908,-0.030593428550354698,-0.028991444364002646,0.038164620831645665,0.002,-0.018396802733572498,-0.04312887521650843,0.05420754349480213,0.045,0.0061100681785935355,-0.030726555337771612,0.07056589731540157,0.018000000000000002,-0.02688035580960861,-0.003230383639993315,0.05274477313523402,0.011,0.0036580898628990628,0.013226868613942292,0.06952458791840815,-0.02,-0.01720844405402131,-0.05232166531993451,0.033110614482192574,-0.014,0.0020628355104314634,-0.046589460987973744,0.041462836787983716,0.042,-0.010454137078341218,-0.04222862298037218,0.055258071076801384,0.007,-0.04039722790398654,0.0006101409781979865,0.047892501559848547,-0.007,-0.0766692856547344,0.0030958504543610356,0.011586041047612912,-0.009000000000000001,0.10477759318622157,0.017434775224260943,0.074334948570522,0.021,0.15909243486432859,-0.023277721225204287,0.06124332505262138,-0.027,-0.012317280536043963,0.005187765206885627,-0.006509354219476731,-0.048,0.038455915837437925,0.06461489105029676,0.0689061564133581,-0.218,0.015470259162204925,-0.008880643291119622,0.041997681557320594,,,,,,,,,,,,,,,,,,,,,,,,,,,,,,,,,,,,,,,,,,,,,,,,,,,,,,,,,,,,,,,,,,,,,,,,,,,,,,,,,,,,,,,,,,,,,,,,,,,,,,5.0,8.0,1.0,12.61,12.450000000000001,11.86,13.22,-0.02996462007017358,-0.04097942400903774,-0.04293958956414992,0.0,102.48,102.48,101.25999999999999,98.82
2021-04-10 16:53:00.000010,1618087980.00001,16971.0,4.0,40.0,10.0,2.0,0.0,64.0,0.0,2.0,31.0,0.0,0.0,130.0,2.93,2.04,16.0,21.0,4.0,10.0,16.0,53.0,0.0,10.0,0.0,1485.0,0.0,208.86435277185262,9.45229076955073,-2.758794865044655,35.0,8.75,51.0,0.0,95.0,0.0,4.6000000000000005,3.1,15.0,0.0,0.0,,,,-0.019532188294578836,-0.004487342394094379,0.052185796713888365,0.0,0.0,0.0,0.01619132101181248,0.004593095969253831,-0.008817289453662277,0.06476406804904886,0.018372038926999703,-0.03526849561987784,3.999924898147583,0.0,0.0,-2.9690936197597275,-2.085061638636283,0.0,-2.9690936197597275,-2.085061638636283,0.0,0.0,-2.1034336775632827,0.0,15.0,13.186988427663287,19.354054519249438,155.79754588944837,-0.03201827364741516,0.06552967298970008,0.0602718185431816,0.0,0.02564379196697578,0.011941749652769193,0.0614637336059652,-0.012,0.019532188294578836,0.004487342394094379,0.052185796713888365,-0.02,-0.046394872904210564,0.024353993990360548,0.04052651903284602,0.016,-0.021165351444382606,0.008493061188826876,0.028998203562955654,-0.013000000000000001,-0.0384695390553849,-0.01629639511086247,0.019248949874132733,-0.015,0.009057202620151986,0.01366098327056184,0.056888879552852344,0.017,-0.00729482840078817,-0.018732197108367186,0.02837058811685677,-0.032,-0.015031050890650833,0.033206223142742644,0.011891772522086359,-0.028,-0.0352452923891107,-0.05168699299066151,-0.013828380960524758,-0.034,0.0030290914452394064,-0.003428899761745488,0.018112626850909263,-0.043000000000000003,0.033289772708014254,0.07180535433759946,0.052304704582862654,0.042,0.03420351777181589,0.07787455946684002,0.025916642527122787,-0.057,-0.02525816781269287,-0.07053110187258002,-0.0798522925618644,0.035,-0.10143297799000592,-0.11431474068261921,-0.06800361048315381,-0.035,0.2559669662992114,-0.28111283243674157,0.1637390839200307,,,,,,,,,,,,,,,,,,,,,,,,,,,,,,,,,,,,,,,,,,,,,,,,,,,,,,,,,,,,,,,,,,,,,,,,,,,,,,,,,,,,,,,,,,,,,,,,,,5.0,8.0,1.0,12.35,12.61,12.15,12.72,-0.01619132101181248,-0.004593095969253831,-0.008817289453662277,0.0,100.64999999999999,109.19,97.6,100.03999999999999
2021-04-10 16:53:03.000033,1618087983.000033,16971.0,4.0,40.0,10.0,2.0,0.0,64.0,0.0,2.0,31.0,0.0,0.0,130.0,2.93,2.04,17.0,21.0,4.0,10.0,16.0,53.0,3.0,33.0,0.0,1485.0,0.0,209.8275374847291,9.545316545646449,-2.6290649928024874,35.0,8.75,51.0,0.0,95.0,0.0,4.6000000000000005,3.1,15.0,0.0,0.0,,,,-0.018011231783540558,-0.021800272899228895,0.030762698697590317,0.0,0.0,0.0,-0.0227739978910279,-0.006826079162654734,-0.023827498050039315,-0.0683225149285286,-0.0204783937245173,-0.0714830395182679,3.0000228881835938,0.0,0.0,-3.037416134688256,-2.1055400323608002,0.0,-3.037416134688256,-2.1055400323608002,0.0,0.0,-2.085061638636283,0.0,13.0,13.850234154553696,26.794292818173776,153.2075892788981,-0.02423730957989991,0.02710762748634902,0.021993848148730746,0.047,-0.004990710053958659,-0.007463349536555409,0.017475446399234387,0.027,0.018011231783540558,0.021800272899228895,0.030762698697590317,0.03,-0.021358631778042713,0.06915680059041583,0.036539646695985493,-0.004,0.00524912017511852,0.07073462885415487,0.051049574124101424,-0.025,0.004931842529434777,-0.016858333248126092,0.008571670161642057,0.011,-0.008349166869025372,-0.005127953341210169,-0.01624793854996813,0.007,-0.005103703749668712,0.012819580790964525,0.0019001464100302675,-0.002,0.04925630056733869,0.010445900420981032,0.001303847696220101,0.003,-0.035592247291238346,-0.05055085393687597,-0.01979401674779445,-0.007,0.08287845270593595,-0.06873195084557521,-0.019418573841334788,-0.014,0.05903482276299299,-0.006199661005628715,-0.0069608839063219855,0.032,-0.023071279924686723,0.10539647855649537,0.027951714625885818,0.021,0.0015007600999697203,0.05509046799442828,-0.027143840098210355,,-0.20979578856039854,0.0424925928161401,-0.11129288682607824,,,,,,,,,,,,,,,,,,,,,,,,,,,,,,,,,,,,,,,,,,,,,,,,,,,,,,,,,,,,,,,,,,,,,,,,,,,,,,,,,,,,,,,,,,,,,,,,,,,,,,5.0,8.0,1.0,12.370000000000001,12.72,11.42,13.94,0.0227739978910279,0.006826079162654734,-0.023827498050039315,-0.002,103.7,104.31,110.41,100.64999999999999
2021-04-10 16:53:06.000057,1618087986.000057,16971.0,4.0,40.0,10.0,2.0,0.0,64.0,0.0,2.0,31.0,0.0,0.0,130.0,2.93,2.04,18.0,21.0,4.0,10.0,16.0,53.0,6.0,57.0,0.0,1485.0,0.0,209.4709295036095,10.25824656792377,-2.771650997257952,35.0,8.75,51.0,0.0,95.0,0.0,4.6000000000000005,3.1,15.0,0.0,0.0,,,,-0.04162606293465143,-0.03386992901415396,0.027497250646866665,0.0,0.0,0.0,-0.05085561562470138,-0.003968074095332456,-0.023322966093672154,-0.15256807149138943,-0.011904317838318712,-0.06996945990448855,3.0000240802764893,0.0,0.0,-3.1899842061796453,-2.117444350199119,0.0,-3.1899842061796453,-2.117444350199119,0.0,0.0,-2.1055400323608002,0.0,15.0,14.90510508334754,34.3634913679521,150.47294245449694,0.0049139952712396705,0.029151593329604736,0.05019001152440173,0.07,-0.006196345474364408,0.034439139142690624,0.0325661019754087,0.019,0.04162606293465143,0.03386992901415396,0.027497250646866665,0.019,-0.01877255158335773,0.06391619294706691,0.02147816533606838,0.015,0.01861098672886927,0.005323211871259035,0.005127824914282727,-0.038,0.01561806592681892,0.015815039722445075,-0.012647550564556846,0.018000000000000002,0.041634918197135204,-0.04341588555361808,-0.02627916414791378,-0.044,-0.03116100576897323,-0.011581331297295537,-0.047664079607690944,-0.003,0.05522228515394212,0.05238672190526074,0.005927106410178665,0.003,0.07460681613999967,-0.005944288047843485,-0.0021185903465621905,0.002,0.0021430689441305512,-0.0070523155249524,-0.048235589570743496,-0.11900000000000001,0.0546403774668085,0.022853856355499743,-0.010056361169273421,-0.067,0.04564634807910505,0.07012448787595688,0.003157072564252872,0.009000000000000001,0.04233399041597603,0.04806057356741679,-0.014765314891019666,0.134,0.04302860560949941,-0.013128524434521512,0.06573569004334197,-0.043000000000000003,,,,,,,,,,,,,,,,,,,,,,,,,,,,,,,,,,,,,,,,,,,,,,,,,,,,,,,,,,,,,,,,,,,,,,,,,,,,,,,,,,,,,,,,,,,,,,,,,,,,,5.0,8.0,1.0,12.55,13.19,10.97,15.8,0.05085561562470138,0.003968074095332456,-0.023322966093672154,0.003,99.42999999999999,98.21,105.53,97.6
2021-04-10 16:53:09.000083,1618087989.000083,16971.0,4.0,40.0,10.0,2.0,0.0,64.0,0.0,2.0,31.0,0.0,0.0,130.0,2.93,2.04,19.0,21.0,4.0,10.0,16.0,53.0,9.0,83.0,0.0,1485.0,0.0,209.5568214923776,9.142586606701865,-2.47129412221539,35.0,8.75,51.0,0.0,95.0,0.0,4.6000000000000005,3.1,15.0,0.0,0.0,,,,-0.018452830394258834,0.012732673880702792,-0.022942799879011856,0.0,0.0,0.0,-0.07615237102187294,0.017255399842746846,-0.01743753319750057,-0.2284590920848891,0.05176664795510298,-0.0523130527525775,3.000025987625122,0.0,0.0,-3.4184432982645343,-2.065677702244016,0.0,-3.4184432982645343,-2.065677702244016,0.0,0.0,-2.117444350199119,0.0,15.0,16.316942399781393,40.540521942253584,152.79085521664518,-0.03141377921004881,-0.03619938659165642,0.017227271581132957,-0.035,0.037340413896054345,0.00037296941751385065,0.026731150066634818,-0.013000000000000001,0.018452830394258834,-0.012732673880702792,-0.022942799879011856,0.009000000000000001,-0.043085489976846594,0.011851268309464265,-0.0004335814942318932,-0.003,0.00022726515932875932,0.041395385898951614,0.0018358586068196224,-0.03,0.05768895993384842,0.005938377988558691,-0.011946529563678008,0.028,0.07607844103744048,0.010355735919015993,-0.023405758754808475,-0.008,0.11369338688156785,-0.03883465254077083,-0.04099614056756726,-0.023,0.04097661038002847,0.13339784309557404,-0.0405084294834045,0.07200000000000001,-0.07503883951480092,-0.08823147707554164,-0.16045366626331767,-0.11800000000000001,0.07762714671329703,-0.04447038248863005,-0.061428097597656425,0.10300000000000001,0.0776728514061124,-0.13365111159278356,-0.07958836927879155,0.122,0.051541525011833705,-0.0180578786724677,-0.003922271957036725,0.05,0.016128936697608565,0.07322431837877123,0.006637514517413861,-0.053,-0.020055146789512045,0.024602837485460174,-0.04460371593169296,-0.059000000000000004,0.19165694828461266,-0.007213652778226914,0.13348249843265783,,0.1715840625067075,0.05774149666105296,0.21340063040449506,,,,,,,,,,,,,,,,,,,,,,,,,,,,,,,,,,,,,,,,,,,,,,,,,,,,,,,,,,,,,,,,,,,,,,,,,,,,,,,,,,,,,,,,,,,,,,5.0,8.0,1.0,13.57,13.75,10.67,17.92,0.07615237102187294,-0.017255399842746846,-0.01743753319750057,-0.001,104.31,99.42999999999999,105.53,97.6
2021-04-10 16:53:13.000015,1618087993.000015,16971.0,4.0,40.0,10.0,2.0,0.0,64.0,0.0,2.0,31.0,0.0,0.0,130.0,2.93,2.04,20.0,21.0,4.0,10.0,16.0,53.0,13.0,15.0,0.0,1485.0,0.0,208.66947723423513,9.23054493627246,-1.8216208538350265,35.0,8.77,51.0,0.0,95.0,0.0,4.6000000000000005,3.1,15.0,0.0,0.0,,,,-0.042403491838516605,0.01799680213559482,0.043221048029786435,0.0,0.0,0.0,-0.03599449600135875,0.06174933150147796,0.005423681105001495,-0.14397553820480624,0.24699313018236688,0.02169435588469835,3.999932050704956,0.0,0.0,-3.5624188364693405,-1.818684572061649,0.0,-3.5624188364693405,-1.818684572061649,0.0,0.0,-2.065677702244016,0.0,16.0,20.39065530523825,54.419403495834366,152.68161870583282,-0.018355267015454216,-0.060357833769186194,0.005832330193213142,0.022,0.021096582013235568,-0.04131148264872768,0.014876008494307123,0.048,0.042403491838516605,-0.01799680213559482,0.043221048029786435,-0.031,0.02183310078187404,-0.014989143334530363,0.047672227683898255,-0.021,-0.03664616469822776,-0.012124168837995948,0.0028395673786923816,0.044,0.03765596611045615,0.021141220902625518,-0.002019157010875563,-0.032,0.05149287218537877,-0.0034027668262957347,-0.011353646640005422,0.014,0.06125859940632138,-0.028810344272927137,-0.011061105805987707,0.036000000000000004,0.09797585608644416,0.02969775137168284,-0.0008804473829214163,0.069,0.0010949376733181797,0.031904924263532315,-0.007062359324603606,-0.027,0.013368047149050096,-9.944369302294486e-05,0.006579166084899477,-0.11800000000000001,0.04081680842051253,-0.07135968507919266,-0.03993474046192896,-0.035,0.04649679705649089,0.013425770279267172,0.05483426443288764,0.042,0.040610162594800214,-0.006157733695714452,0.023788589906855603,0.08,-0.009222625519191823,0.0038319536046044307,-0.02588936673819796,-0.078,-0.017601864103783425,0.02265168281919256,-0.03958630628804154,-0.031,0.07410473470457768,0.08596294515659582,0.039049460359501284,,0.18311109256204913,0.13561742385243963,0.17945261805936524,,-0.10711154196818788,-0.2102084412069115,0.1884689067792286,,,,,,,,,,,,,,,,,,,,,,,,,,,,,,,,,,,,,,,,,,,,,,,,,,,,,,,,,,,,,,,,,,,,,,,,,,,,,,,,,,,,,,5.0,8.0,1.0,14.98,14.870000000000001,10.36,,0.03599449600135875,-0.06174933150147796,0.005423681105001495,,100.64999999999999,108.58,106.75,0.0
2021-04-10 16:53:16.000041,1618087996.000041,16971.0,4.0,40.0,10.0,2.0,0.0,64.0,0.0,2.0,31.0,0.0,0.0,130.0,2.93,2.04,21.0,21.0,4.0,10.0,16.0,53.0,16.0,41.0,0.0,1485.0,0.4,207.89712865379997,9.7000035842263,-1.4513748318989943,35.0,8.790000000000001,51.0,0.0,95.0,0.0,4.6000000000000005,3.1,15.0,0.0,0.0,-0.8461426937772326,-1.472081733111085,0.13333217833777755,-0.001011416712408255,0.07267891714455958,0.03940497479923197,0.0,0.0,0.0,0.012433847948285157,0.11001503363484433,-0.016373509077867054,0.037301866971034776,0.3300479599339849,-0.04912095274221701,3.000025987625122,0.4,0.0,-3.5251169694983058,-1.488636612127664,0.4,-3.5251169694983058,-1.488636612127664,0.4,0.0,-1.818684572061649,0.0,15.0,20.08422716351554,53.972660498456804,152.56377238937372,-0.04428315344355491,-0.04071188553278502,0.024156669833815703,0.014,-0.0069063111784167484,-0.0770562719833757,0.019251852220784092,-0.008,0.001011416712408255,-0.07267891714455958,0.03940497479923197,0.005,0.011902805507252357,-0.06912811824073381,0.03207220743185052,0.008,-0.030494560801515934,-0.06007968272844532,0.025030251392504952,-0.024,0.028130352227804932,0.016788245731139788,0.05754857156185979,-0.046,0.054566813478072775,0.0010270935358063678,0.03490570076245311,-0.003,0.03882035014076385,-0.087271570450033,0.03258302328104963,0.094,-0.006263321685813287,-0.0039786036783088004,-0.016820865442389362,-0.078,-0.028221845142412286,-0.026906444617736357,-0.0205808331898975,-0.005,0.08124773496084742,-0.04034973398102943,-0.02950770291622261,0.052000000000000005,-0.03233557789522439,0.017895688155964314,-0.015496927037524377,0.106,-0.016520007594497226,-0.024644442161476116,0.010850844189620096,0.069,-0.02889782602079597,-0.03634273044326208,-0.024517781204672635,0.03,-0.06513402591980058,-0.057274148833292654,-0.04483559459737976,-0.022,0.01874727442538018,-0.05096016903147603,-0.020015016210407584,,0.05743326682255885,0.02101402261794066,0.010384156947072745,,-0.006109049997879706,0.0022897913990385524,-0.017647559703038124,,,,,,,,,,,,,,,,,,,,,,,,,,,,,,,,,,,,,,,,,,,,,,,,,,,,,,,,,,,,,,,,,,,,,,,,,,,,,,,,,,,,,,,,,,5.0,8.0,1.0,14.51,14.450000000000001,10.1,,-0.012433847948285157,-0.11001503363484433,-0.016373509077867054,,101.25999999999999,96.99,107.97,0.0
2021-04-10 16:53:19.000066,1618087999.000066,16971.0,4.0,40.0,10.0,2.0,0.0,64.0,0.0,2.0,31.0,0.0,0.0,130.0,2.93,2.04,22.0,21.0,4.0,10.0,16.0,53.0,19.0,66.0,0.0,1485.0,0.5,208.19278704562322,9.700003584226298,-1.3037317442740612,35.0,8.81,51.0,0.0,95.0,0.0,4.6000000000000005,3.1,15.0,0.0,0.0,-0.2115357406891266,-0.36802055026734,0.033333055180645464,0.06025362101510723,0.06540026220396027,0.029938384362237613,0.0,0.0,0.0,0.03772166641529645,0.13177601161990304,-0.02642269184629516,0.1131659435682307,0.3953313337339014,-0.07926873700325332,3.0000250339508057,0.09999999999999998,0.0,-3.411951025930075,-1.0933052783937627,0.5,-3.411951025930075,-1.0933052783937627,0.5,0.0,-1.488636612127664,0.0,9.0,16.723863238643396,44.980307282095914,153.3011862842835,-0.02458973968805888,-0.09598502664410555,0.03209703042656514,0.009000000000000001,-0.03740824681416409,-0.09592951746078172,0.02044873468046748,-0.024,-0.06025362101510723,-0.06540026220396027,0.029938384362237613,0.002,-0.0596138107799126,-0.06302690446787511,0.03353808100494306,0.019,-0.02447669092679779,-0.04200761705844627,0.06399415372004655,0.015,0.013069513949608105,-0.009797109796409508,0.07330896565058122,-0.022,0.0810221952328006,-0.01492040926281173,0.039884649516927516,0.022,0.04661132624600435,0.03132380254819367,0.009121603998767039,-0.006,-0.06828822724831915,-0.06128217738987091,-0.034687357259357725,0.024,0.04720654249833907,-0.1721201782473834,0.0028612209704030472,,0.02259822356069155,-0.1232194811508457,-0.025283982218341015,-0.013000000000000001,0.07847257000932491,-0.08635613475611248,0.05660100481542483,0.07200000000000001,-0.06845943628353601,-0.04431979520430933,-0.022227490564356394,0.057,-0.011685157926526524,0.018287504238375885,-0.011091630762134054,0.035,-0.11043563151642387,0.006420398716610147,-0.0662778226248298,-0.195,0.016040907368430272,0.05007116883506614,0.005250461150007758,,,,,,,,,,,,,,,,,,,,,,,,,,,,,,,,,,,,,,,,,,,,,,,,,,,,,,,,,,,,,,,,,,,,,,,,,,,,,,,,,,,,,,,,,,,,,,,,,,5.0,8.0,1.0,13.08,13.06,9.86,18.62,-0.03772166641529645,-0.13177601161990304,-0.02642269184629516,0.008,101.25999999999999,104.31,111.63,96.38
2021-04-10 16:53:22.000091,1618088002.000091,16971.0,4.0,40.0,10.0,2.0,0.0,64.0,0.0,2.0,31.0,0.0,0.0,130.0,2.93,2.04,23.0,21.0,4.0,10.0,16.0,53.0,22.0,91.0,0.0,1485.0,1.0,206.88552753205434,10.035228042070909,-1.6523704681246796,35.0,8.81,51.0,0.0,95.0,0.0,4.6000000000000005,3.1,15.0,0.0,0.0,-1.0576787034456332,-1.8401027513367,0.16666527590322736,0.06957383837652922,0.10269711813119128,0.03812850562380769,0.0,0.0,0.0,0.058356711132639925,0.15362059029312478,-0.014464041750959944,0.17507159429695546,0.46086561660967446,-0.043392487344989475,3.0000250339508057,0.5,0.0,-3.2368794316331195,-0.6324396617840882,1.0,-3.2368794316331195,-0.6324396617840882,1.0,0.0,-1.0933052783937627,0.0,14.0,15.509265908868322,40.852517514445374,153.16617622787098,-0.04222130951171178,-0.09882355985057088,0.0459920106276826,-0.007,-0.0511068820353991,-0.1046244839749713,0.043895375173140655,-0.015,-0.06957383837652922,-0.10269711813119128,0.03812850562380769,-0.011,-0.08908197221548816,-0.12784139108168882,0.03011612446012444,0.076,0.03231934593720916,-0.05358173078742262,0.0956998328316992,-0.025,0.025362821697708662,0.039973418197742035,0.08525756924237674,0.043000000000000003,0.04230678330507276,-0.041945783713706955,0.014024525482900745,-0.013000000000000001,0.016787272978140862,0.010629906911303534,0.0038977615389352636,0.022,-0.19313634433670723,-0.18683964698813113,-0.11973010820008229,-0.14,-0.043265122351734325,-0.16994075994719585,0.002503456901769688,0.061,0.000640121165340353,-0.12132488075855025,0.03820816082746258,0.018000000000000002,-0.02653924210920902,-0.07915741729656275,0.023848939498573356,-0.007,-0.04269144434419288,-0.0021619679183944793,0.04096054778108459,-0.018000000000000002,-0.009957024397426031,0.10911574350784461,0.04650389428724576,0.064,-0.19587001289510209,-0.0634316571558996,0.06552375843103743,,,,,,,,,,,,,,,,,,,,,,,,,,,,,,,,,,,,,,,,,,,,,,,,,,,,,,,,,,,,,,,,,,,,,,,,,,,,,,,,,,,,,,,,,,,,,,,,,,,,,,5.0,8.0,1.0,11.91,12.0,9.6,16.13,-0.058356711132639925,-0.15362059029312478,-0.014464041750959944,-0.003,101.87,103.7,100.03999999999999,86.62
2021-04-10 16:53:26.000015,1618088006.000015,16971.0,4.0,40.0,10.0,2.0,0.0,64.0,0.0,2.0,31.0,0.0,0.0,130.0,2.93,2.04,24.0,21.0,4.0,10.0,16.0,53.0,26.0,15.0,0.0,1485.0,1.0,203.63990377354799,11.432716149885179,-2.5624099943215435,35.0,8.81,51.0,0.0,95.0,0.0,4.6000000000000005,3.1,15.0,0.0,0.0,,,,0.11459634859126007,0.09573628040979673,0.03654095651248303,0.0,0.0,0.0,0.08519876368579007,0.16486628851768723,-0.03700375084792927,0.34078857490631115,0.6594526150783351,-0.14801218905195523,3.9999239444732666,0.0,0.0,-2.896090856726808,0.02701295329424691,1.0,-2.896090856726808,0.02701295329424691,1.0,0.0,-0.6324396617840882,0.0,15.0,15.183198980521452,41.42172949351995,153.26543468892154,-0.11980385138058379,-0.14939850517199532,-0.01327116599068346,0.022,-0.08720838293594715,-0.14010229132709298,-0.006859002157425301,0.038,-0.11459634859126007,-0.09573628040979673,0.03654095651248303,-0.013000000000000001,-0.07940677293269002,-0.11188597681655943,0.05371305804197464,0.026000000000000002,0.023891793919733895,-0.029585811039573535,0.09221096446967474,-0.066,0.023469972520136433,0.06189959035934193,0.07697143043525762,0.041,0.03917533392344006,0.04556528233813494,0.014110218192253957,0.017,-0.012198269580387614,-0.01838591712002948,-0.03765846878060229,0.04,-0.13293716414553203,-0.2614931220778732,-0.1253796534327257,-0.115,-0.028015064444772454,-0.13772498789367088,0.0318901846003351,0.031,-0.08839642882405256,-0.10042944526803273,-0.0014134688922745678,0.052000000000000005,-0.04904574349282403,-0.10381933839838996,-0.0028390173928146967,0.054,-0.052964836476390845,-0.003418335827652736,0.015001369177463891,-0.055,0.003395279643272837,0.025728666536818462,0.03604868644460121,-0.135,-0.029085485414932166,-0.19792945609160606,-0.04740216186482163,-0.092,,,,,-0.29689540556348387,-0.42855778710071535,-0.04859363405459867,,,,,,,,,,,,,,,,,,,,,,,,,,,,,,,,,,,,,,,,,,,,,,,,,,,,,,,,,,,,,,,,,,,,,,,,,,,,,,,,,,,,,,,,,,,,,,5.0,8.0,1.0,11.620000000000001,11.68,9.28,15.83,-0.08519876368579007,-0.16486628851768723,-0.03700375084792927,-0.003,98.21,108.58,112.24,97.6
2021-04-10 16:53:29.000046,1618088009.000046,16971.0,4.0,40.0,10.0,2.0,0.0,64.0,0.0,2.0,31.0,0.0,0.0,130.0,2.93,2.04,25.0,21.0,4.0,10.0,16.0,53.0,29.0,46.0,0.0,1485.0,1.3,199.96298845995105,11.931635855252788,-3.265826873465338,35.0,8.81,51.0,0.0,95.0,0.0,4.6000000000000005,3.1,15.0,0.0,0.0,-0.634605961229138,-1.1040594572512659,0.09999896686349773,0.10516287980823327,0.12250263876763073,0.01195291618838095,0.0,0.0,0.0,0.08296508513583849,0.17898023310976632,-0.05893106824398131,0.24889782686181816,0.5369462467169714,-0.17679503126594617,3.000030994415283,0.30000000000000004,0.0,-2.64719302986499,0.5639592000112184,1.3,-2.64719302986499,0.5639592000112184,1.3,0.0,0.02701295329424691,0.0,7.0,16.02493793340618,45.86684608009572,152.64505026886252,-0.10267631954740411,-0.11765614268926013,0.008037754144275537,-0.005,-0.06398433835370468,-0.163192020220963,0.008681531065395522,-0.01,-0.10516287980823327,-0.12250263876763073,0.01195291618838095,-0.014,-0.04885657892961003,-0.1724492617855935,0.025986281090194845,0.082,0.04953456770599584,0.01079270255192873,0.10075636046327648,-0.114,0.04467662855886806,0.03999887730683716,0.06486207424069572,0.014,-0.016451550954795984,-0.022306076657209482,-0.01737197212018387,0.077,-0.01776929676212544,0.05705917030327977,-0.0811326270798674,,-0.23237320772899042,-0.2608131961447498,-0.18232709356126905,-0.20500000000000002,-0.011548246508424106,-0.13121405920336043,-0.017277403449526035,0.075,-0.10161363940717258,0.033192661341170514,0.012566444187576267,0.108,-0.03172490286255869,-0.0185213981355193,-0.0060405587048548565,0.046,-0.01722546306898113,-0.06339225070165962,-0.00486887800597878,0.011,-0.0501621819472449,-0.10532313344780576,-0.048319696429377494,-0.11800000000000001,0.014686079145699865,-0.009025657429332846,0.021397583678877584,,-0.12383168555618695,0.08781331426968968,0.018561667201152838,,-0.1015820606612285,-0.06679337579990577,-0.034303496921903695,,,,,,,,,,,,,,,,,,,,,,,,,,,,,,,,,,,,,,,,,,,,,,,,,,,,,,,,,,,,,,,,,,,,,,,,,,,,,,,,,,,,,,,,,,,,,,5.0,8.0,1.0,11.68,11.77,8.86,17.13,-0.08296508513583849,-0.17898023310976632,-0.05893106824398131,0.009000000000000001,103.09,99.42999999999999,103.7,89.67
2021-04-10 16:53:32.000070,1618088012.00007,16971.0,4.0,40.0,10.0,2.0,0.0,64.0,0.0,2.0,31.0,0.0,0.0,130.0,2.93,2.04,26.0,21.0,4.0,10.0,16.0,53.0,32.0,70.0,0.0,1485.0,2.0,201.46183885745506,12.583340787680227,-3.5916868077926463,35.0,8.81,51.0,0.0,95.0,0.0,4.6000000000000005,3.1,15.0,0.0,0.0,-1.4807506555379146,-2.576144670798882,0.23333146043797298,0.1131343678745477,0.1317132790757016,0.001107664548886958,0.0,0.0,0.0,0.0793231043769874,0.19960309919237104,-0.05737114174215163,0.2379712232532476,0.5988141040749297,-0.17211480673941054,3.0000240802764893,0.7,0.0,-2.4092218066117423,1.162773304086148,2.0,-2.4092218066117423,1.162773304086148,2.0,0.0,0.5639592000112184,0.0,7.0,16.621169281758547,47.741677613135465,152.4127774415958,-0.1046764313500604,-0.1491768254237148,-0.01360586183667194,-0.013000000000000001,-0.0579585497295401,-0.15966764253536891,-0.009436654091682848,-0.006,-0.1131343678745477,-0.1317132790757016,0.001107664548886958,0.011,-0.05488684931991754,-0.134501924875346,0.029540920374278162,0.088,0.06002912606989972,0.022433845714899717,0.12566314730152256,-0.064,0.021583167204636006,0.040576033253001485,0.05525171869605544,0.015,-0.02144351031323774,0.0024886444339680307,0.012449197336669809,-0.037,-0.07393928334211228,0.010763435149962319,-0.087017991488125,,-0.07997902371623003,-0.23582619162500323,-0.12893549980143554,-0.168,-0.05277453087849579,-0.09864871521867807,-0.0514225619379164,0.093,-0.0910664491795952,-0.0704168259142291,-0.057396624134049556,0.146,-0.05352194313234574,-0.1449900065379068,-0.08601918162523803,0.056,-0.021626346686359706,-0.05587042267285899,-0.028492051511912274,-0.059000000000000004,-0.0532114165993019,-0.10940878972358786,-0.048417578158301916,-0.04,-0.052234240577156976,-0.08618825376087336,-0.03667654597939925,0.153,-0.0086142464351486,-0.0861096153021376,-0.04003659464630326,,,,,,,,,,,,,,,,,,,,,,,,,,,,,,,,,,,,,,,,,,,,,,,,,,,,,,,,,,,,,,,,,,,,,,,,,,,,,,,,,,,,,,,,,,,,,,,,,,5.0,8.0,1.0,11.51,11.61,8.39,17.28,-0.0793231043769874,-0.19960309919237104,-0.05737114174215163,0.022,105.53,102.48,100.64999999999999,96.38
2021-04-10 16:53:35.000092,1618088015.000092,16971.0,4.0,40.0,10.0,2.0,0.0,64.0,0.0,2.0,31.0,0.0,0.0,130.0,2.93,2.04,27.0,21.0,4.0,10.0,16.0,53.0,35.0,92.0,0.0,1485.0,2.2,198.55820470906937,9.210516525697352,-3.2069913078143046,35.0,8.81,51.0,0.0,95.0,0.0,4.6000000000000005,3.1,15.0,0.0,0.0,-0.4230719184701641,-0.7360418609679054,0.06666617923669108,0.0830107632265284,0.12975848127415798,-0.007479954944599559,0.0,0.0,0.0,0.07380589057498996,0.1999635175478447,-0.07117079574042587,0.2214192906209614,0.5998949387451649,-0.21351394831775705,3.0000219345092773,0.20000000000000018,0.0,-2.187802515990781,1.762668242831313,2.2,-2.187802515990781,1.762668242831313,2.2,0.0,1.162773304086148,0.0,7.0,15.782079488350508,46.427547987548245,152.21871560008532,-0.054057982791310945,-0.19510087590255326,-0.020937591040777394,-0.028,-0.087041968458319,-0.14607301487244712,-0.018231018977962872,-0.011,-0.0830107632265284,-0.12975848127415798,-0.007479954944599559,0.024,-0.06931460001213408,-0.09650635077304776,0.027055692296212464,0.013000000000000001,0.05185247260612537,0.04234577947357426,0.10093144230321112,-0.052000000000000005,0.06646545001062805,0.0038507458465483237,0.036762966573849774,0.04,0.053972397005547804,0.03317124519020309,-0.0214627317461446,0.107,-0.09420824999252442,-0.13044425705105395,-0.08976692840765244,,-0.06325918733577654,-0.10179311970642979,-0.09415644427254882,-0.023,-0.011767795578650105,-0.06911650921599272,-0.027900307184952212,0.057,-0.038817879995223216,-0.09146388798715724,-0.040305451082318894,0.045,-0.016986788972651358,-0.0895384807127667,-0.06517905700490088,-0.017,0.017139198496075425,-0.0795795373848685,-0.07281033652251884,-0.025,-0.012350042659355003,-0.08917045345284269,-0.06152322063519211,-0.069,-0.060233328352196906,-0.09600837550006659,-0.10295308635225389,,,,,,-0.23345544667943868,-0.3257513895917169,-0.0023635978442253375,,,,,,,,,,,,,,,,,,,,,,,,,,,,,,,,,,,,,,,,,,,,,,,,,,,,,,,,,,,,,,,,,,,,,,,,,,,,,,,,,,,,,,,,,,,,,,5.0,8.0,1.0,10.71,10.86,8.07,15.89,-0.07380589057498996,-0.1999635175478447,-0.07117079574042587,-0.004,98.82,93.33,111.02,99.42999999999999
